TRIFID,LONGITUDE,LATITUDE,ESTIMATE,STATEFP,COUNTYFP,TRACTCE,STATEGEOID,COUNTYGEOID,TRACTGEOID,AFFGEOID,FACILITY_NAME,STREET,CITY,STUSPS,ZIP_CODE,FACILITY,FAC_CLOSED_IND,ASGN_FEDERAL_IND,BIA_CODE,EPA_REGISTRY_ID
71601TYSNF2201W,-92.02600000000001,34.229,False,05,069,001300,05,05069,05069001300,1400000US05069001300,TYSON FOODS INC,2201 W 2ND ST,PINE BLUFF,AR,71601,"TYSON FOODS INC.2201 W 2ND ST, PINE BLUFF ARKANSAS 71601 (JEFFERSON)",0,C,,
71611BNPRS2912W,-92.03200000000001,34.227,False,05,069,001300,05,05069,05069001300,1400000US05069001300,QUEST CORP,2912 W 2ND ST,PINE BLUFF,AR,71601,"QUEST CORP.2912 W 2ND ST, PINE BLUFF ARKANSAS 71601 (JEFFERSON)",0,C,,110009522668
71611CNTRL2400W,-92.02799999999999,34.223,False,05,069,001300,05,05069,05069001300,1400000US05069001300,CENTRAL MOLONEY INC.,2400 W 6TH ST,PINE BLUFF,AR,71601,"CENTRAL MOLONEY INC..2400 W 6TH ST, PINE BLUFF ARKANSAS 71601 (JEFFERSON)",0,C,,110000450841
71611VRCPR17THC,-92.03,34.213,False,05,069,001300,05,05069,05069001300,1400000US05069001300,VARCO PRUDEN BUILDINGS INC,2622 W 17TH AVE,PINE BLUFF,AR,716036868,"VARCO PRUDEN BUILDINGS INC.2622 W 17TH AVE, PINE BLUFF ARKANSAS 71603 (JEFFERSON)",0,C,,
71613RDDYC2601W,-92.031,34.224000000000004,False,05,069,001300,05,05069,05069001300,1400000US05069001300,REDDY ICE-PINE BLUFF,2601 W 6TH AVE,PINE BLUFF,AR,71613,"REDDY ICE-PINE BLUFF.2601 W 6TH AVE, PINE BLUFF ARKANSAS 71613 (JEFFERSON)",0,C,,110015679871
71602BNRYCPINEB,-92.119,34.157,False,05,069,002104,05,05069,05069002104,1400000US05069002104,ASEA BROWN BOVERI  BINARY CHEMICAL PLANT,"PINE BLUFF ARSENAL, BLDG 53-220",PINE BLUFF,AR,71602,"ASEA BROWN BOVERI  BINARY CHEMICAL PLANT.PINE BLUFF ARSENAL, BLDG 53-220, PINE BLUFF ARKANSAS 71602 (JEFFERSON)",0,C,,
71602CMDNW3411N,-92.061,34.263000000000005,False,05,069,000303,05,05069,05069000303,1400000US05069000303,INTERNATIONAL WIRE GROUP CAMDEN WIRE PLANT#4,3411 HUTCHINSON ST JEFFERSON INDUSTRIAL PARK,PINE BLUFF,AR,71602,"INTERNATIONAL WIRE GROUP CAMDEN WIRE PLANT#4.3411 HUTCHINSON ST JEFFERSON INDUSTRIAL PARK, PINE BLUFF ARKANSAS 71602 (JEFFERSON)",0,C,,
71602CMPNN5500J,-92.07700000000001,34.260999999999996,False,05,069,000303,05,05069,05069000303,1400000US05069000303,CENTRAL MOLONEY INC,5500 JEFFERSON PKWY,PINE BLUFF,AR,71602,"CENTRAL MOLONEY INC.5500 JEFFERSON PKWY, PINE BLUFF ARKANSAS 71602 (JEFFERSON)",0,C,,
71602FLRDD3300N,-92.06200000000001,34.258,False,05,069,000303,05,05069,05069000303,1400000US05069000303,MAUSER USA LLC,3300 N HUTCHINSON ST,WHITE HALL,AR,71602,"MAUSER USA LLC.3300 N HUTCHINSON ST, WHITE HALL ARKANSAS 71602 (JEFFERSON)",0,C,,110000450743
71602STNTN5300J,-92.064,34.263000000000005,False,05,069,000303,05,05069,05069000303,1400000US05069000303,STANT MANUFACTURING,5300 JEFFERSON PKWY,PINE BLUFF,AR,71602,"STANT MANUFACTURING.5300 JEFFERSON PKWY, PINE BLUFF ARKANSAS 71602 (JEFFERSON)",0,C,,110000450789
71602WHLNG5411I,-92.071,34.259,False,05,069,000303,05,05069,05069000303,1400000US05069000303,WHEELING MACHINE PINE BLUFF,5411 INDUSTRAL DR S,PINE BLUFF,AR,71602,"WHEELING MACHINE PINE BLUFF.5411 INDUSTRAL DR S, PINE BLUFF ARKANSAS 71602 (JEFFERSON)",0,C,,110043769570
71602SHNTT1PROG,-92.06700000000001,34.258,False,05,069,000303,05,05069,05069000303,1400000US05069000303,INTERNATIONAL WIRE GROUP INC SHUNT TECHNOLOGY FACILITY,5322 INDUSTRIAL DR S JEFFERSON INDUSTRIAL PARK,PINE BLUFF,AR,71602,"INTERNATIONAL WIRE GROUP INC SHUNT TECHNOLOGY FACILITY.5322 INDUSTRIAL DR S JEFFERSON INDUSTRIAL PARK, PINE BLUFF ARKANSAS 71602 (JEFFERSON)",0,C,,
71602TYSNF5505J,-92.07799999999999,34.262,False,05,069,000303,05,05069,05069000303,1400000US05069000303,TYSON POULTRY INC PINE BLUFF JEFFERSON PARKWAY PLANT,5505 JEFFERSON PKWY,PINE BLUFF,AR,71602,"TYSON POULTRY INC PINE BLUFF JEFFERSON PARKWAY PLANT.5505 JEFFERSON PKWY, PINE BLUFF ARKANSAS 71602 (JEFFERSON)",0,C,,110000450805
7160WMRCNN34NHU,-92.061,34.259,False,05,069,000303,05,05069,05069000303,1400000US05069000303,FLINT GROUP,3400 N HUTCHINSON ST,WHITE HALL,AR,71602,"FLINT GROUP.3400 N HUTCHINSON ST, WHITE HALL ARKANSAS 71602 (JEFFERSON)",0,C,,110025064338
71602GYLRD500MC,-92.03299999999999,34.266999999999996,False,05,069,000502,05,05069,05069000502,1400000US05069000502,MONDI BAGS USA LLC,1701 JEFFERSON PKWY,PINE BLUFF,AR,71602,"MONDI BAGS USA LLC.1701 JEFFERSON PKWY, PINE BLUFF ARKANSAS 71602 (JEFFERSON)",0,C,,110000450752
71601CSTNG3211W,-92.036,34.231,False,05,069,000502,05,05069,05069000502,1400000US05069000502,AR CASTINGS INC,3211 W PULLEN ST,PINE BLUFF,AR,71601,"AR CASTINGS INC.3211 W PULLEN ST, PINE BLUFF ARKANSAS 71601 (JEFFERSON)",0,C,,
71611HVRTRDIXIE,-92.06,34.268,False,05,069,000502,05,05069,05069000502,1400000US05069000502,HOOVER TREATED WOOD PRODUCTS INC,2901 DIXIE WOOD DR,PINE BLUFF,AR,71602,"HOOVER TREATED WOOD PRODUCTS INC.2901 DIXIE WOOD DR, PINE BLUFF ARKANSAS 71602 (JEFFERSON)",0,C,,110000450869
71602TRFLR5100I,-92.04899999999999,34.259,False,05,069,000502,05,05069,05069000502,1400000US05069000502,KISWIRE PINE BLUFF INC,5100 IND US TRIAL DR S,PINE BLUFF,AR,71602,"KISWIRE PINE BLUFF INC.5100 IND US TRIAL DR S, PINE BLUFF ARKANSAS 71602 (JEFFERSON)",0,C,,110000450798
7160WTWNRV171JE,-92.024,34.264,False,05,069,000502,05,05069,05069000502,1400000US05069000502,TWIN RIVERS PINE BLUFF LLC,1701 JEFFERSON PKWY,WHITE HALL,AR,71602,"TWIN RIVERS PINE BLUFF LLC.1701 JEFFERSON PKWY, WHITE HALL ARKANSAS 71602 (JEFFERSON)",0,C,,110070556446
71611CNTRYEMMET,-91.94,34.256,False,05,069,002500,05,05069,05069002500,1400000US05069002500,ALLIED TUBE & CONDUIT,4215 EMMETT SANDERS RD,PINE BLUFF,AR,71601,"ALLIED TUBE & CONDUIT.4215 EMMETT SANDERS RD, PINE BLUFF ARKANSAS 71601 (JEFFERSON)",0,C,,110000450850
71611NTRNTFAIRF,-91.90700000000001,34.222,False,05,069,002500,05,05069,05069002500,1400000US05069002500,EVERGREEN PACKAGING,5201 FAIRFIELD RD,PINE BLUFF,AR,71601,"EVERGREEN PACKAGING.5201 FAIRFIELD RD, PINE BLUFF ARKANSAS 71601 (JEFFERSON)",0,C,,110000450878
71611STRNGPOBOX,-91.93799999999999,34.26,False,05,069,002500,05,05069,05069002500,1400000US05069002500,SUN GRO HORTICULTURAL,4418 EMMETT SANDERS RD,PINE BLUFF,AR,71601,"SUN GRO HORTICULTURAL.4418 EMMETT SANDERS RD, PINE BLUFF ARKANSAS 71601 (JEFFERSON)",0,C,,
71603TYSNFEMMIT,-91.94200000000001,34.254,False,05,069,002500,05,05069,05069002500,1400000US05069002500,TYSON FOODS INC PINE BLUFF FEED MILL & WAREHOUSE,4211 EMMITT SANDERS RD,PINE BLUFF,AR,71603,"TYSON FOODS INC PINE BLUFF FEED MILL & WAREHOUSE.4211 EMMITT SANDERS RD, PINE BLUFF ARKANSAS 71603 (JEFFERSON)",0,C,,110027360237
71603TYSNF4601E,-91.943,34.254,False,05,069,002500,05,05069,05069002500,1400000US05069002500,TYSON POULTRY INC,4601 EMMETT SANDERS RD,PINE BLUFF,AR,71601,"TYSON POULTRY INC.4601 EMMETT SANDERS RD, PINE BLUFF ARKANSAS 71601 (JEFFERSON)",0,C,,110000450896
71601PNBLF2700H,-91.90700000000001,34.218,False,05,069,002500,05,05069,05069002500,1400000US05069002500,INTERNATIONAL PAPER CO PINE BLUFF WOODYARD,2700 HWY 81 N,PINE BLUFF,AR,71601,"INTERNATIONAL PAPER CO PINE BLUFF WOODYARD.2700 HWY 81 N, PINE BLUFF ARKANSAS 71601 (JEFFERSON)",0,C,,110013286844
71635GRGPCPAPER,-91.96600000000001,33.139,False,05,003,960600,05,05003,05003960600,1400000US05003960600,GEORGIA-PACIFIC CROSSETT PAPER OPERATIONS,100 MILL SUPPLY RD,CROSSETT,AR,71635,"GEORGIA-PACIFIC CROSSETT PAPER OPERATIONS.100 MILL SUPPLY RD, CROSSETT ARKANSAS 71635 (ASHLEY)",0,C,,110000450921
7163WPNNCL117MA,-91.94200000000001,33.134,False,05,003,960600,05,05001,05003960600,1400000US05003960600,DELEK RENEWABLES LLC,117 MAC MCGOOGAN DR,CROSSETT,AR,71635,"DELEK RENEWABLES LLC.117 MAC MCGOOGAN DR, CROSSETT ARKANSAS 71635 (ARKANSAS)",0,C,,110033168471
7163WLVRRS141MA,-91.941,33.134,False,05,003,960600,05,05003,05003960600,1400000US05003960600,ALVAR RESINS INC,141 MAC MCGOOGAN DRIVE,CROSSETT,AR,71635,"ALVAR RESINS INC.141 MAC MCGOOGAN DRIVE, CROSSETT ARKANSAS 71635 (ASHLEY)",0,C,,110043510830
7163WNGVTY157MI,-91.96700000000001,33.135999999999996,False,05,003,960600,05,05003,05003960600,1400000US05003960600,INGEVITY ARKANSAS LLC,157 MILL SUPPLY ROAD,CROSSETT,AR,71635,"INGEVITY ARKANSAS LLC.157 MILL SUPPLY ROAD, CROSSETT ARKANSAS 71635 (ASHLEY)",0,C,,110070225146
71639BLDNTSOUTH,-91.49700000000001,33.895,False,05,041,950300,05,05041,05041950300,1400000US05041950300,FEDERAL-MOGUL CORP,801 MAIN ST,DUMAS,AR,71639,"FEDERAL-MOGUL CORP.801 MAIN ST, DUMAS ARKANSAS 71639 (DESHA)",1,C,,110007409456
71639HLLND1103S,-91.48700000000001,33.865,False,05,041,950300,05,05041,05041950300,1400000US05041950300,SAF-HOLLAND INC DUMAS,1103 S MAIN ST,DUMAS,AR,71639,"SAF-HOLLAND INC DUMAS.1103 S MAIN ST, DUMAS ARKANSAS 71639 (DESHA)",0,C,,110006171427
71639HSSMNHWY65,-91.48299999999999,33.868,False,05,041,950200,05,05041,05041950200,1400000US05041950200,LEER LP,1008 HWY 65 S,DUMAS,AR,71639,"LEER LP.1008 HWY 65 S, DUMAS ARKANSAS 71639 (DESHA)",0,C,,110006035343
7163WCNTRL12HWY,-91.48100000000001,33.879,False,05,041,950200,05,05041,05041950200,1400000US05041950200,CENTRAL WIRE (DUMAS DIVISION),1020 HWY 65 SOUTH,DUMAS,AR,71639,"CENTRAL WIRE (DUMAS DIVISION).1020 HWY 65 SOUTH, DUMAS ARKANSAS 71639 (DESHA)",0,C,,110006037350
7163WSFHLL81SMA,-91.48899999999999,33.876999999999995,False,05,041,950200,05,05041,05041950200,1400000US05041950200,SAF-HOLLAND,801 S MAIN ST,DUMAS,AR,71639,"SAF-HOLLAND.801 S MAIN ST, DUMAS ARKANSAS 71639 (DESHA)",0,C,,110070557681
71654PTLTCHIGHW,-91.24,33.705999999999996,False,05,041,950100,05,05041,05041950100,1400000US05041950100,CLEARWATER PAPER CORP,5082 HWY 4 N,ARKANSAS CITY,AR,71630,"CLEARWATER PAPER CORP.5082 HWY 4 N, ARKANSAS CITY ARKANSAS 71630 (DESHA)",0,C,,110012414985
71655BRLNG235EA,-91.789,33.626999999999995,False,05,043,490400,05,05043,05043490400,1400000US05043490400,BURLINGTON RUG CORP PLANT #1,235 E SHELTON ST,MONTICELLO,AR,71655,"BURLINGTON RUG CORP PLANT #1.235 E SHELTON ST, MONTICELLO ARKANSAS 71655 (DREW)",0,C,,
71655CCCLFHWY48,-91.792,33.580999999999996,False,05,043,490400,05,05043,05043490400,1400000US05043490400,COCA-COLA BOTTLING CO OF SOUTH ARKANSAS,HWY 4 & 81,MONTICELLO,AR,71655,"COCA-COLA BOTTLING CO OF SOUTH ARKANSAS.HWY 4 & 81, MONTICELLO ARKANSAS 71655 (DREW)",0,C,,
71655CHSPCHIWAY,-91.734,33.617,False,05,043,490400,05,05043,05043490400,1400000US05043490400,CHASE PACKAGING CORP,HWY 35 S,MONTICELLO,AR,71655,"CHASE PACKAGING CORP.HWY 35 S, MONTICELLO ARKANSAS 71655 (DREW)",0,C,,
71655MNRKB724PA,-91.787,33.63,False,05,043,490200,05,05043,05043490200,1400000US05043490200,SEAARK MARINE INC,413 CONLEY ST,MONTICELLO,AR,716550210,"SEAARK MARINE INC.413 CONLEY ST, MONTICELLO ARKANSAS 71655 (DREW)",0,C,,
71655BRLNGHWY43,-91.76899999999999,33.63,False,05,043,490200,05,05043,05043490200,1400000US05043490200,BURLINGTON RUG CORP PLANT #2,1093 US HWY 278 E,MONTICELLO,AR,71655,"BURLINGTON RUG CORP PLANT #2.1093 US HWY 278 E, MONTICELLO ARKANSAS 71655 (DREW)",0,C,,
71655PDVSN419EU,-91.788,33.631,False,05,043,490200,05,05043,05043490200,1400000US05043490200,IPI SOUTH CENTRAL INC,419 E UNION ST,MONTICELLO,AR,71655,"IPI SOUTH CENTRAL INC.419 E UNION ST, MONTICELLO ARKANSAS 71655 (DREW)",0,C,,
71655SRKBT728WP,-91.79899999999999,33.637,False,05,043,490300,05,05043,05043490300,1400000US05043490300,SEAARK BOATS INC,728 W PATTON ST,MONTICELLO,AR,71655,"SEAARK BOATS INC.728 W PATTON ST, MONTICELLO ARKANSAS 71655 (DREW)",0,C,,
71701BRNSWBUILD,-92.69,33.609,False,05,013,480200,05,05013,05013480200,1400000US05013480200,BRUNSWICK COMPOSITES,"HWY 274 E WALTON RD, BLDG 5-SH-1",EAST CAMDEN,AR,71701,"BRUNSWICK COMPOSITES.HWY 274 E WALTON RD, BLDG 5-SH-1, EAST CAMDEN ARKANSAS 71701 (CALHOUN)",0,C,,
71701LTVRSPOBOX,-92.694,33.633,False,05,013,480200,05,05013,05013480200,1400000US05013480200,LOCKHEED MARTIN VOUGHT SYSTEMS,HWY 274 HIGHLAND INDL PARK,CAMDEN,AR,717111015,"LOCKHEED MARTIN VOUGHT SYSTEMS.HWY 274 HIGHLAND INDL PARK, CAMDEN ARKANSAS 71711 (CALHOUN)",1,C,,
71701TLNTCWALTO,-92.69,33.625,False,05,013,480200,05,05013,05013480200,1400000US05013480200,AEROJET ROCKETDYNE INC,WALTON RD HIGHLAND IND US TRIAL PARK,EAST CAMDEN,AR,71701,"AEROJET ROCKETDYNE INC.WALTON RD HIGHLAND IND US TRIAL PARK, EAST CAMDEN ARKANSAS 71701 (CALHOUN)",0,C,,110000859991
71701TRCRRPOBOX,-92.637,33.650999999999996,False,05,013,480200,05,05013,05013480200,1400000US05013480200,ARMTEC COUNTERMEASURES CO,HIGHLAND INDUSTRIAL PARK BUILDING M-7,EAST CAMDEN,AR,71701,"ARMTEC COUNTERMEASURES CO.HIGHLAND INDUSTRIAL PARK BUILDING M-7, EAST CAMDEN ARKANSAS 71701 (CALHOUN)",0,C,,110000746364
71701BDFNSHIGHL,-92.686,33.614000000000004,False,05,013,480200,05,05013,05013480200,1400000US05013480200,BEI DEFENSE SYSTEMS CO,HIGHLAND INDUSTRIAL PARK HWY 274,CAMDEN,AR,71701,"BEI DEFENSE SYSTEMS CO.HIGHLAND INDUSTRIAL PARK HWY 274, CAMDEN ARKANSAS 71701 (CALHOUN)",0,C,,
71744HTCHN12MIW,-92.545,33.599000000000004,False,05,013,480200,05,05013,05013480200,1400000US05013480200,GENERAL DYNAMICS - OTS INC (CAMDEN OP),6345 AR 203 HWY,HAMPTON,AR,71744,"GENERAL DYNAMICS - OTS INC (CAMDEN OP).6345 AR 203 HWY, HAMPTON ARKANSAS 71744 (CALHOUN)",0,C,,110007412282
71744TRWTM25MIL,-92.54899999999999,33.604,False,05,013,480200,05,05013,05013480200,1400000US05013480200,TRW AUTOMOTIVE SAFETY SYSTEMS ARKANSAS INC,25 MILES N ON HWY 203,HAMPTON,AR,71744,"TRW AUTOMOTIVE SAFETY SYSTEMS ARKANSAS INC.25 MILES N ON HWY 203, HAMPTON ARKANSAS 71744 (CALHOUN)",0,C,,
71701LCKHDWALTO,-92.71700000000001,33.628,False,05,013,480200,05,05013,05013480200,1400000US05013480200,LOCKHEED MARTIN MISSILES & FIRE CONTROL CAMDEN OPERATIONS,WALTON RD HIGHLAND IND PARK,EAST CAMDEN,AR,71701,"LOCKHEED MARTIN MISSILES & FIRE CONTROL CAMDEN OPERATIONS.WALTON RD HIGHLAND IND PARK, EAST CAMDEN ARKANSAS 71701 (CALHOUN)",2,C,,
71701CLTXC303BA,-92.829,33.554,False,05,103,950500,05,05103,05103950500,1400000US05103950500,CELOTEX CORP,303 BARRETT ST SW,CAMDEN,AR,71701,"CELOTEX CORP.303 BARRETT ST SW, CAMDEN ARKANSAS 71701 (OUACHITA)",0,C,,
71701NTRNT1944A,-92.821,33.546,False,05,103,950500,05,05103,05103950500,1400000US05103950500,INTERNATIONAL PAPER CO CAMDEN MILL,1944 ADAMS AVE,CAMDEN,AR,717015897,"INTERNATIONAL PAPER CO CAMDEN MILL.1944 ADAMS AVE, CAMDEN ARKANSAS 71701 (OUACHITA)",0,C,,
71701RKNSS1625B,-92.791,33.563,False,05,103,950500,05,05103,05103950500,1400000US05103950500,JOHN L MCCLELLAN GENERATING STATION,1625 BRADLEY FERRY RD,CAMDEN,AR,71701,"JOHN L MCCLELLAN GENERATING STATION.1625 BRADLEY FERRY RD, CAMDEN ARKANSAS 71701 (OUACHITA)",0,C,,110000450985
71701GNRLDROUTE,-92.759,33.62,False,05,103,950100,05,05103,05103950100,1400000US05103950100,HUGHES MISSILE SYSTEMS CO,204 OUACHITA 212,EAST CAMDEN,AR,71701,"HUGHES MISSILE SYSTEMS CO.204 OUACHITA 212, EAST CAMDEN ARKANSAS 71701 (OUACHITA)",0,C,,
71701VNSSTHIGHL,-92.741,33.611,False,05,103,950100,05,05103,05103950100,1400000US05103950100,EVANS-ST CLAIR INC,HIGHLAND IND PARK BLDG 5 SH-1,EAST CAMDEN,AR,71701,"EVANS-ST CLAIR INC.HIGHLAND IND PARK BLDG 5 SH-1, EAST CAMDEN ARKANSAS 71701 (OUACHITA)",0,C,,
71701HLHNC12MIW,-92.84,33.64,True,05,103,950100,05,05103,05103950100,1400000US05103950100,HLH INC,1/2 MI W HWY 203,CAMDEN,AR,71701,"HLH INC 1/2 MI W HWY 203, CAMDEN, AR, 71701",0,C,,
71730CPRNDPRESC,-92.611,33.201,False,05,139,950500,05,05139,05139950500,1400000US05139950500,COOPER STANDARD AUTOMOTIVE INC,166 COOPER DR,EL DORADO,AR,71730,"COOPER STANDARD AUTOMOTIVE INC.166 COOPER DR, EL DORADO ARKANSAS 71730 (UNION)",0,C,,110000451001
71730GRTLKRT7BO,-92.679,33.11,False,05,139,950500,05,05139,05139950500,1400000US05139950500,GREAT LAKES CHEMICAL - SOUTH PLANT,324 SOUTHFIELD CUTOFF,EL DORADO,AR,71730,"GREAT LAKES CHEMICAL - SOUTH PLANT.324 SOUTHFIELD CUTOFF, EL DORADO ARKANSAS 71730 (UNION)",0,C,,110000451038
71731PRSCLINDUS,-92.609,33.199,False,05,139,950500,05,05139,05139950500,1400000US05139950500,PRESCOLITE/MOLDCAST ASSEMBLY PLANT,502 INDL RD,EL DORADO,AR,71730,"PRESCOLITE/MOLDCAST ASSEMBLY PLANT.502 INDL RD, EL DORADO ARKANSAS 71730 (UNION)",0,C,,
71730PRSCL216MI,-92.609,33.198,False,05,139,950500,05,05139,05139950500,1400000US05139950500,PRESCOLITE INC,216 MIMS DR,EL DORADO,AR,71730,"PRESCOLITE INC.216 MIMS DR, EL DORADO ARKANSAS 71730 (UNION)",0,C,,110000494929
71730GRRSN181CO,-92.611,33.2,False,05,139,950500,05,05139,05139950500,1400000US05139950500,LYCUS LTD,181 COOPER DR,EL DORADO,AR,71730,"LYCUS LTD.181 COOPER DR, EL DORADO ARKANSAS 71730 (UNION)",0,C,,110000451029
71730GRGPC5482J,-92.637,33.134,False,05,139,950500,05,05139,05139950500,1400000US05139950500,GEORGIA-PACIFIC SAWMILL,5482 JUNCTION CITY HWY,EL DORADO,AR,71730,"GEORGIA-PACIFIC SAWMILL.5482 JUNCTION CITY HWY, EL DORADO ARKANSAS 71730 (UNION)",0,C,,110006786497
71749BBHRDOBOX8,-92.70299999999999,33.02,False,05,139,950500,05,05139,05139950500,1400000US05139950500,QUALITY MILL OF ARKANSAS LLC,1264 E STATELINE RD,JUNCTION CITY,AR,71749,"QUALITY MILL OF ARKANSAS LLC.1264 E STATELINE RD, JUNCTION CITY ARKANSAS 71749 (UNION)",0,C,,110015781475
71768NTHNY1236U,-92.443,33.159,False,05,139,950500,05,05139,05139950500,1400000US05139950500,ANTHONY FOREST PRODUCTS CO URBANA,1236 URBANA RD,URBANA,AR,71768,"ANTHONY FOREST PRODUCTS CO URBANA.1236 URBANA RD, URBANA ARKANSAS 71768 (UNION)",0,C,,110001702346
71730NTHNYCPERD,-92.609,33.2,False,05,139,950500,05,05139,05139950500,1400000US05139950500,ANTHONY FOREST PRODUCTS CO LLC - LAMINATING PLANT,295 COOPER DR,EL DORADO,AR,71730,"ANTHONY FOREST PRODUCTS CO LLC - LAMINATING PLANT.295 COOPER DR, EL DORADO ARKANSAS 71730 (UNION)",0,C,,110007229506
71730DPNTL322SU,-92.675,33.11,False,05,139,950500,05,05139,05139950500,1400000US05139950500,CHEMOURS EL DORADO,322 SOUTHFIELD CUTOFF RD,EL DORADO,AR,71730,"CHEMOURS EL DORADO.322 SOUTHFIELD CUTOFF RD, EL DORADO ARKANSAS 71730 (UNION)",0,C,,110033151540
71730GRTLKUNION,-92.93799999999999,33.184,False,05,139,950400,05,05027,05139950400,1400000US05139950400,GREAT LAKES - WEST PLANT,5821 SHULER RD,MAGNOLIA,AR,71753,"GREAT LAKES - WEST PLANT.5821 SHULER RD, MAGNOLIA ARKANSAS 71753 (COLUMBIA)",0,C,,110043973910
71730LDRDC4500N,-92.689,33.266,False,05,139,950400,05,05139,05139950400,1400000US05139950400,EL DORADO CHEMICAL CO,4500 NW AVE,EL DORADO,AR,71730,"EL DORADO CHEMICAL CO.4500 NW AVE, EL DORADO ARKANSAS 71730 (UNION)",0,C,,110000746373
71730RKNSSHIGHW,-92.745,33.166,False,05,139,950400,05,05139,05139950400,1400000US05139950400,GREAT LAKES CHEMICAL CORP NEWELL PLANT,3940 HAYNESVILLE HWY,EL DORADO,AR,71730,"GREAT LAKES CHEMICAL CORP NEWELL PLANT.3940 HAYNESVILLE HWY, EL DORADO ARKANSAS 71730 (UNION)",0,C,,
71731GRTLKHIGHW,-92.70700000000001,33.183,False,05,139,950400,05,05139,05139950400,1400000US05139950400,GREAT LAKES CHEMICAL - CENTRAL,2226 HAYNESVILLE HWY,EL DORADO,AR,71730,"GREAT LAKES CHEMICAL - CENTRAL.2226 HAYNESVILLE HWY, EL DORADO ARKANSAS 71730 (UNION)",0,C,,110000451109
71730CNGRB295FE,-92.72200000000001,33.177,False,05,139,950400,05,05139,05139950400,1400000US05139950400,CONAGRA POULTRY,295 FEED MILL RD,EL DORADO,AR,71730,"CONAGRA POULTRY.295 FEED MILL RD, EL DORADO ARKANSAS 71730 (UNION)",0,C,,
71730DLTNF757DE,-92.743,33.178000000000004,False,05,139,950400,05,05139,05139950400,1400000US05139950400,ROSEBURG FOREST PRODUCTS - EL DORADO MDF,1165 DEL TIN HWY,EL DORADO,AR,71730,"ROSEBURG FOREST PRODUCTS - EL DORADO MDF.1165 DEL TIN HWY, EL DORADO ARKANSAS 71730 (UNION)",0,C,,110000451010
71730LNLRF1000M,-92.675,33.2,False,05,139,950900,05,05139,05139950900,1400000US05139950900,LION OIL CO,1000 MCHENRY AVE,EL DORADO,AR,71730,"LION OIL CO.1000 MCHENRY AVE, EL DORADO ARKANSAS 71730 (UNION)",0,C,,110017419667
71730CNGRBSOUTH,-92.669,33.193000000000005,False,05,139,950900,05,05139,05139950900,1400000US05139950900,PPC EL DORADO PROCESSING PLANT,1810 SW AVE,EL DORADO,AR,71730,"PPC EL DORADO PROCESSING PLANT.1810 SW AVE, EL DORADO ARKANSAS 71730 (UNION)",0,C,,110000597658
71730MRCBL1200B,-92.62,33.199,False,05,139,951000,05,05139,05139951000,1400000US05139951000,NEXANS AMERCABLE INC,350 BAILEY RD,EL DORADO,AR,71730,"NEXANS AMERCABLE INC.350 BAILEY RD, EL DORADO ARKANSAS 71730 (UNION)",0,C,,110000451065
71731NSCNC310AM,-92.632,33.209,False,05,139,951000,05,05139,05139951000,1400000US05139951000,ENSCO INC EL DORADO FACILITY,310 AMERICAN RD,EL DORADO,AR,717311957,"ENSCO INC EL DORADO FACILITY.310 AMERICAN RD, EL DORADO ARKANSAS 71731 (UNION)",0,C,,
71730NVRNM309AM,-92.631,33.204,False,05,139,951000,05,05139,05139951000,1400000US05139951000,CLEAN HARBORS EL DORADO LLC,309 AMERICAN CIR UNION,EL DORADO,AR,71730,"CLEAN HARBORS EL DORADO LLC.309 AMERICAN CIR UNION, EL DORADO ARKANSAS 71730 (UNION)",0,C,,110000521221
71730PRSCL483IN,-92.61399999999999,33.2,False,05,139,951000,05,05139,05139951000,1400000US05139951000,PRESCOLITE INC PARTS PLANT,483 INDUSTRIAL ROAD,EL DORADO,AR,71730,"PRESCOLITE INC PARTS PLANT.483 INDUSTRIAL ROAD, EL DORADO ARKANSAS 71730 (UNION)",0,C,,
7173WMLBNK195PR,-92.618,33.201,False,05,139,951000,05,05139,05139951000,1400000US05139951000,MILBANK MANUFACTURING CO,195 PRESCOLITE DRIVE,EL DORADO,AR,71730,"MILBANK MANUFACTURING CO.195 PRESCOLITE DRIVE, EL DORADO ARKANSAS 71730 (UNION)",0,C,,110037268603
71731CLMBNINDUS,-92.609,33.205,False,05,139,950200,05,05139,05139950200,1400000US05139950200,COLUMBIAN CHEMICALS CO,713 INDUSTRIAL RD,EL DORADO,AR,71730,"COLUMBIAN CHEMICALS CO.713 INDUSTRIAL RD, EL DORADO ARKANSAS 71730 (UNION)",0,C,,
71731CNGRP653SM,-92.65100000000001,33.260999999999996,False,05,139,950200,05,05139,05139950200,1400000US05139950200,PILGRIM'S PRIDE CORP EL DORADO FEED MILL,653 SMACKOVER HWY,EL DORADO,AR,71731,"PILGRIM'S PRIDE CORP EL DORADO FEED MILL.653 SMACKOVER HWY, EL DORADO ARKANSAS 71731 (UNION)",0,C,,110000450994
71730PCFCM135LO,-92.61200000000001,33.217,False,05,139,950200,05,05139,05139950200,1400000US05139950200,PACIFIC MDF PRODUCTS INC,135 LOUIS HURLEY RD,EL DORADO,AR,71730,"PACIFIC MDF PRODUCTS INC.135 LOUIS HURLEY RD, EL DORADO ARKANSAS 71730 (UNION)",0,C,,
71730SHWMD25LUI,-92.609,33.214,False,05,139,950200,05,05139,05139950200,1400000US05139950200,CB&I EL DORADO,205 LOUIS HURLEY DR,EL DORADO,AR,71730,"CB&I EL DORADO.205 LOUIS HURLEY DR, EL DORADO ARKANSAS 71730 (UNION)",1,C,,110031261792
71740WLLMTHIGHW,-93.17299999999999,33.044000000000004,False,05,027,950100,05,05027,05027950100,1400000US05027950100,WEYERHAEUSER NR CO-EMERSON PLYWOOD,101 COLUMBIA 14 W,EMERSON,AR,71740,"WEYERHAEUSER NR CO-EMERSON PLYWOOD.101 COLUMBIA 14 W, EMERSON ARKANSAS 71740 (COLUMBIA)",0,C,,110001712549
7175WTXMGN327HI,-93.205,33.26,False,05,027,950100,05,05027,05027950100,1400000US05027950100,TXI MAGNOLIA READY MIX,327 HWY 82,MAGNOLIA,AR,71753,"TXI MAGNOLIA READY MIX.327 HWY 82, MAGNOLIA ARKANSAS 71753 (COLUMBIA)",0,C,,110041256253
71742GRGPC600WE,-92.421,33.816,False,05,039,970300,05,05039,05039970300,1400000US05039970300,GEORGIA-PACIFIC LLC FORDYCE PLYWOOD,600 W COLLEGE,FORDYCE,AR,71742,"GEORGIA-PACIFIC LLC FORDYCE PLYWOOD.600 W COLLEGE, FORDYCE ARKANSAS 71742 (DALLAS)",0,C,,110000451118
71742LCTLC300SO,-92.42399999999999,33.806999999999995,False,05,039,970300,05,05039,05039970300,1400000US05039970300,ALCATEL CABLE SYSTEMS,300 S EDGAR ST,FORDYCE,AR,717423035,"ALCATEL CABLE SYSTEMS.300 S EDGAR ST, FORDYCE ARKANSAS 71742 (DALLAS)",0,C,,
71743NTRNTHIGHW,-93.148,33.95,False,05,019,953900,05,05019,05019953900,1400000US05019953900,GP WOOD PRODUCTS LLC GURDON PLYWOOD & LUMBER COMPLEX,1 GP LN,GURDON,AR,71743,"GP WOOD PRODUCTS LLC GURDON PLYWOOD & LUMBER COMPLEX.1 GP LN, GURDON ARKANSAS 71743 (CLARK)",0,C,,110017425071
72150RHRNDHWY27,-93.09100000000001,34.048,False,05,019,953900,05,05019,05019953900,1400000US05019953900,CONTAINER LIFE CYCLE MANAGEMENT LLC DBA DRUMCO,142 TECHNOLOGY DR,ARKADELPHIA,AR,71923,"CONTAINER LIFE CYCLE MANAGEMENT LLC DBA DRUMCO.142 TECHNOLOGY DR, ARKADELPHIA ARKANSAS 71923 (CLARK)",0,C,,110009522793
71923TCCRR1SCRO,-93.095,34.051,False,05,019,953900,05,05019,05019953900,1400000US05019953900,DANFOSS LLC,ONE SCROLL DR,ARKADELPHIA,AR,71923,"DANFOSS LLC.ONE SCROLL DR, ARKADELPHIA ARKANSAS 71923 (CLARK)",0,C,,110000451421
71923PTTJN125TE,-93.09700000000001,34.05,False,05,019,953900,05,05019,05019953900,1400000US05019953900,PETIT JEAN POULTRY,125 TECHNOLOGY DR,ARKADELPHIA,AR,71923,"PETIT JEAN POULTRY.125 TECHNOLOGY DR, ARKADELPHIA ARKANSAS 71923 (CLARK)",0,C,,
71923SGLTC201TE,-93.09,34.046,False,05,019,953900,05,05019,05019953900,1400000US05019953900,HITCO CARBON COMPOSITES INC.,201 TECHNOLOGY DR,ARKADELPHIA,AR,71923,"HITCO CARBON COMPOSITES INC..201 TECHNOLOGY DR, ARKADELPHIA ARKANSAS 71923 (CLARK)",0,C,,110000451412
71923RYNLD500ER,-93.045,34.04,False,05,019,953900,05,05019,05019953900,1400000US05019953900,REYNOLDS METALS CO LLC  GUM SPRINGS PLANT,500 E REYNOLDS RD,ARKADELPHIA,AR,71923,"REYNOLDS METALS CO LLC  GUM SPRINGS PLANT.500 E REYNOLDS RD, ARKADELPHIA ARKANSAS 71923 (CLARK)",0,C,,110000608771
71923SPLST35MCC,-93.094,34.05,False,05,019,953900,05,05019,05019953900,1400000US05019953900,SIPLAST - PMMA PRODUCTION,151 MCCELLAN BLVD,ARKADELPHIA,AR,71923,"SIPLAST - PMMA PRODUCTION.151 MCCELLAN BLVD, ARKADELPHIA ARKANSAS 71923 (CLARK)",0,C,,110024556229
71753LMXMG1617N,-93.244,33.283,False,05,027,950400,05,05027,05027950400,1400000US05027950400,SAPA EXTRUSIONS INC,248 WEST GREENE STREET,MAGNOLIA,AR,71753,"SAPA EXTRUSIONS INC.248 WEST GREENE STREET, MAGNOLIA ARKANSAS 71753 (COLUMBIA)",0,C,,110008253344
71753MFLXX601FI,-93.24700000000001,33.279,False,05,027,950400,05,05027,05027950400,1400000US05027950400,AMERICAN FUEL CELLS & COATED FABRICS (AMFUEL),601 FIRESTONE DR,MAGNOLIA,AR,71753,"AMERICAN FUEL CELLS & COATED FABRICS (AMFUEL).601 FIRESTONE DR, MAGNOLIA ARKANSAS 71753 (COLUMBIA)",0,C,,110002380717
71753NTSTRSHANH,-93.243,33.283,False,05,027,950400,05,05027,05027950400,1400000US05027950400,UNIT STRUCTURES INC,SHANHOUSE BLVD,MAGNOLIA,AR,71753,"UNIT STRUCTURES INC.SHANHOUSE BLVD, MAGNOLIA ARKANSAS 71753 (COLUMBIA)",0,C,,
71753MFLXX1706N,-93.245,33.283,False,05,027,950400,05,05027,05027950400,1400000US05027950400,AMFUEL PLANT II,1706 N VINE,MAGNOLIA,AR,71753,"AMFUEL PLANT II.1706 N VINE, MAGNOLIA ARKANSAS 71753 (COLUMBIA)",0,C,,
71753SMSTLKERLI,-93.229,33.208,False,05,027,950300,05,05027,05027950300,1400000US05027950300,CMC STEEL FABRICATORS INC DBA CMC STEEL ARKANSAS,100 COLUMBIA 7-B,MAGNOLIA,AR,71753,"CMC STEEL FABRICATORS INC DBA CMC STEEL ARKANSAS.100 COLUMBIA 7-B, MAGNOLIA ARKANSAS 71753 (COLUMBIA)",0,C,,110000451163
71753THYLCHIGHW,-93.316,33.263000000000005,False,05,027,950300,05,05027,05027950300,1400000US05027950300,ALBEMARLE CORP WEST PLANT,1550 HWY 371 S,MAGNOLIA,AR,71753,"ALBEMARLE CORP WEST PLANT.1550 HWY 371 S, MAGNOLIA ARKANSAS 71753 (COLUMBIA)",0,C,,110000597676
71753THYLCROUTE,-93.21700000000001,33.176,False,05,027,950300,05,05027,05027950300,1400000US05027950300,ALBEMARLE CORP SOUTH PLANT,2270 HWY 79 S,MAGNOLIA,AR,71753,"ALBEMARLE CORP SOUTH PLANT.2270 HWY 79 S, MAGNOLIA ARKANSAS 71753 (COLUMBIA)",0,C,,110000743508
71753MTCHC1760H,-93.31299999999999,33.259,False,05,027,950300,05,05027,05027950300,1400000US05027950300,SOLIMIDE FOAMS,1560 HWY 371 S,MAGNOLIA,AR,71753,"SOLIMIDE FOAMS.1560 HWY 371 S, MAGNOLIA ARKANSAS 71753 (COLUMBIA)",0,C,,110000746382
71753THDWCHIGHW,-93.315,33.264,True,05,027,950300,05,05027,05027950300,1400000US05027950300,DOW CHEMICAL CO,HWY 132 S,MAGNOLIA,AR,71753,"DOW CHEMICAL CO HWY 132 S, MAGNOLIA, AR, 71753",0,C,,
71762CRSSLPOBOX,-92.71700000000001,33.364000000000004,False,05,139,950300,05,05139,05139950300,1400000US05139950300,MARTIN OPERATING PTNR LP,484 E 6TH ST,SMACKOVER,AR,71762,"MARTIN OPERATING PTNR LP.484 E 6TH ST, SMACKOVER ARKANSAS 71762 (UNION)",0,C,,110038160584
71764BRRYPBERRY,-93.06,33.417,False,05,103,950300,05,05103,05103950300,1400000US05103950300,BERRY PETROLEUM CO,658 OUACHITA 137,STEPHENS,AR,71764,"BERRY PETROLEUM CO.658 OUACHITA 137, STEPHENS ARKANSAS 71764 (OUACHITA)",0,C,,110000451181
71801CHMPN15010,-93.61399999999999,33.669000000000004,False,05,057,480500,05,05057,05057480500,1400000US05057480500,CHAMPION PARTS INC,1501-05 W AVE B,HOPE,AR,71801,"CHAMPION PARTS INC.1501-05 W AVE B, HOPE ARKANSAS 71801 (HEMPSTEAD)",0,C,,
71801NTHNYWESTA,-93.617,33.667,False,05,057,480500,05,05057,05057480500,1400000US05057480500,ANTHONY WOOD TREATING INC,300 GUNTER ST,HOPE,AR,71801,"ANTHONY WOOD TREATING INC.300 GUNTER ST, HOPE ARKANSAS 71801 (HEMPSTEAD)",0,C,,110003399162
71801CRPTCWESTI,-93.61200000000001,33.669000000000004,False,05,057,480500,05,05057,05057480500,1400000US05057480500,ALLIANCE CARPET CUSHION - HOPE FACILITY,1605 W AVE B,HOPE,AR,71801,"ALLIANCE CARPET CUSHION - HOPE FACILITY.1605 W AVE B, HOPE ARKANSAS 71801 (HEMPSTEAD)",0,C,,110000451216
71801HDSNFPOBOX,-93.61399999999999,33.741,False,05,057,480100,05,05057,05057480100,1400000US05057480100,TYSON CHICKEN INC - HOPE PROCESSING PLANT,275 COUNTY RD 278,HOPE,AR,71801,"TYSON CHICKEN INC - HOPE PROCESSING PLANT.275 COUNTY RD 278, HOPE ARKANSAS 71801 (HEMPSTEAD)",0,C,,110000597685
71801KLPSCROUTE,-93.616,33.735,False,05,057,480100,05,05057,05057480100,1400000US05057480100,KLIPSCH INC,137 COUNTY RD 278,HOPE,AR,71801,"KLIPSCH INC.137 COUNTY RD 278, HOPE ARKANSAS 71801 (HEMPSTEAD)",0,C,,
71801SMJSTHWY32,-93.625,33.731,False,05,057,480100,05,05057,05057480100,1400000US05057480100,NEW MILLENNIUM BUILDING SYSTEMS LLC,3565 HWY 32 N,HOPE,AR,71801,"NEW MILLENNIUM BUILDING SYSTEMS LLC.3565 HWY 32 N, HOPE ARKANSAS 71801 (HEMPSTEAD)",0,C,,110000597701
71801BRNTW118IN,-93.60600000000001,33.696999999999996,False,05,057,480100,05,05057,05057480100,1400000US05057480100,BRENTWOOD INDUSTRIES,118 BRENTWOOD DRIVE,HOPE,AR,71801,"BRENTWOOD INDUSTRIES.118 BRENTWOOD DRIVE, HOPE ARKANSAS 71801 (HEMPSTEAD)",0,C,,
71801BRDNC185NI,-93.633,33.732,False,05,057,480100,05,05057,05057480100,1400000US05057480100,HEXION INC - HOPE PLANT,185 N INDUSTRIAL DR,HOPE,AR,71801,"HEXION INC - HOPE PLANT.185 N INDUSTRIAL DR, HOPE ARKANSAS 71801 (HEMPSTEAD)",0,C,,110000451190
71801TMPLN100TE,-93.634,33.735,False,05,057,480100,05,05057,05057480100,1400000US05057480100,GEORGIA-PACIFIC PANEL PRODUCTS LLC,100 TEMPLE DR,HOPE,AR,71801,"GEORGIA-PACIFIC PANEL PRODUCTS LLC.100 TEMPLE DR, HOPE ARKANSAS 71801 (HEMPSTEAD)",0,C,,110000451243
71801SMSTL4365H,-93.654,33.747,False,05,057,480100,05,05057,05057480100,1400000US05057480100,CMC STEEL FABRICATORS INC. DBA CMC STEEL PRODUCTS,4365 HWY 278 W,HOPE,AR,71801,"CMC STEEL FABRICATORS INC. DBA CMC STEEL PRODUCTS.4365 HWY 278 W, HOPE ARKANSAS 71801 (HEMPSTEAD)",0,C,,110006176431
7180WMRTSS4359H,-93.652,33.743,False,05,057,480100,05,05057,05057480100,1400000US05057480100,AMERITIES SOUTH LLC,4359 HIGHWAY 278 WEST,HOPE,AR,71801,"AMERITIES SOUTH LLC.4359 HIGHWAY 278 WEST, HOPE ARKANSAS 71801 (HEMPSTEAD)",0,C,,110043508291
7180WLDCST3713H,-93.637,33.729,False,05,057,480100,05,05057,05057480100,1400000US05057480100,OLDCASTLE & GARDEN,3713 HWY 275,HOPE,AR,71801,"OLDCASTLE & GARDEN.3713 HWY 275, HOPE ARKANSAS 71801 (HEMPSTEAD)",0,C,,110038288901
71822NKSPPHIGHW,-94.11200000000001,33.641,False,05,081,030101,05,05081,05081030101,1400000US05081030101,DOMTAR AW LLC  ASHDOWN MILL,285 HWY 71 S,ASHDOWN,AR,71822,"DOMTAR AW LLC  ASHDOWN MILL.285 HWY 71 S, ASHDOWN ARKANSAS 71822 (LITTLE RIVER)",0,C,,110000756352
71832PLGRM123WE,-94.339,34.032,False,05,133,080300,05,05133,05133080300,1400000US05133080300,PILGRIM'S PRIDE CORP DE QUEEN PROCESSING PLANT,401 S THIRD ST,DE QUEEN,AR,71832,"PILGRIM'S PRIDE CORP DE QUEEN PROCESSING PLANT.401 S THIRD ST, DE QUEEN ARKANSAS 71832 (SEVIER)",0,C,,110000451252
71832PLNWD123RE,-94.337,34.033,False,05,133,080300,05,05133,05133080300,1400000US05133080300,"HUSQVARNA FORESTRY PRODUCTS NORTH AMERICA, INC.",103 RED BRIDGE RD.,DE QUEEN,AR,71832,"HUSQVARNA FORESTRY PRODUCTS NORTH AMERICA, INC..103 RED BRIDGE RD., DE QUEEN ARKANSAS 71832 (SEVIER)",0,C,,110041210944
71832WYRHSPOBOX,-94.37,34.018,False,05,133,080200,05,05133,05133080200,1400000US05133080200,WEYERHAEUSER WOOD TREATING,377 TREATING PLANT RD,DE QUEEN,AR,71832,"WEYERHAEUSER WOOD TREATING.377 TREATING PLANT RD, DE QUEEN ARKANSAS 71832 (SEVIER)",0,C,,
71833WYRHSHIGHW,-94.009,34.054,False,05,061,950100,05,05061,05061950100,1400000US05061950100,WEYERHAEUSER NR CO,120 MAIN AVE,DIERKS,AR,71833,"WEYERHAEUSER NR CO.120 MAIN AVE, DIERKS ARKANSAS 71833 (HOWARD)",0,C,,110002129535
7185WCRTNT794HW,-93.902,34.073,False,05,061,950100,05,05061,05061950100,1400000US05061950100,CERTAINTEED GYPSUM NASHVILLE,794 HWY 369 N.,NASHVILLE,AR,71852,"CERTAINTEED GYPSUM NASHVILLE.794 HWY 369 N., NASHVILLE ARKANSAS 71852 (HOWARD)",0,C,,110006035762
7183WDRKSP12MAI,-94.01700000000001,34.118,False,05,061,950100,05,05061,05061950100,1400000US05061950100,DIERKS PORTABLE READY MIX,120 MAIN ST,DIERKS,AR,71833,"DIERKS PORTABLE READY MIX.120 MAIN ST, DIERKS ARKANSAS 71833 (HOWARD)",0,C,,110070055330
71836SHGRVPOBOX,-94.417,33.694,False,05,081,030200,05,05081,05081030200,1400000US05081030200,ASH GROVE CEMENT,4343 HWY 108,FOREMAN,AR,71836,"ASH GROVE CEMENT.4343 HWY 108, FOREMAN ARKANSAS 71836 (LITTLE RIVER)",0,C,,110000597729
71845FLCNPHWY82,-93.56299999999999,33.368,False,05,073,470100,05,05073,05073470100,1400000US05073470100,FALCON PRODUCTS INC,HWY 82 E,LEWISVILLE,AR,71845,"FALCON PRODUCTS INC.HWY 82 E, LEWISVILLE ARKANSAS 71845 (LAFAYETTE)",0,C,,
71860RDRVRHIGHW,-93.515,33.366,False,05,073,470100,05,05073,05073470100,1400000US05073470100,RED RIVER ALUMINUM INC,HWY 82 W,STAMPS,AR,71860,"RED RIVER ALUMINUM INC.HWY 82 W, STAMPS ARKANSAS 71860 (LAFAYETTE)",0,C,,
71852JNZPLHWY36,-93.87,33.916,False,05,061,950200,05,05061,05061950200,1400000US05061950200,JAN-EZE PLATING,100 MISSION DR,NASHVILLE,AR,71852,"JAN-EZE PLATING.100 MISSION DR, NASHVILLE ARKANSAS 71852 (HOWARD)",0,C,,110000451289
71852TYSNFHWY27,-93.874,33.922,False,05,061,950200,05,05061,05061950200,1400000US05061950200,TYSON POULTRY INC - NASHVILLE FEED MILL,HWY 27 S TOLAND HEIGHTS INDUSTRIAL PARK,NASHVILLE,AR,71852,"TYSON POULTRY INC - NASHVILLE FEED MILL.HWY 27 S TOLAND HEIGHTS INDUSTRIAL PARK, NASHVILLE ARKANSAS 71852 (HOWARD)",0,C,,110024952498
71852MSSNP102MI,-93.87100000000001,33.916,False,05,061,950200,05,05061,05061950200,1400000US05061950200,MISSION PLASTICS ARKANSAS,102 MISSION DR,NASHVILLE,AR,71852,"MISSION PLASTICS ARKANSAS.102 MISSION DR, NASHVILLE ARKANSAS 71852 (HOWARD)",0,C,,110002129544
71852PLNWD1POUL,-93.852,33.925,False,05,061,950300,05,05061,05061950300,1400000US05061950300,HUSQVARNA FORESTRY PRODUCTS NA INC,1 POULAN DR,NASHVILLE,AR,71852,"HUSQVARNA FORESTRY PRODUCTS NA INC.1 POULAN DR, NASHVILLE ARKANSAS 71852 (HOWARD)",0,C,,110000451305
71852TYSNF100EC,-93.845,33.927,False,05,061,950300,05,05061,05061950300,1400000US05061950300,TYSON POULTRY INC - NASHVILLE PROCESSING PLANT,100 E CASSADY ST,NASHVILLE,AR,71852,"TYSON POULTRY INC - NASHVILLE PROCESSING PLANT.100 E CASSADY ST, NASHVILLE ARKANSAS 71852 (HOWARD)",0,C,,110021362434
71852PLGRM200EA,-93.845,33.945,False,05,061,950300,05,05061,05061950300,1400000US05061950300,PILGRIM'S PRIDE CORP DEQUEEN (NASHVILLE) FEED MILL,200 E SHEPHERD ST,NASHVILLE,AR,71852,"PILGRIM'S PRIDE CORP DEQUEEN (NASHVILLE) FEED MILL.200 E SHEPHERD ST, NASHVILLE ARKANSAS 71852 (HOWARD)",0,C,,110000451298
71852PLNWD1111W,-93.85,33.933,False,05,061,950300,05,05061,05061950300,1400000US05061950300,HUSQVARNA FORESTRY PRODUCTS NA INC,1111 WILSON ST,NASHVILLE,AR,71852,"HUSQVARNA FORESTRY PRODUCTS NA INC.1111 WILSON ST, NASHVILLE ARKANSAS 71852 (HOWARD)",0,C,,110001700222
71857FRSTNHWY24,-93.40899999999999,33.812,False,05,099,090200,05,05099,05099090200,1400000US05099090200,FIRESTONE BUILDING PRODUCTS CO,1406 HWY 371 N,PRESCOTT,AR,71857,"FIRESTONE BUILDING PRODUCTS CO.1406 HWY 371 N, PRESCOTT ARKANSAS 71857 (NEVADA)",0,C,,110000606657
71857PTLTC200MI,-93.4,33.806999999999995,False,05,099,090200,05,05099,05099090200,1400000US05099090200,POTLATCH FOREST PRODUCTS CORP PRESCOTT LUMBER,200 MILL ST,PRESCOTT,AR,71857,"POTLATCH FOREST PRODUCTS CORP PRESCOTT LUMBER.200 MILL ST, PRESCOTT ARKANSAS 71857 (NEVADA)",0,C,,110025124434
71901CHMFB115NE,-93.053,34.492,False,05,051,011700,05,05051,05051011700,1400000US05051011700,CHEM-FAB CORP,115 NEVADA ST,HOT SPRINGS,AR,71901,"CHEM-FAB CORP.115 NEVADA ST, HOT SPRINGS ARKANSAS 71901 (GARLAND)",0,C,,
71901CHMFB1923C,-93.05799999999999,34.493,False,05,051,011700,05,05051,05051011700,1400000US05051011700,TRIUMPH PRECISION COMPONENTS-FABRICATIONS,1923 CENTRAL AVE,HOT SPRINGS,AR,71901,"TRIUMPH PRECISION COMPONENTS-FABRICATIONS.1923 CENTRAL AVE, HOT SPRINGS ARKANSAS 71901 (GARLAND)",0,C,,110000860042
71901HRVYN2505H,-92.979,34.506,False,05,051,010500,05,05051,05051010500,1400000US05051010500,USNR,2727 E GRAND AVE,HOT SPRINGS,AR,79101,"USNR.2727 E GRAND AVE, HOT SPRINGS ARKANSAS 79101 (GARLAND)",0,C,,110000451341
71901RKNSSMALVE,-92.941,34.463,False,05,051,010500,05,05051,05051010500,1400000US05051010500,ARKANSAS ALUMINUM ALLOYS INC.,4400 MALVERN RD,HOT SPRINGS,AR,71901,"ARKANSAS ALUMINUM ALLOYS INC..4400 MALVERN RD, HOT SPRINGS ARKANSAS 71901 (GARLAND)",0,C,,110000451350
71901SVNDM5911M,-92.96,34.457,False,05,051,010500,05,05051,05051010500,1400000US05051010500,EVRAZ STRATCOR INC,4285 MALVERN RD,HOT SPRINGS,AR,71901,"EVRAZ STRATCOR INC.4285 MALVERN RD, HOT SPRINGS ARKANSAS 71901 (GARLAND)",0,C,,110000451369
71902THCHMPOBOX,-92.929,34.461999999999996,False,05,051,010500,05,05051,05051010500,1400000US05051010500,ALUMNITEC INC,153B EXTRUSION PL,HOT SPRINGS,AR,71901,"ALUMNITEC INC.153B EXTRUSION PL, HOT SPRINGS ARKANSAS 71901 (GARLAND)",0,C,,
71901LMWLD199EX,-92.92299999999999,34.461,False,05,051,010500,05,05051,05051010500,1400000US05051010500,ALUMAWELD (DBA XPRESSBOATS),199 EXTRUSION PL,HOT SPRINGS,AR,71901,"ALUMAWELD (DBA XPRESSBOATS).199 EXTRUSION PL, HOT SPRINGS ARKANSAS 71901 (GARLAND)",0,C,,
71902HTSPRUSHWY,-92.9,34.455999999999996,False,05,059,020100,05,05059,05059020100,1400000US05059020100,REYNOLDS CONSUMER PRODUCTS LLC,1333 HWY 270,MALVERN,AR,72104,"REYNOLDS CONSUMER PRODUCTS LLC.1333 HWY 270, MALVERN ARKANSAS 72104 (HOT SPRING)",0,C,,110000597738
72104BTLSPRT3GI,-92.725,34.378,False,05,059,020100,05,05059,05059020100,1400000US05059020100,BORDEN CHEMICAL INC,2088 WINE DOT RD,MALVERN,AR,72104,"BORDEN CHEMICAL INC.2088 WINE DOT RD, MALVERN ARKANSAS 72104 (HOT SPRING)",0,C,,
72104WLLMTROUTE,-92.725,34.384,False,05,059,020100,05,05059,05059020100,1400000US05059020100,ARAUCO,1275 WILLAMETTE RD,MALVERN,AR,72104,"ARAUCO.1275 WILLAMETTE RD, MALVERN ARKANSAS 72104 (HOT SPRING)",0,C,,110000597881
72105RYNLDUSHWY,-92.885,34.441,False,05,059,020100,05,05059,05059020100,1400000US05059020100,GENERAL CABLE INDUSTRIES INC,1392 REMMEL DAM RD,MALVERN,AR,72104,"GENERAL CABLE INDUSTRIES INC.1392 REMMEL DAM RD, MALVERN ARKANSAS 72104 (HOT SPRING)",0,C,,110000743526
7210WHLLBR1743D,-92.80799999999999,34.474000000000004,False,05,059,020100,05,05059,05059020100,1400000US05059020100,HALLIBURTON MAGNET COVE GRINDING PLANT,1743 DARBY LN,MALVERN,AR,72104,"HALLIBURTON MAGNET COVE GRINDING PLANT.1743 DARBY LN, MALVERN ARKANSAS 72104 (HOT SPRING)",0,C,,110070550775
71913WYCTC301MI,-93.12,34.515,False,05,051,011000,05,05051,05051011000,1400000US05051011000,ENGINEERED SPECIALTY PLASTICS,301 MID AMERICA BLVD,HOT SPRINGS,AR,71913,"ENGINEERED SPECIALTY PLASTICS.301 MID AMERICA BLVD, HOT SPRINGS ARKANSAS 71913 (GARLAND)",0,C,,
71913RCLLS115CE,-93.13,34.52,False,05,051,011000,05,05051,05051011000,1400000US05051011000,TRIUMPH AIRBORNE STRUCTURES LLC,115 CENTENNIAL DR,HOT SPRINGS,AR,71913,"TRIUMPH AIRBORNE STRUCTURES LLC.115 CENTENNIAL DR, HOT SPRINGS ARKANSAS 71913 (GARLAND)",0,C,,110000451387
71921BRKSDHWY8W,-93.47200000000001,34.265,False,05,019,953700,05,05019,05019953700,1400000US05019953700,BARKSDALE LUMBER CO INC,630 W THOMPSON,AMITY,AR,71921,"BARKSDALE LUMBER CO INC.630 W THOMPSON, AMITY ARKANSAS 71921 (CLARK)",0,C,,110010379483
71921CRTBNSOUTH,-93.471,34.253,False,05,019,953700,05,05019,05019953700,1400000US05019953700,CURT BEAN LUMBER CO INC.,S MOUNTAIN ST,AMITY,AR,71921,"CURT BEAN LUMBER CO INC..S MOUNTAIN ST, AMITY ARKANSAS 71921 (CLARK)",0,C,,110000597756
71937LWSLMLEWIS,-94.412,34.44,False,05,113,950500,05,05113,05113950500,1400000US05113950500,LEWIS LUMBER & MANUFACTURING CO INC,LEWIS ST & MILL RD,COVE,AR,71937,"LEWIS LUMBER & MANUFACTURING CO INC.LEWIS ST & MILL RD, COVE ARKANSAS 71937 (POLK)",0,C,,110064123899
71946HRZGSHWY71,-94.36399999999999,34.364000000000004,False,05,113,950500,05,05113,05113950500,1400000US05113950500,HERZOG STONE PRODUCTS,HWY 71 S,HATTON,AR,71946,"HERZOG STONE PRODUCTS.HWY 71 S, HATTON ARKANSAS 71946 (POLK)",0,C,,
71943CRTBNHWY8N,-93.566,34.34,False,05,109,953300,05,05109,05109953300,1400000US05109953300,"BEAN LUMBER COMPANY, INC.",229 SOUTH SPUR HWY 8 N.,GLENWOOD,AR,71943,"BEAN LUMBER COMPANY, INC..229 SOUTH SPUR HWY 8 N., GLENWOOD ARKANSAS 71943 (PIKE)",0,C,,110067041766
71943GRTST4SSPU,-93.566,34.34,False,05,109,953300,05,05109,05109953300,1400000US05109953300,GREAT SOUTHERN WOOD - GLENWOOD INC,400 S SPUR 8,GLENWOOD,AR,71943,"GREAT SOUTHERN WOOD - GLENWOOD INC.400 S SPUR 8, GLENWOOD ARKANSAS 71943 (PIKE)",0,C,,110000597774
71944TYSNFHIGHW,-94.335,34.24,False,05,113,950600,05,05113,05113950600,1400000US05113950600,TYSON POULTRY INC - GRANNIS PROCESSING PLANT,8564 HWY 71 S,GRANNIS,AR,71944,"TYSON POULTRY INC - GRANNIS PROCESSING PLANT.8564 HWY 71 S, GRANNIS ARKANSAS 71944 (POLK)",0,C,,110002045402
71945HTFLD20MAR,-94.37799999999999,34.49,False,05,113,950300,05,05113,05113950300,1400000US05113950300,HATFIELD LUMBER CO,139 POLK 29,HATFIELD,AR,71945,"HATFIELD LUMBER CO.139 POLK 29, HATFIELD ARKANSAS 71945 (POLK)",0,C,,110003398788
71953MDSTHPOBOX,-94.259,34.501999999999995,False,05,113,950300,05,05113,05113950300,1400000US05113950300,MID-SOUTH WOOD PRODUCTS,HWY 375 S,MENA,AR,71953,"MID-SOUTH WOOD PRODUCTS.HWY 375 S, MENA ARKANSAS 71953 (POLK)",0,C,,
71953SLCTR401NO,-94.226,34.591,False,05,113,950200,05,05113,05113950200,1400000US05113950200,NIDEC MOTOR CORP,500 N MORROW ST,MENA,AR,71953,"NIDEC MOTOR CORP.500 N MORROW ST, MENA ARKANSAS 71953 (POLK)",0,C,,110000451430
71953STRLN104PO,-94.235,34.586999999999996,False,05,113,950200,05,05113,05113950200,1400000US05113950200,STERLING MACHINERY CO,104 PORT ARTHUR,MENA,AR,71953,"STERLING MACHINERY CO.104 PORT ARTHUR, MENA ARKANSAS 71953 (POLK)",0,C,,110000451449
71956WYRHSPOBOX,-93.17299999999999,34.573,False,05,051,010300,05,05051,05051010300,1400000US05051010300,WEYERHAEUSER CO,HWY 227 N,MOUNTAIN PINE,AR,71956,"WEYERHAEUSER CO.HWY 227 N, MOUNTAIN PINE ARKANSAS 71956 (GARLAND)",0,C,,110007411372
72006NBCNCHWY33,-91.34700000000001,35.27,False,05,147,490200,05,05147,05147490200,1400000US05147490200,SLOAN VALVE CO,2719 B US INESS HWY 33 S,AUGUSTA,AR,72006,"SLOAN VALVE CO.2719 B US INESS HWY 33 S, AUGUSTA ARKANSAS 72006 (WOODRUFF)",0,C,,110000597818
72006TWPSLHWY33,-91.34899999999999,35.27,False,05,147,490200,05,05147,05147490200,1400000US05147490200,ITW PASLODE,HWY 33 S,AUGUSTA,AR,720061010,"ITW PASLODE.HWY 33 S, AUGUSTA ARKANSAS 72006 (WOODRUFF)",0,C,,
72006RKNSSHWY33,-91.363,35.260999999999996,False,05,147,490200,05,05147,05147490200,1400000US05147490200,CARL E BAILEY GENERATING STAT ION,535 WOODRUFF 816,AUGUSTA,AR,72006,"CARL E BAILEY GENERATING STAT ION.535 WOODRUFF 816, AUGUSTA ARKANSAS 72006 (WOODRUFF)",0,C,,110043797077
72010RKNSS102MI,-91.56299999999999,35.311,False,05,145,070600,05,05145,05145070600,1400000US05145070600,ARKANSAS GENERAL INDUSTRIES,102 MILLER ST,BALD KNOB,AR,72010,"ARKANSAS GENERAL INDUSTRIES.102 MILLER ST, BALD KNOB ARKANSAS 72010 (WHITE)",1,C,,110000451458
72011LCRKNUSHIG,-92.53200000000001,34.575,False,05,125,010103,05,05125,05125010103,1400000US05125010103,ALMATIS INC-BAUXITE ARKANSAS,4701 ALCOA RD,BENTON,AR,72015,"ALMATIS INC-BAUXITE ARKANSAS.4701 ALCOA RD, BENTON ARKANSAS 72015 (SALINE)",0,C,,110000451467
72022SNTGB64CYA,-92.51299999999999,34.585,False,05,125,010103,05,05125,05125010103,1400000US05125010103,SAINT GOBAIN CERAMICS & PLASTICS INC,6105 CYNAMIDE RD,BRYANT,AR,72015,"SAINT GOBAIN CERAMICS & PLASTICS INC.6105 CYNAMIDE RD, BRYANT ARKANSAS 72015 (SALINE)",0,C,,110025137867
72015CXXXX1912D,-92.54700000000001,34.6,False,05,125,010102,05,05125,05125010102,1400000US05125010102,ACI,1510 BOONE RD,BENTON,AR,72015,"ACI.1510 BOONE RD, BENTON ARKANSAS 72015 (SALINE)",0,C,,
72015HLBLT20020,-92.544,34.602,False,05,125,010102,05,05125,05125010102,1400000US05125010102,HILBILT MANUFACTURING CO,20020 I-30,BENTON,AR,72015,"HILBILT MANUFACTURING CO.20020 I-30, BENTON ARKANSAS 72015 (SALINE)",0,C,,
72015SHRWD901SN,-92.57799999999999,34.555,False,05,125,010600,05,05125,05125010600,1400000US05125010600,SHERWOOD FURNITURE CORP,901 S NEELY ST,BENTON,AR,72015,"SHERWOOD FURNITURE CORP.901 S NEELY ST, BENTON ARKANSAS 72015 (SALINE)",1,C,,
72015SLMND1217R,-92.59899999999999,34.553000000000004,False,05,125,010600,05,05125,05125010600,1400000US05125010600,SOLEM INDUSTRIES J M HUBER DIV,1217 RIVER ST,BENTON,AR,72015,"SOLEM INDUSTRIES J M HUBER DIV.1217 RIVER ST, BENTON ARKANSAS 72015 (SALINE)",0,C,,
7201WBNTNP198DA,-92.60799999999999,34.55,False,05,125,010600,05,05125,05125010600,1400000US05125010600,BENTON PLANT,1908 DALE AVE,BENTON,AR,72015,"BENTON PLANT.1908 DALE AVE, BENTON ARKANSAS 72015 (SALINE)",0,C,,110060258484
7201WBNTNR19DAL,-92.60600000000001,34.551,False,05,125,010600,05,05125,05125010600,1400000US05125010600,BENTON READY MIX PLANT,1900 DALE ST,BENTON,AR,72015,"BENTON READY MIX PLANT.1900 DALE ST, BENTON ARKANSAS 72015 (SALINE)",0,C,,110035762369
72015BCCRP1310D,-92.603,34.554,True,05,125,010600,05,05125,05125010600,1400000US05125010600,BECO CORP,1310 DALE ST,BENTON,AR,72015,"BECO CORP 1310 DALE ST, BENTON, AR, 72015",0,C,,
72015WBSHLOFFHW,-92.625,34.516,False,05,125,010503,05,05125,05125010503,1400000US05125010503,WABASH ALLOYS LLC,1118 VULCAN RD,BENTON,AR,72015,"WABASH ALLOYS LLC.1118 VULCAN RD, BENTON ARKANSAS 72015 (SALINE)",0,C,,
72015RNC001007V,-92.631,34.514,False,05,125,010503,05,05125,05125010503,1400000US05125010503,RINECO,1007 VULCAN RD.- HASKELL,BENTON,AR,72015,"RINECO.1007 VULCAN RD.- HASKELL, BENTON ARKANSAS 72015 (SALINE)",0,C,,110000451476
72022RKNSS183RE,-92.48100000000001,34.57,False,05,125,010404,05,05125,05125010404,1400000US05125010404,EEI ARKANSAS EXPLOSIVES,"183 REYNOLDS INDUSTRIAL PARK, BLDG 546",BRYANT,AR,72022,"EEI ARKANSAS EXPLOSIVES.183 REYNOLDS INDUSTRIAL PARK, BLDG 546, BRYANT ARKANSAS 72022 (SALINE)",0,C,,
72023DRMLN1514S,-92.03,34.964,False,05,085,020204,05,05085,05085020204,1400000US05085020204,DREAMLINE MANUFACTURING INC,1514 SOUTH 2ND ST,CABOT,AR,72023,"DREAMLINE MANUFACTURING INC.1514 SOUTH 2ND ST, CABOT ARKANSAS 72023 (LONOKE)",0,C,,
72023CLSSC3148H,-92.06,34.948,False,05,085,020204,05,05085,05085020204,1400000US05085020204,CLASSIC MARBLE LLC,3148 HWY 367 S,CABOT,AR,72023,"CLASSIC MARBLE LLC.3148 HWY 367 S, CABOT ARKANSAS 72023 (LONOKE)",0,C,,110020515101
72029PPRCSHWY79,-91.3,34.692,False,05,095,950200,05,05095,05095950200,1400000US05095950200,BAIRD MANUFACTURING INC,HWY 79 E & ANN ALDEN,CLARENDON,AR,72029,"BAIRD MANUFACTURING INC.HWY 79 E & ANN ALDEN, CLARENDON ARKANSAS 72029 (MONROE)",0,C,,
72032FMCCRINDUS,-92.421,35.074,False,05,045,030900,05,05045,05045030900,1400000US05045030900,FMC CORP CONWAY PLANT,INDL PARK  EXCHANGE AVE,CONWAY,AR,72032,"FMC CORP CONWAY PLANT.INDL PARK  EXCHANGE AVE, CONWAY ARKANSAS 72032 (FAULKNER)",0,C,,
72032KRKWD670EQ,-92.42399999999999,35.07,False,05,045,030900,05,05045,05045030900,1400000US05045030900,SFI OF ARKANSAS,670 EQUITY AVE,CONWAY,AR,72032,"SFI OF ARKANSAS.670 EQUITY AVE, CONWAY ARKANSAS 72032 (FAULKNER)",0,C,,110009353788
72032PLYVNSOUTH,-92.44200000000001,35.071999999999996,False,05,045,030900,05,05045,05045030900,1400000US05045030900,POLYVEND INC,700 S GERMAN,CONWAY,AR,72032,"POLYVEND INC.700 S GERMAN, CONWAY ARKANSAS 72032 (FAULKNER)",0,C,,
72032VRCMFROBIN,-92.436,35.078,False,05,045,030900,05,05045,05045030900,1400000US05045030900,VIRCO MANUFACTURING CORP MAIN FACILITY,HWY 65 S & ROBIN,CONWAY,AR,72032,"VIRCO MANUFACTURING CORP MAIN FACILITY.HWY 65 S & ROBIN, CONWAY ARKANSAS 72032 (FAULKNER)",0,C,,110000597854
72032MRCNTHWY65,-92.436,35.069,False,05,045,030900,05,05045,05045030900,1400000US05045030900,IC BUS LLC,751 S HARKRIDER,CONWAY,AR,72032,"IC BUS LLC.751 S HARKRIDER, CONWAY ARKANSAS 72032 (FAULKNER)",0,C,,110000451519
72032WCCMM707RO,-92.434,35.075,False,05,045,030900,05,05045,05045030900,1400000US05045030900,CARRIER REFRIGERATION OPERATION,707 ROBINS ST,CONWAY,AR,720326565,"CARRIER REFRIGERATION OPERATION.707 ROBINS ST, CONWAY ARKANSAS 72032 (FAULKNER)",0,C,,
72032RMTRP584CO,-92.42200000000001,35.073,False,05,045,030900,05,05045,05045030900,1400000US05045030900,AERMOTOR PUMPS INC,584 COMMERCE RD,CONWAY,AR,72032,"AERMOTOR PUMPS INC.584 COMMERCE RD, CONWAY ARKANSAS 72032 (FAULKNER)",0,C,,
72032DTCND605EA,-92.431,35.077,False,05,045,030900,05,05045,05045030900,1400000US05045030900,DETCO INDUSTRIES INC,605 E ROBINS,CONWAY,AR,72032,"DETCO INDUSTRIES INC.605 E ROBINS, CONWAY ARKANSAS 72032 (FAULKNER)",0,C,,
72032SNNTNHAIRS,-92.45,35.099000000000004,False,05,045,030701,05,05045,05045030701,1400000US05045030701,SAN ANTONIO SHOE INC,HAIRSTON & MITCHELL ST,CONWAY,AR,72034,"SAN ANTONIO SHOE INC.HAIRSTON & MITCHELL ST, CONWAY ARKANSAS 72034 (FAULKNER)",0,C,,110000597845
72037BLDWN1091B,-92.43,35.063,False,05,045,031006,05,05045,05045031006,1400000US05045031006,BALDWIN PIANO INC,1091 BENTON SEVIER ST,CONWAY,AR,72032,"BALDWIN PIANO INC.1091 BENTON SEVIER ST, CONWAY ARKANSAS 72032 (FAULKNER)",1,C,,
72032STLPLHWY65,-92.428,35.053000000000004,False,05,045,031006,05,05045,05045031006,1400000US05045031006,STEELE PLASTICS INC,HWY 65 N,CONWAY,AR,72032,"STEELE PLASTICS INC.HWY 65 N, CONWAY ARKANSAS 72032 (FAULKNER)",0,C,,
72032STLPL1280S,-92.428,35.061,False,05,045,031006,05,05045,05045031006,1400000US05045031006,STEELE PLASTICS INC,1280 STURGIS RD,CONWAY,AR,72034,"STEELE PLASTICS INC.1280 STURGIS RD, CONWAY ARKANSAS 72034 (FAULKNER)",0,C,,110000451555
72032NCRFS1800S,-92.426,35.044000000000004,False,05,045,031006,05,05045,05045031006,1400000US05045031006,NUCOR FASTENER,1800 STURGIS RD,CONWAY,AR,72032,"NUCOR FASTENER.1800 STURGIS RD, CONWAY ARKANSAS 72032 (FAULKNER)",0,C,,
72032TLNDS108HW,-92.42200000000001,35.049,False,05,045,031006,05,05045,05045031006,1400000US05045031006,JV MANUFACTURING INC CONWAY,108 HWY 365 S,CONWAY,AR,72032,"JV MANUFACTURING INC CONWAY.108 HWY 365 S, CONWAY ARKANSAS 72032 (FAULKNER)",0,C,,
72032VRCMF1701S,-92.43,35.054,False,05,045,031006,05,05045,05045031006,1400000US05045031006,VIRCO MFG CORPORATION-PLANT 2,1701 STURGIS RD,CONWAY,AR,72034,"VIRCO MFG CORPORATION-PLANT 2.1701 STURGIS RD, CONWAY ARKANSAS 72034 (FAULKNER)",0,C,,110002129624
72064DPNTRSTATE,-91.566,34.78,False,05,117,460200,05,05117,05117460200,1400000US05117460200,HAZEN POWDER PARTS LLC,1339 HWY 63 N,HAZEN,AR,72064,"HAZEN POWDER PARTS LLC.1339 HWY 63 N, HAZEN ARKANSAS 72064 (PRAIRIE)",0,C,,110025109870
72076LMNCN2101W,-92.134,34.867,False,05,119,003605,05,05119,05119003605,1400000US05119003605,LOMANCO INC,2101 WEST MAIN ST,JACKSONVILLE,AR,72076,"LOMANCO INC.2101 WEST MAIN ST, JACKSONVILLE ARKANSAS 72076 (PULASKI)",0,C,,
72076CLMNH2500W,-92.13600000000001,34.867,False,05,119,003605,05,05119,05119003605,1400000US05119003605,COLEMAN HEAT TREATING INC,2500 W MAIN ST,JACKSONVILLE,AR,72076,"COLEMAN HEAT TREATING INC.2500 W MAIN ST, JACKSONVILLE ARKANSAS 72076 (PULASKI)",0,C,,110000451608
72076JMLCN2611C,-92.14,34.864000000000004,False,05,119,003605,05,05119,05119003605,1400000US05119003605,JIMELCO INC,2611 CORY DR,JACKSONVILLE,AR,72076,"JIMELCO INC.2611 CORY DR, JACKSONVILLE ARKANSAS 72076 (PULASKI)",0,C,,
72076WRGHT2600C,-92.14200000000001,34.865,False,05,119,003605,05,05119,05119003605,1400000US05119003605,WRIGHTS CABINET SHOP INC,2600 CORY DR,JACKSONVILLE,AR,72076,"WRIGHTS CABINET SHOP INC.2600 CORY DR, JACKSONVILLE ARKANSAS 72076 (PULASKI)",0,C,,
7207WJCKSN21RED,-92.14,34.864000000000004,False,05,119,003605,05,05119,05119003605,1400000US05119003605,JACKSONVILLE PLANT,201 REDMOND RD,JACKSONVILLE,AR,72076,"JACKSONVILLE PLANT.201 REDMOND RD, JACKSONVILLE ARKANSAS 72076 (PULASKI)",0,C,,110025147623
7207WJCKSN2214S,-92.133,34.863,False,05,119,003605,05,05119,05119003605,1400000US05119003605,JACKSONVILLE READY MIX,2214 S REDMOND RD,JACKSONVILLE,AR,72076,"JACKSONVILLE READY MIX.2214 S REDMOND RD, JACKSONVILLE ARKANSAS 72076 (PULASKI)",0,C,,110003408385
72076RSTCH1901R,-92.139,34.883,False,05,119,003604,05,05119,05119003604,1400000US05119003604,ASHLAND LLC,1901 N REDMOND RD,JACKSONVILLE,AR,72076,"ASHLAND LLC.1901 N REDMOND RD, JACKSONVILLE ARKANSAS 72076 (PULASKI)",0,C,,110000451626
72076JCKSN1100R,-92.139,34.878,False,05,119,003604,05,05119,05119003604,1400000US05119003604,REGAL WARE INC,1100 REDMOND RD,JACKSONVILLE,AR,720763625,"REGAL WARE INC.1100 REDMOND RD, JACKSONVILLE ARKANSAS 72076 (PULASKI)",0,C,,
72076VNWTR1925R,-92.139,34.884,False,05,119,003604,05,05119,05119003604,1400000US05119003604,UNIVAR USA INC LITTLE ROCK,1925 REDMOND RD,JACKSONVILLE,AR,72076,"UNIVAR USA INC LITTLE ROCK.1925 REDMOND RD, JACKSONVILLE ARKANSAS 72076 (PULASKI)",0,C,,110000451635
72076CNSTG2201R,-92.13799999999999,34.885,False,05,119,003604,05,05119,05119003604,1400000US05119003604,CONESTOGA WOOD SPECIALTIES CORP,2201 N REDMOND RD,JACKSONVILLE,AR,72076,"CONESTOGA WOOD SPECIALTIES CORP.2201 N REDMOND RD, JACKSONVILLE ARKANSAS 72076 (PULASKI)",0,C,,
7207WSGSRN189SW,-92.12899999999999,34.884,False,05,119,003604,05,05119,05119003604,1400000US05119003604,SIG SAUER INC,1809 SWIFT DRIVE,JACKSONVILLE,AR,72076,"SIG SAUER INC.1809 SWIFT DRIVE, JACKSONVILLE ARKANSAS 72076 (PULASKI)",0,C,,110070119049
72086DPNTRINTER,-92.0,34.799,False,05,085,020301,05,05085,05085020301,1400000US05085020301,REMINGTON ARMS CO LLC,2592 AR HWY 15 N,LONOKE,AR,72086,"REMINGTON ARMS CO LLC.2592 AR HWY 15 N, LONOKE ARKANSAS 72086 (LONOKE)",0,C,,110000451644
72086GRCCM351RU,-92.01299999999999,34.802,False,05,085,020301,05,05085,05085020301,1400000US05085020301,GRACE COMPOSITES LLC,351 RUTH RD,LONOKE,AR,72086,"GRACE COMPOSITES LLC.351 RUTH RD, LONOKE ARKANSAS 72086 (LONOKE)",0,C,,110024998680
7208WFBRGL175HW,-91.984,34.833,False,05,085,020301,05,05085,05085020301,1400000US05085020301,FIBERGLASS SOLUTIONS,175 HWY 294,LONOKE,AR,72086,"FIBERGLASS SOLUTIONS.175 HWY 294, LONOKE ARKANSAS 72086 (LONOKE)",0,C,,110042407909
72104CMBRCUSHIG,-92.781,34.365,False,05,059,020400,05,05059,05059020400,1400000US05059020400,ACME BRICK CO PERLA,US HWY 67 N,MALVERN,AR,72104,"ACME BRICK CO PERLA.US HWY 67 N, MALVERN ARKANSAS 72104 (HOT SPRING)",0,C,,110000859893
72104PRCSN1012E,-92.8,34.365,False,05,059,020400,05,05059,05059020400,1400000US05059020400,PRECISION INDUSTRIES,1002 E SECTION LINE RD,MALVERN,AR,72104,"PRECISION INDUSTRIES.1002 E SECTION LINE RD, MALVERN ARKANSAS 72104 (HOT SPRING)",1,C,,110009353289
72110CCCLBBROAD,-92.727,35.152,False,05,029,950300,05,05029,05029950300,1400000US05029950300,COCA-COLA BOTTLING CO OF ARKANSAS,BROADWAY & CRESTLINGER AVE,MORRILTON,AR,72110,"COCA-COLA BOTTLING CO OF ARKANSAS.BROADWAY & CRESTLINGER AVE, MORRILTON ARKANSAS 72110 (CONWAY)",0,C,,
72110RRWTM140HW,-92.751,35.175,False,05,029,950300,05,05029,05029950300,1400000US05029950300,ARROW AUTOMOTIVE INDUSTRIES INC,1 ARROW DR,MORRILTON,AR,72110,"ARROW AUTOMOTIVE INDUSTRIES INC.1 ARROW DR, MORRILTON ARKANSAS 72110 (CONWAY)",1,C,,
72110TLXCM1TELE,-92.751,35.175,False,05,029,950300,05,05029,05029950300,1400000US05029950300,TELEX COMMUNICATIONS INC,1 TELEX DR,MORRILTON,AR,72110,"TELEX COMMUNICATIONS INC.1 TELEX DR, MORRILTON ARKANSAS 72110 (CONWAY)",0,C,,
72110RKNSSHIGHW,-92.73899999999999,35.097,False,05,029,950600,05,05029,05029950600,1400000US05029950600,GREEN BAY PACKAGING INC ARKANSAS KRAFT DIV,338 HWY 113 S,MORRILTON,AR,72110,"GREEN BAY PACKAGING INC ARKANSAS KRAFT DIV.338 HWY 113 S, MORRILTON ARKANSAS 72110 (CONWAY)",0,C,,110000597890
72112CPTLW7700V,-91.193,35.64,False,05,067,480400,05,05067,05067480400,1400000US05067480400,GENERAL CABLE CORP,7301 VICTORY BLVD,NEWPORT,AR,72112,"GENERAL CABLE CORP.7301 VICTORY BLVD, NEWPORT ARKANSAS 72112 (JACKSON)",1,C,,
72112MDLLN3636M,-91.18700000000001,35.641,False,05,067,480400,05,05067,05067480400,1400000US05067480400,SHEARER'S FOODS,3636 MEDALLION AVE,NEWPORT,AR,72112,"SHEARER'S FOODS.3636 MEDALLION AVE, NEWPORT ARKANSAS 72112 (JACKSON)",0,C,,110024568813
72112MRCNLHWY67,-91.255,35.65,False,05,067,480300,05,05067,05067480300,1400000US05067480300,AMERICAN LANTERN CO,4344 HWY 67 N,NEWPORT,AR,72112,"AMERICAN LANTERN CO.4344 HWY 67 N, NEWPORT ARKANSAS 72112 (JACKSON)",0,C,,
72112NTNLLHIGHW,-91.25299999999999,35.648,False,05,067,480300,05,05067,05067480300,1400000US05067480300,NORANDAL USA INC,3814 HWY 67 N,NEWPORT,AR,72112,"NORANDAL USA INC.3814 HWY 67 N, NEWPORT ARKANSAS 72112 (JACKSON)",0,C,,110000597907
72112RKNSSVANDY,-91.245,35.649,False,05,067,480300,05,05067,05067480300,1400000US05067480300,ARKANSAS STEEL ASSOCIATES LLC,2803 VAN DYKE RD,NEWPORT,AR,72112,"ARKANSAS STEEL ASSOCIATES LLC.2803 VAN DYKE RD, NEWPORT ARKANSAS 72112 (JACKSON)",0,C,,110000451671
7211WNSRVX283VA,-91.24799999999999,35.646,False,05,067,480300,05,05067,05067480300,1400000US05067480300,HARSCO METALS-ASA,2803 VAN DYKE,NEWPORT,AR,72112,"HARSCO METALS-ASA.2803 VAN DYKE, NEWPORT ARKANSAS 72112 (JACKSON)",0,C,,110059136885
72114CMMRC102OA,-92.226,34.751999999999995,False,05,119,002600,05,05119,05119002600,1400000US05119002600,COMMERCIAL LUMBER SALES INC,102 OAKLEY DR,NORTH LITTLE ROCK,AR,72114,"COMMERCIAL LUMBER SALES INC.102 OAKLEY DR, NORTH LITTLE ROCK ARKANSAS 72114 (PULASKI)",0,C,,110000451706
72119RCKCT426DI,-92.23,34.757,False,05,119,002600,05,05119,05119002600,1400000US05119002600,ROCK CITY FURNITURE INC,426 DIXIE LN,NORTH LITTLE ROCK,AR,72119,"ROCK CITY FURNITURE INC.426 DIXIE LN, NORTH LITTLE ROCK ARKANSAS 72119 (PULASKI)",0,C,,
72114LNDLK825PA,-92.23899999999999,34.75,False,05,119,002600,05,05119,05119002600,1400000US05119002600,LAND O'LAKES FARMLAND FEED,825 PALM ST,NORTH LITTLE ROCK,AR,721145489,"LAND O'LAKES FARMLAND FEED.825 PALM ST, NORTH LITTLE ROCK ARKANSAS 72114 (PULASKI)",0,C,,
72114TYSNF3800P,-92.22399999999999,34.758,False,05,119,002700,05,05119,05119002700,1400000US05119002700,TYSON POULTRY INC NORTH LITTLE ROCK,3800 PROGRESS ST,NORTH LITTLE ROCK,AR,72114,"TYSON POULTRY INC NORTH LITTLE ROCK.3800 PROGRESS ST, NORTH LITTLE ROCK ARKANSAS 72114 (PULASKI)",0,C,,110000512687
72117KPPRS2201E,-92.215,34.769,False,05,119,002700,05,05119,05119002700,1400000US05119002700,KOPPERS INC (NORTH LITTLE ROCK AR),2201 EDMONDS ST,NORTH LITTLE ROCK,AR,72117,"KOPPERS INC (NORTH LITTLE ROCK AR).2201 EDMONDS ST, NORTH LITTLE ROCK ARKANSAS 72117 (PULASKI)",0,C,,110000451715
72117TNNBM4500B,-92.213,34.774,False,05,119,002700,05,05119,05119002700,1400000US05119002700,"TENENBAUM RECYCLING GROUP, LLC.",4500 W BETHANY RD,NORTH LITTLE ROCK,AR,72117,"TENENBAUM RECYCLING GROUP, LLC..4500 W BETHANY RD, NORTH LITTLE ROCK ARKANSAS 72117 (PULASKI)",0,C,,110000451733
72117PRCSN315PH,-92.22200000000001,34.758,False,05,119,002700,05,05119,05119002700,1400000US05119002700,PRECISION PACKAGING INC,315 PHILLIPS RD,NORTH LITTLE ROCK,AR,72117,"PRECISION PACKAGING INC.315 PHILLIPS RD, NORTH LITTLE ROCK ARKANSAS 72117 (PULASKI)",0,C,,110001707378
72114LFLND7DIXI,-92.226,34.759,False,05,119,002700,05,05119,05119002700,1400000US05119002700,CMC STEEL FABRICATORS INC (DBA CMC REBAR LITTLE ROCK),700 DIXIE ST,NORTH LITTLE ROCK,AR,72114,"CMC STEEL FABRICATORS INC (DBA CMC REBAR LITTLE ROCK).700 DIXIE ST, NORTH LITTLE ROCK ARKANSAS 72114 (PULASKI)",0,C,,110003407288
72117MYBLLPOBOX,-92.13799999999999,34.783,False,05,119,003900,05,05119,05119003900,1400000US05119003900,L'OREAL USA PRODUCTS INC.,11500 MAYBELLINE RD,NORTH LITTLE ROCK,AR,72117,"L'OREAL USA PRODUCTS INC..11500 MAYBELLINE RD, NORTH LITTLE ROCK ARKANSAS 72117 (PULASKI)",0,C,,110000451724
72117SPRWDHWY16,-92.15799999999999,34.718,False,05,119,003900,05,05119,05119003900,1400000US05119003900,GEORGIA-PACIFIC CORP,9013 HWY 165 S PO BOX  15370,NORTH LITTLE ROCK,AR,72117,"GEORGIA-PACIFIC CORP.9013 HWY 165 S PO BOX  15370, NORTH LITTLE ROCK ARKANSAS 72117 (PULASKI)",0,C,,
7211WCTRPL921FA,-92.16,34.748000000000005,False,05,119,003900,05,05119,05119003900,1400000US05119003900,CATERPILLAR INC - NLR,9201 FAULKNER LAKE ROAD,NORTH LITTLE ROCK,AR,72117,"CATERPILLAR INC - NLR.9201 FAULKNER LAKE ROAD, NORTH LITTLE ROCK ARKANSAS 72117 (PULASKI)",0,C,,110010777926
72118CRRRC100MU,-92.395,34.859,False,05,119,004303,05,05119,05119004303,1400000US05119004303,CARRIER CORP,100 MURPHY DR,MAUMELLE,AR,72113,"CARRIER CORP.100 MURPHY DR, MAUMELLE ARKANSAS 72113 (PULASKI)",0,C,,
72118DWRDS9320M,-92.36399999999999,34.817,False,05,119,004303,05,05119,05119004303,1400000US05119004303,EDWARDS SHEET METAL WORKS INC,9320 MAUMELLE BLVD,NORTH LITTLE ROCK,AR,72118,"EDWARDS SHEET METAL WORKS INC.9320 MAUMELLE BLVD, NORTH LITTLE ROCK ARKANSAS 72118 (PULASKI)",0,C,,
72118WLSCN9301C,-92.366,34.813,False,05,119,004303,05,05119,05119004303,1400000US05119004303,WELSCO INC,9006 CRYSTAL HILL RD,NORTH LITTLE ROCK,AR,72113,"WELSCO INC.9006 CRYSTAL HILL RD, NORTH LITTLE ROCK ARKANSAS 72113 (PULASKI)",0,C,,110000451742
72113MLXNC801MU,-92.396,34.866,False,05,119,004303,05,05119,05119004303,1400000US05119004303,MOLEX LLC,801 MURPHY DR,MAUMELLE,AR,72113,"MOLEX LLC.801 MURPHY DR, MAUMELLE ARKANSAS 72113 (PULASKI)",0,C,,110000451699
72113DWFLB1CRYS,-92.37299999999999,34.819,False,05,119,004303,05,05119,05119004303,1400000US05119004303,DEWAFELBAKKERS,10000 CRYSTAL HILL RD,NORTH LITTLE ROCK,AR,72113,"DEWAFELBAKKERS.10000 CRYSTAL HILL RD, NORTH LITTLE ROCK ARKANSAS 72113 (PULASKI)",0,C,,110024424586
7211WYNGRD769YU,-92.352,34.808,False,05,119,004303,05,05119,05119004303,1400000US05119004303,YOUNG RD PLANT,7609 YOUNG RD,NORTH LITTLE ROCK,AR,72118,"YOUNG RD PLANT.7609 YOUNG RD, NORTH LITTLE ROCK ARKANSAS 72118 (PULASKI)",0,C,,110060261684
7211WKMBRL5MURP,-92.395,34.865,False,05,119,004303,05,05119,05119004303,1400000US05119004303,KIMBERLY-CLARK CORP,500 MURPHY DR,MAUMELLE,AR,72113,"KIMBERLY-CLARK CORP.500 MURPHY DR, MAUMELLE ARKANSAS 72113 (PULASKI)",0,C,,110001705021
7211WMMLLR7CLLB,-92.391,34.830999999999996,False,05,119,004303,05,05119,05119004303,1400000US05119004303,MAUMELLE READY MIX,#7 COLLINS INDUSTRIAL PLACE,MAUMELLE,AR,72113,"MAUMELLE READY MIX.#7 COLLINS INDUSTRIAL PLACE, MAUMELLE ARKANSAS 72113 (PULASKI)",0,C,,110069251286
72119STHRN324BU,-92.24799999999999,34.76,False,05,119,002800,05,05119,05119002800,1400000US05119002800,SOUTHERN COTTON OIL CO,324 BUCKEYE ST,NORTH LITTLE ROCK,AR,72114,"SOUTHERN COTTON OIL CO.324 BUCKEYE ST, NORTH LITTLE ROCK ARKANSAS 72114 (PULASKI)",0,C,,
72215CMRCS824E1,-92.255,34.766,False,05,119,002800,05,05119,05119002800,1400000US05119002800,SYNGENTA CROP PROTECTION INC,824 E 12TH ST,NORTH LITTLE ROCK,AR,721144363,"SYNGENTA CROP PROTECTION INC.824 E 12TH ST, NORTH LITTLE ROCK ARKANSAS 72114 (PULASKI)",1,C,,
72113DVNCF7516C,-92.24600000000001,34.757,False,05,119,002800,05,05119,05119002800,1400000US05119002800,"FIB-R-DOR, A DIVISION OF CHASE INDUSTRIES, INC.",1721 E 5TH ST,NORTH LITTLE ROCK,AR,72114,"FIB-R-DOR, A DIVISION OF CHASE INDUSTRIES, INC..1721 E 5TH ST, NORTH LITTLE ROCK ARKANSAS 72114 (PULASKI)",0,C,,110032768075
72114HLLTN21EAS,-92.245,34.757,False,05,119,002800,05,05119,05119002800,1400000US05119002800,HALL TANK CO,2001 E 5TH ST,NORTH LITTLE ROCK,AR,72114,"HALL TANK CO.2001 E 5TH ST, NORTH LITTLE ROCK ARKANSAS 72114 (PULASKI)",0,C,,110007408858
72127HXSNLI40FR,-92.664,35.163000000000004,False,05,029,950500,05,05029,05029950500,1400000US05029950500,HIXSON LUMBER SALES,125 HIXSON RD,PLUMERVILLE,AR,72127,"HIXSON LUMBER SALES.125 HIXSON RD, PLUMERVILLE ARKANSAS 72127 (CONWAY)",0,C,,110024982367
72127PNRSTHWY64,-92.571,35.153,False,05,029,950500,05,05029,05029950500,1400000US05029950500,BFI ORGANICS INC #1238-05 PIONEER SOUTHERN DIV,HWY 64 E,PLUMERVILLE,AR,72127,"BFI ORGANICS INC #1238-05 PIONEER SOUTHERN DIV.HWY 64 E, PLUMERVILLE ARKANSAS 72127 (CONWAY)",0,C,,
72127GRNBYHWY64,-92.57700000000001,35.153,False,05,029,950500,05,05029,05029950500,1400000US05029950500,GREEN BAY PACKAGING INC PINECREST DIV,3610 HWY 64 E,PLUMERVILLE,AR,72127,"GREEN BAY PACKAGING INC PINECREST DIV.3610 HWY 64 E, PLUMERVILLE ARKANSAS 72127 (CONWAY)",0,C,,110002433616
7211WSMCNC1RECV,-92.727,35.129,False,05,029,950500,05,05029,05029950500,1400000US05029950500,SEMCO LLC - PETIT JEAN,#1 RECOVERY ROAD,MORRILTON,AR,72110,"SEMCO LLC - PETIT JEAN.#1 RECOVERY ROAD, MORRILTON ARKANSAS 72110 (CONWAY)",0,C,,110002373468
72143MTTHW501LI,-91.73100000000001,35.239000000000004,False,05,145,070800,05,05145,05145070800,1400000US05145070800,MATTHEWS INTERNATIONAL CORP,501 E LINCOLN ST,SEARCY,AR,72143,"MATTHEWS INTERNATIONAL CORP.501 E LINCOLN ST, SEARCY ARKANSAS 72143 (WHITE)",0,C,,110000451804
72143PLRST920EL,-91.725,35.24,False,05,145,070800,05,05145,05145070800,1400000US05145070800,KOHLER CO,920 E LINCOLN AVE,SEARCY,AR,721437417,"KOHLER CO.920 E LINCOLN AVE, SEARCY ARKANSAS 72143 (WHITE)",0,C,,110000451813
72143SMLBN300EA,-91.735,35.24,False,05,145,070800,05,05145,05145070800,1400000US05145070800,FINZER ROLLER OF ARKANSAS LLC,300 E LINCOLN,SEARCY,AR,72143,"FINZER ROLLER OF ARKANSAS LLC.300 E LINCOLN, SEARCY ARKANSAS 72143 (WHITE)",0,C,,110000451822
72143SPDQN200QU,-91.723,35.236999999999995,False,05,145,070800,05,05145,05145070800,1400000US05145070800,MAYTAG APPLIANCES,200 QUEENSWAY,SEARCY,AR,72143,"MAYTAG APPLIANCES.200 QUEENSWAY, SEARCY ARKANSAS 72143 (WHITE)",1,C,,110000451831
72143TTHGB100QU,-91.72399999999999,35.239000000000004,False,05,145,070800,05,05145,05145070800,1400000US05145070800,ITT INDUSTRIES FLUID HANDLING SYSTEMS SEARCY PLANT,100 QUEENSWAY,SEARCY,AR,72143,"ITT INDUSTRIES FLUID HANDLING SYSTEMS SEARCY PLANT.100 QUEENSWAY, SEARCY ARKANSAS 72143 (WHITE)",0,C,,
72143VCKRS40LIN,-91.73200000000001,35.24,False,05,145,070800,05,05145,05145070800,1400000US05145070800,EATON HYDRAULICS LLC-SEARCY PLANT,400 E LINCOLN AVE,SEARCY,AR,72143,"EATON HYDRAULICS LLC-SEARCY PLANT.400 E LINCOLN AVE, SEARCY ARKANSAS 72143 (WHITE)",0,C,,110000451859
72143WHTKR409RE,-91.73,35.245,False,05,145,070800,05,05145,05145070800,1400000US05145070800,WHITAKER FURNITURE CO INC,409 REMINGTON ST,SEARCY,AR,721431468,"WHITAKER FURNITURE CO INC.409 REMINGTON ST, SEARCY ARKANSAS 72143 (WHITE)",0,C,,
72143BRYCC450SB,-91.714,35.244,False,05,145,070800,05,05145,05145070800,1400000US05145070800,BRYCE CO LLC,450 S BENTON ST,SEARCY,AR,72143,"BRYCE CO LLC.450 S BENTON ST, SEARCY ARKANSAS 72143 (WHITE)",0,C,,110000451797
72150PRGRS710EA,-92.39200000000001,34.306999999999995,False,05,053,470400,05,05053,05053470400,1400000US05053470400,FLINT INK NA CORP,717 E CENTER,SHERIDAN,AR,72150,"FLINT INK NA CORP.717 E CENTER, SHERIDAN ARKANSAS 72150 (GRANT)",0,C,,
72150RBRTSHWY16,-92.396,34.326,False,05,053,470400,05,05053,05053470400,1400000US05053470400,CENTRIA SHERIDAN,1811 N ROCK ST,SHERIDAN,AR,72150,"CENTRIA SHERIDAN.1811 N ROCK ST, SHERIDAN ARKANSAS 72150 (GRANT)",0,C,,110000451877
72150STRLNOKLAH,-92.39399999999999,34.301,False,05,053,470400,05,05053,05053470400,1400000US05053470400,KOHLER CO ARKANSAS FAUCET OP ERATIONS - SHERIDAN PLANT,415 S OKLAHOMA ST,SHERIDAN,AR,72150,"KOHLER CO ARKANSAS FAUCET OP ERATIONS - SHERIDAN PLANT.415 S OKLAHOMA ST, SHERIDAN ARKANSAS 72150 (GRANT)",0,C,,110000451886
72160LNNXN200LE,-91.554,34.466,False,05,001,480500,05,05001,05001480500,1400000US05001480500,LENNOX INDUSTRIES INC,512 LENNOX RD,STUTTGART,AR,72160,"LENNOX INDUSTRIES INC.512 LENNOX RD, STUTTGART ARKANSAS 72160 (ARKANSAS)",0,C,,110003395497
72160PTLTCHWY79,-91.54700000000001,34.509,False,05,001,480400,05,05001,05001480400,1400000US05001480400,"POTLATCH CORP, TOWNSEND UNIT",HWY 79 E,STUTTGART,AR,72160,"POTLATCH CORP, TOWNSEND UNIT.HWY 79 E, STUTTGART ARKANSAS 72160 (ARKANSAS)",0,C,,
72160RCLNDHWY79,-91.54,34.512,False,05,001,480300,05,05001,05001480300,1400000US05001480300,RICELAND FOODS INC - SOY DIV,1200 NORTH PARK AVENUE,STUTTGART,AR,72160,"RICELAND FOODS INC - SOY DIV.1200 NORTH PARK AVENUE, STUTTGART ARKANSAS 72160 (ARKANSAS)",0,C,,110000743535
72160RCLND1STCO,-91.54299999999999,34.501,False,05,001,480300,05,05001,05001480300,1400000US05001480300,RICELAND FOODS INC - STUTTGART RICE DIV,1ST & COLLEGE ST,STUTTGART,AR,72160,"RICELAND FOODS INC - STUTTGART RICE DIV.1ST & COLLEGE ST, STUTTGART ARKANSAS 72160 (ARKANSAS)",0,C,,110007348478
7216WBLSLP192SP,-91.541,34.484,False,05,001,480300,05,05001,05001480300,1400000US05001480300,BLUE SEAL PETROLEUM,1902 S PARK AVE,STUTTGART,AR,72160,"BLUE SEAL PETROLEUM.1902 S PARK AVE, STUTTGART ARKANSAS 72160 (ARKANSAS)",0,C,,110069247087
72176NVRSLHWY36,-91.945,35.043,False,05,085,020102,05,05085,05085020102,1400000US05085020102,UNIVERSAL ANTENNA MFG INC,HWY #367 NORTH,WARD,AR,72176,"UNIVERSAL ANTENNA MFG INC.HWY #367 NORTH, WARD ARKANSAS 72176 (LONOKE)",0,C,,
72201FLCNJ10THL,-92.23200000000001,34.736999999999995,False,05,119,000200,05,05119,05119000200,1400000US05119000200,DASSAULT FALCON JET CORP,3801 E 10TH,LITTLE ROCK,AR,72202,"DASSAULT FALCON JET CORP.3801 E 10TH, LITTLE ROCK ARKANSAS 72202 (PULASKI)",0,C,,110007409964
72202CHYNN20000,-92.24799999999999,34.731,False,05,119,000200,05,05119,05119000200,1400000US05119000200,CHEYENNE IND,2000 E 17TH ST,LITTLE ROCK,AR,72202,"CHEYENNE IND.2000 E 17TH ST, LITTLE ROCK ARKANSAS 72202 (PULASKI)",0,C,,
72202FCSTL1423E,-92.25299999999999,34.742,False,05,119,000200,05,05119,05119000200,1400000US05119000200,W&W|AFCO STEEL,1423 E SIXTH ST,LITTLE ROCK,AR,72202,"W&W|AFCO STEEL.1423 E SIXTH ST, LITTLE ROCK ARKANSAS 72202 (PULASKI)",0,C,,110064252623
72202STBBN1300E,-92.25299999999999,34.742,False,05,119,000200,05,05119,05119000200,1400000US05119000200,STERLING PAINT CO,1300 E SIXTH ST,LITTLE ROCK,AR,72202,"STERLING PAINT CO.1300 E SIXTH ST, LITTLE ROCK ARKANSAS 72202 (PULASKI)",0,C,,
72203RKNSS12THH,-92.225,34.728,False,05,119,000200,05,05119,05119000200,1400000US05119000200,RAYTHEON AIRCRAFT,2400 GRUNDFEST DR,LITTLE ROCK,AR,72206,"RAYTHEON AIRCRAFT.2400 GRUNDFEST DR, LITTLE ROCK ARKANSAS 72206 (PULASKI)",0,C,,
72203TMXCR19CRI,-92.24600000000001,34.733000000000004,False,05,119,000200,05,05119,05119000200,1400000US05119000200,TIMEX CORP,19 CRISP DR,LITTLE ROCK,AR,72202,"TIMEX CORP.19 CRISP DR, LITTLE ROCK ARKANSAS 72202 (PULASKI)",0,C,,
72206GSRFN2701E,-92.242,34.722,False,05,119,000200,05,05119,05119000200,1400000US05119000200,CERTAINTEED CORP,2701 E ROOSEVELT RD,LITTLE ROCK,AR,72206,"CERTAINTEED CORP.2701 E ROOSEVELT RD, LITTLE ROCK ARKANSAS 72206 (PULASKI)",0,C,,110002373841
72203RCHRDFOOTO,-92.25,34.739000000000004,False,05,119,000200,05,05119,05119000200,1400000US05119000200,ADM,901 BOND ST,LITTLE ROCK,AR,72203,"ADM.901 BOND ST, LITTLE ROCK ARKANSAS 72203 (PULASKI)",0,C,,
72202HNSNP13BND,-92.24799999999999,34.734,False,05,119,000200,05,05119,05119000200,1400000US05119000200,FORTERRA PIPE & PRECAST - LITTLE ROCK,1300 BOND ST,LITTLE ROCK,AR,72202,"FORTERRA PIPE & PRECAST - LITTLE ROCK.1300 BOND ST, LITTLE ROCK ARKANSAS 72202 (PULASKI)",0,C,,110020055116
72202THHSF1021J,-92.3,34.759,False,05,119,001502,05,05119,05119001502,1400000US05119001502,BINNACLE INDUSTRIES LLC (DBA HOUSE OF MARBLE),1021 JESSIE RD,LITTLE ROCK,AR,72202,"BINNACLE INDUSTRIES LLC (DBA HOUSE OF MARBLE).1021 JESSIE RD, LITTLE ROCK ARKANSAS 72202 (PULASKI)",0,C,,110000451920
7220WZRKPNNRTHM,-92.302,34.755,False,05,119,001502,05,05119,05119001502,1400000US05119001502,OZARK POINT WATER TREATMENT PLANT,NORTH MARTIN AND HILL ROAD,LITTLE ROCK,AR,72205,"OZARK POINT WATER TREATMENT PLANT.NORTH MARTIN AND HILL ROAD, LITTLE ROCK ARKANSAS 72205 (PULASKI)",0,C,,110010064367
72202THSTC2330C,-92.297,34.757,True,05,119,001502,05,05119,05119001502,1400000US05119001502,STECO CORP,2330 CANTRELL RD,LITTLE ROCK,AR,72202,"STECO CORP 2330 CANTRELL RD, LITTLE ROCK, AR, 72202",0,C,,
72203SMKYH3200W,-92.306,34.722,False,05,119,001200,05,05119,05119001200,1400000US05119001200,SMOKY HOLLOW FOODS,3200 WOODROW ST,LITTLE ROCK,AR,72203,"SMOKY HOLLOW FOODS.3200 WOODROW ST, LITTLE ROCK ARKANSAS 72203 (PULASKI)",0,C,,
72204PHLPS2701W,-92.304,34.725,False,05,119,001200,05,05119,05119001200,1400000US05119001200,PHILIPS LIGHTING CO,2701 W ROOSEVELT RD,LITTLE ROCK,AR,72204,"PHILIPS LIGHTING CO.2701 W ROOSEVELT RD, LITTLE ROCK ARKANSAS 72204 (PULASKI)",0,C,,
72204SLVRW3215B,-92.311,34.721,False,05,119,001200,05,05119,05119001200,1400000US05119001200,SILVERWOOD PRODS INC,3215 S BROWN ST,LITTLE ROCK,AR,72204,"SILVERWOOD PRODS INC.3215 S BROWN ST, LITTLE ROCK ARKANSAS 72204 (PULASKI)",0,C,,
72204JHNSM3300S,-92.306,34.72,False,05,119,001200,05,05119,05119001200,1400000US05119001200,JOHNS MANVILLE,3300 S WOODROW,LITTLE ROCK,AR,72204,"JOHNS MANVILLE.3300 S WOODROW, LITTLE ROCK ARKANSAS 72204 (PULASKI)",0,C,,
72204BRDNN7900A,-92.36399999999999,34.713,False,05,119,002406,05,05119,05119002406,1400000US05119002406,BORDEN INC GROCERY & SPECIALTY PRODUCTS,7900 ASHER AVE,LITTLE ROCK,AR,72204,"BORDEN INC GROCERY & SPECIALTY PRODUCTS.7900 ASHER AVE, LITTLE ROCK ARKANSAS 72204 (PULASKI)",0,C,,
72204JSNNT10005,-92.318,34.696,False,05,119,002002,05,05119,05119002002,1400000US05119002002,WINDSOR DOOR,5800 SCOTT HAMILTON DR,LITTLE ROCK,AR,72209,"WINDSOR DOOR.5800 SCOTT HAMILTON DR, LITTLE ROCK ARKANSAS 72209 (PULASKI)",0,C,,
72208RMSTR5701M,-92.315,34.696,False,05,119,002002,05,05119,05119002002,1400000US05119002002,LANXESS CORP,5701 MURRAY ST,LITTLE ROCK,AR,72209,"LANXESS CORP.5701 MURRAY ST, LITTLE ROCK ARKANSAS 72209 (PULASKI)",0,C,,110000860131
72209CCCLB7000I,-92.309,34.686,False,05,119,002002,05,05119,05119002002,1400000US05119002002,COCA-COLA BOTTLING CO OF ARKANSAS,7000 INTERSTATE 30,LITTLE ROCK,AR,72209,"COCA-COLA BOTTLING CO OF ARKANSAS.7000 INTERSTATE 30, LITTLE ROCK ARKANSAS 72209 (PULASKI)",0,C,,
72209RBTVL7200I,-92.316,34.681,False,05,119,002002,05,05119,05119002002,1400000US05119002002,CAMERON A SCHLUMBERGER CO,7200 INTERSTATE 30,LITTLE ROCK,AR,72209,"CAMERON A SCHLUMBERGER CO.7200 INTERSTATE 30, LITTLE ROCK ARKANSAS 72209 (PULASKI)",0,C,,110025080338
72209SMTHF2700W,-92.316,34.689,False,05,119,002002,05,05119,05119002002,1400000US05119002002,FIBER GLASS SYSTEMS,2700 W 65TH ST,LITTLE ROCK,AR,72209,"FIBER GLASS SYSTEMS.2700 W 65TH ST, LITTLE ROCK ARKANSAS 72209 (PULASKI)",0,C,,110000452055
72209SMTHF3601W,-92.316,34.689,False,05,119,002002,05,05119,05119002002,1400000US05119002002,SMITH FIBERCAST,3601 W 65TH ST,LITTLE ROCK,AR,72209,"SMITH FIBERCAST.3601 W 65TH ST, LITTLE ROCK ARKANSAS 72209 (PULASKI)",0,C,,
72209TTLTT7600I,-92.32,34.681,False,05,119,002002,05,05119,05119002002,1400000US05119002002,AT&T LITTLE ROCK OPERATIONS CENTER,7600 INTERSTATE 30,LITTLE ROCK,AR,72209,"AT&T LITTLE ROCK OPERATIONS CENTER.7600 INTERSTATE 30, LITTLE ROCK ARKANSAS 72209 (PULASKI)",0,C,,
72209SSCKR5800M,-92.315,34.695,False,05,119,002002,05,05119,05119002002,1400000US05119002002,ESSICK AIR PRODUCTS,5800 MURRAY ST,LITTLE ROCK,AR,72209,"ESSICK AIR PRODUCTS.5800 MURRAY ST, LITTLE ROCK ARKANSAS 72209 (PULASKI)",0,C,,
72209CPRCM6424P,-92.325,34.692,False,05,119,002002,05,05119,05119002002,1400000US05119002002,ORBIT VALVE TRUSEAL DIV,6424 PATTERSON DR,LITTLE ROCK,AR,72209,"ORBIT VALVE TRUSEAL DIV.6424 PATTERSON DR, LITTLE ROCK ARKANSAS 72209 (PULASKI)",0,C,,
72209HRCRS3100W,-92.31299999999999,34.69,False,05,119,002002,05,05119,05119002002,1400000US05119002002,HARCROS CHEMICALS INC,3100 W 65TH ST,LITTLE ROCK,AR,72209,"HARCROS CHEMICALS INC.3100 W 65TH ST, LITTLE ROCK ARKANSAS 72209 (PULASKI)",0,C,,110000452037
72209SMTHF5601S,-92.318,34.696999999999996,False,05,119,002002,05,05119,05119002002,1400000US05119002002,SMITH FIBERGLASS PRODUCTS,5601 SCOTT HAMILTON DR,LITTLE ROCK,AR,72209,"SMITH FIBERGLASS PRODUCTS.5601 SCOTT HAMILTON DR, LITTLE ROCK ARKANSAS 72209 (PULASKI)",0,C,,
72209LMGLS74SCT,-92.319,34.681999999999995,False,05,119,002002,05,05119,05119002002,1400000US05119002002,LM WIND POWER,7400 SCOTT HAMILTON,LITTLE ROCK,AR,72209,"LM WIND POWER.7400 SCOTT HAMILTON, LITTLE ROCK ARKANSAS 72209 (PULASKI)",0,C,,110031469603
7220WTWGLB7511S,-92.319,34.681999999999995,False,05,119,002002,05,05119,05119002002,1400000US05119002002,ITW GLOBAL TIRE REPAIR,7511 SCOTT HAMILTON DR,LITTLE ROCK,AR,72209,"ITW GLOBAL TIRE REPAIR.7511 SCOTT HAMILTON DR, LITTLE ROCK ARKANSAS 72209 (PULASKI)",0,C,,110070071008
7220WNDSTR575PA,-92.325,34.698,False,05,119,002002,05,05119,05119002002,1400000US05119002002,INDUSTRIAL OILS UNLIMITED,5705 PATTERSON RD,LITTLE ROCK,AR,72209,"INDUSTRIAL OILS UNLIMITED.5705 PATTERSON RD, LITTLE ROCK ARKANSAS 72209 (PULASKI)",0,C,,110003392267
72206GRDSM1900E,-92.256,34.616,False,05,119,004005,05,05119,05119004005,1400000US05119004005,ENGINEERED POLYMER SOLUTIONS INC (DBA VALSPAR COATINGS),1900 E 145TH ST,LITTLE ROCK,AR,72206,"ENGINEERED POLYMER SOLUTIONS INC (DBA VALSPAR COATINGS).1900 E 145TH ST, LITTLE ROCK ARKANSAS 72206 (PULASKI)",0,C,,
72206MGTBN8523F,-92.182,34.707,False,05,119,004007,05,05119,05119004007,1400000US05119004007,WHEATLAND TUBE CO. LITTLE ROC K DIV,8200 FRAZIER PIKE,LITTLE ROCK,AR,72206,"WHEATLAND TUBE CO. LITTLE ROC K DIV.8200 FRAZIER PIKE, LITTLE ROCK ARKANSAS 72206 (PULASKI)",0,C,,110041998657
72206SMNSN14000,-92.266,34.623000000000005,False,05,119,004007,05,05119,05119004007,1400000US05119004007,SIEMENS ENERGY & AUTOMATION INC  INDL MOTOR DIV,14000 DINEEN DR,LITTLE ROCK,AR,72206,"SIEMENS ENERGY & AUTOMATION INC  INDL MOTOR DIV.14000 DINEEN DR, LITTLE ROCK ARKANSAS 72206 (PULASKI)",0,C,,
72206PRSPC8900F,-92.19,34.713,False,05,119,004007,05,05119,05119004007,1400000US05119004007,PROSPECT STEEL CO,8900 FOURCHE DAM PIKE,LITTLE ROCK,AR,72206,"PROSPECT STEEL CO.8900 FOURCHE DAM PIKE, LITTLE ROCK ARKANSAS 72206 (PULASKI)",0,C,,110000452019
72206LMGLS8FRAZ,-92.182,34.707,False,05,119,004007,05,05119,05119004007,1400000US05119004007,LM WIND POWER BLADES (USA) INC,8000 FRAZIER PIKE,LITTLE ROCK,AR,72206,"LM WIND POWER BLADES (USA) INC.8000 FRAZIER PIKE, LITTLE ROCK ARKANSAS 72206 (PULASKI)",0,C,,110031104622
7220WCSTMM76SLA,-92.19200000000001,34.707,False,05,119,004007,05,05119,05119004007,1400000US05119004007,CUSTOM METALS,7600 SLOANE,LITTLE ROCK,AR,72206,"CUSTOM METALS.7600 SLOANE, LITTLE ROCK ARKANSAS 72206 (PULASKI)",0,C,,110037562786
72206WLSPN931FR,-92.17,34.69,False,05,119,004007,05,05119,05119004007,1400000US05119004007,WELSPUN TUBULAR,9301 FRAZIER PIKE RD,LITTLE ROCK,AR,72206,"WELSPUN TUBULAR.9301 FRAZIER PIKE RD, LITTLE ROCK ARKANSAS 72206 (PULASKI)",0,C,,110032932325
7220WNVSRK792SL,-92.196,34.71,False,05,119,004007,05,05119,05119004007,1400000US05119004007,NOVUS ARKANSAS LLC,7920 SLOANE DR,LITTLE ROCK,AR,72206,"NOVUS ARKANSAS LLC.7920 SLOANE DR, LITTLE ROCK ARKANSAS 72206 (PULASKI)",0,C,,110025108452
7220WSGVFD591SL,-92.208,34.707,False,05,119,004007,05,05119,05119004007,1400000US05119004007,"SAGE V FOODS, LLC",5901 SLOANE DRIVE,LITTLE ROCK,AR,72206,"SAGE V FOODS, LLC.5901 SLOANE DRIVE, LITTLE ROCK ARKANSAS 72206 (PULASKI)",0,C,,110043694570
72206PRCLC10000,-92.306,34.654,False,05,119,004001,05,05119,05119004001,1400000US05119004001,POROCEL INDUSTRIES LLC,10300 ARCH ST PIKE,LITTLE ROCK,AR,72206,"POROCEL INDUSTRIES LLC.10300 ARCH ST PIKE, LITTLE ROCK ARKANSAS 72206 (PULASKI)",0,C,,110001711568
72216MXXXXPOBOX,-92.23899999999999,34.709,False,05,119,004001,05,05119,05119004001,1400000US05119004001,3M CO - LITTLE ROCK,HWY 365 & WALTERS DR,LITTLE ROCK,AR,72206,"3M CO - LITTLE ROCK.HWY 365 & WALTERS DR, LITTLE ROCK ARKANSAS 72206 (PULASKI)",0,C,,110040995199
7220WTHSTP681AL,-92.302,34.681999999999995,False,05,119,004001,05,05119,05119004001,1400000US05119004001,65TH ST PLANT,6801 ALLIED WAY,LITTLE ROCK,AR,72209,"65TH ST PLANT.6801 ALLIED WAY, LITTLE ROCK ARKANSAS 72209 (PULASKI)",0,C,,110046279558
7220WRGNSP61SHA,-92.265,34.679,False,05,119,004001,05,05119,05119004001,1400000US05119004001,ERGON ASPHALT & EMULSIONS INC - LITTLE ROCK,601 SHAMBURGER LANE,LITTLE ROCK,AR,72206,"ERGON ASPHALT & EMULSIONS INC - LITTLE ROCK.601 SHAMBURGER LANE, LITTLE ROCK ARKANSAS 72206 (PULASKI)",0,C,,110001700142
72209MRNNM11605,-92.413,34.644,False,05,119,004104,05,05119,05119004104,1400000US05119004104,PPG PROTECTIVE & MARINE COAT INGS,11605 VIMY RIDGE RD,ALEXANDER,AR,72002,"PPG PROTECTIVE & MARINE COAT INGS.11605 VIMY RIDGE RD, ALEXANDER ARKANSAS 72002 (PULASKI)",0,C,,110035822063
72219JCZZB12401,-92.421,34.647,False,05,119,004104,05,05119,05119004104,1400000US05119004104,FRANKLIN PUMP SYSTEMS INC,12401 I-30 HWY,LITTLE ROCK,AR,72219,"FRANKLIN PUMP SYSTEMS INC.12401 I-30 HWY, LITTLE ROCK ARKANSAS 72219 (PULASKI)",0,C,,
72301BSCSC1235N,-90.176,35.16,False,05,035,030201,05,05035,05035030201,1400000US05035030201,BOISE CASCADE CORP CONTAINER PLANT,1235 N 7TH ST,WEST MEMPHIS,AR,72301,"BOISE CASCADE CORP CONTAINER PLANT.1235 N 7TH ST, WEST MEMPHIS ARKANSAS 72301 (CRITTENDEN)",0,C,,
72301TMPLN540EA,-90.179,35.156,False,05,035,030201,05,05035,05035030201,1400000US05035030201,TIN INC (DBA TEMPLE INLAND WEST MEMPHIS),540 E BARTON,WEST MEMPHIS,AR,72301,"TIN INC (DBA TEMPLE INLAND WEST MEMPHIS).540 E BARTON, WEST MEMPHIS ARKANSAS 72301 (CRITTENDEN)",0,C,,110001132024
72301CNNRS1400R,-90.213,35.125,False,05,035,030600,05,05035,05035030600,1400000US05035030600,CANNERS OF EASTERN ARKANSAS,1400 RAINIER RD,WEST MEMPHIS,AR,72301,"CANNERS OF EASTERN ARKANSAS.1400 RAINIER RD, WEST MEMPHIS ARKANSAS 72301 (CRITTENDEN)",0,C,,
72301CPSCHBRIDG,-90.09700000000001,35.135999999999996,False,05,035,030600,05,05035,05035030600,1400000US05035030600,BASF CORP,100 BRIDGEPORT RD,WEST MEMPHIS,AR,72301,"BASF CORP.100 BRIDGEPORT RD, WEST MEMPHIS ARKANSAS 72301 (CRITTENDEN)",0,C,,110000452082
72301RNKDS20312,-90.19,35.108000000000004,False,05,035,030600,05,05035,05035030600,1400000US05035030600,TETRA CHEMICALS,2201 PORT RD,WEST MEMPHIS,AR,72301,"TETRA CHEMICALS.2201 PORT RD, WEST MEMPHIS ARKANSAS 72301 (CRITTENDEN)",0,C,,110000452144
72301THBLC1281S,-90.17299999999999,35.126999999999995,False,05,035,030600,05,05035,05035030600,1400000US05035030600,COASTAL UNILUBE INC,1281 S 8TH ST,WEST MEMPHIS,AR,72301,"COASTAL UNILUBE INC.1281 S 8TH ST, WEST MEMPHIS ARKANSAS 72301 (CRITTENDEN)",0,C,,
72301SPRRN1515S,-90.194,35.126999999999995,False,05,035,030600,05,05035,05035030600,1400000US05035030600,SUPERIOR INDUSTRIES INTERNATIONAL INC MIDWEST PLATING DIV,1515 S AVALON,WEST MEMPHIS,AR,72301,"SUPERIOR INDUSTRIES INTERNATIONAL INC MIDWEST PLATING DIV.1515 S AVALON, WEST MEMPHIS ARKANSAS 72301 (CRITTENDEN)",0,C,,
72301PRFRM304WY,-90.196,35.106,False,05,035,030600,05,05035,05035030600,1400000US05035030600,STATESIDE STEEL & WIRE LLC,304 WYANOKE RD,WEST MEMPHIS,AR,72301,"STATESIDE STEEL & WIRE LLC.304 WYANOKE RD, WEST MEMPHIS ARKANSAS 72301 (CRITTENDEN)",0,C,,110000452126
72301DZNTR301WY,-90.193,35.107,False,05,035,030600,05,05035,05035030600,1400000US05035030600,DIAZ INTERMEDIATES CORP,301 WYANOKE RD,WEST MEMPHIS,AR,72301,"DIAZ INTERMEDIATES CORP.301 WYANOKE RD, WEST MEMPHIS ARKANSAS 72301 (CRITTENDEN)",0,C,,110000494947
72303WLLMS1282S,-90.17399999999999,35.132,False,05,035,030600,05,05035,05035030600,1400000US05035030600,VALERO PARTNERS WEST MEMPHIS LLC,1282 S EIGHTH ST,WEST MEMPHIS,AR,72301,"VALERO PARTNERS WEST MEMPHIS LLC.1282 S EIGHTH ST, WEST MEMPHIS ARKANSAS 72301 (CRITTENDEN)",0,C,,110000452171
72301LLDNV2100P,-90.19200000000001,35.109,False,05,035,030600,05,05035,05035030600,1400000US05035030600,ALLIED UNIVERSAL CORP,2100 PORT RD,WEST MEMPHIS,AR,72301,"ALLIED UNIVERSAL CORP.2100 PORT RD, WEST MEMPHIS ARKANSAS 72301 (CRITTENDEN)",0,C,,110000509833
72376BGRVR3719M,-90.291,35.109,False,05,035,030600,05,05035,05035030600,1400000US05035030600,BIG RIVER INDUSTRIES ARKALITE,3719 MOUNDS RD,PROCTOR,AR,72376,"BIG RIVER INDUSTRIES ARKALITE.3719 MOUNDS RD, PROCTOR ARKANSAS 72376 (CRITTENDEN)",0,C,,110024953371
72301CSTLN1000J,-90.17200000000001,35.135,False,05,035,031200,05,05035,05035031200,1400000US05035031200,COASTAL UNILUBE INC,1000 JEFFERSON ST,WEST MEMPHIS,AR,72301,"COASTAL UNILUBE INC.1000 JEFFERSON ST, WEST MEMPHIS ARKANSAS 72301 (CRITTENDEN)",0,C,,
72301CSTLN1200S,-90.175,35.139,False,05,035,031200,05,05035,05035031200,1400000US05035031200,WARREN OIL CO LLC - WEST MEMPHIS AR,1200 S 8TH ST,WEST MEMPHIS,AR,72301,"WARREN OIL CO LLC - WEST MEMPHIS AR.1200 S 8TH ST, WEST MEMPHIS ARKANSAS 72301 (CRITTENDEN)",0,C,,110000452091
72301CSTLN915EA,-90.17299999999999,35.135,False,05,035,031200,05,05035,05035031200,1400000US05035031200,COASTAL UNILUBE INC,915 JEFFERSON ST,WEST MEMPHIS,AR,72301,"COASTAL UNILUBE INC.915 JEFFERSON ST, WEST MEMPHIS ARKANSAS 72301 (CRITTENDEN)",0,C,,
72301FRBSS981S8,-90.175,35.134,False,05,035,030302,05,05035,05035030302,1400000US05035030302,FORBES STEEL & WIRE CORP,981 S 8TH ST,WEST MEMPHIS,AR,72301,"FORBES STEEL & WIRE CORP.981 S 8TH ST, WEST MEMPHIS ARKANSAS 72301 (CRITTENDEN)",0,C,,
72301NWYPR220GA,-90.19,35.132,False,05,035,030302,05,05035,05035030302,1400000US05035030302,NU-WAY PRODUCTS CO INC,220 GARRISON COVE,WEST MEMPHIS,AR,72301,"NU-WAY PRODUCTS CO INC.220 GARRISON COVE, WEST MEMPHIS ARKANSAS 72301 (CRITTENDEN)",0,C,,
72301PRGRS411WO,-90.185,35.141999999999996,False,05,035,030302,05,05035,05035030302,1400000US05035030302,FLINT INK NA CORP,411 S WOODS ST,WEST MEMPHIS,AR,72301,"FLINT INK NA CORP.411 S WOODS ST, WEST MEMPHIS ARKANSAS 72301 (CRITTENDEN)",0,C,,
72301HPPWS51EJE,-90.18,35.135,False,05,035,030302,05,05035,05035030302,1400000US05035030302,FORTERRA PIPE & PRECAST - WEST MEMPHIS,501 E JEFFERSON ST,WEST MEMPHIS,AR,72301,"FORTERRA PIPE & PRECAST - WEST MEMPHIS.501 E JEFFERSON ST, WEST MEMPHIS ARKANSAS 72301 (CRITTENDEN)",0,C,,110020514987
72301NWBRR205NW,-90.147,35.149,False,05,035,030101,05,05035,05035030101,1400000US05035030101,"NEWBERRY TANKS & EQUIPMENT, LLC",205 N WALKER STREET,WEST MEMPHIS,AR,72301,"NEWBERRY TANKS & EQUIPMENT, LLC.205 N WALKER STREET, WEST MEMPHIS ARKANSAS 72301 (CRITTENDEN)",0,C,,110037257474
72301TMTDC3850S,-90.13600000000001,35.158,False,05,035,030803,05,05035,05035030803,1400000US05035030803,AUTOMATED CONVEYOR SYSTEMS INC.,3850 SOUTHLAND DR,WEST MEMPHIS,AR,72301,"AUTOMATED CONVEYOR SYSTEMS INC..3850 SOUTHLAND DR, WEST MEMPHIS ARKANSAS 72301 (CRITTENDEN)",0,C,,110000452162
72364LTLMPHWY77,-90.185,35.183,False,05,035,030803,05,05035,05035030803,1400000US05035030803,VINTAGE VERANDAH INC,1139 HWY 77,MARION,AR,72364,"VINTAGE VERANDAH INC.1139 HWY 77, MARION ARKANSAS 72364 (CRITTENDEN)",0,C,,
72315BLYTH720SO,-89.90799999999999,35.923,False,05,093,010100,05,05093,05093010100,1400000US05093010100,BLYTHEVILLE CANNING CO INC,S 4TH ST AT LOCUST,BLYTHEVILLE,AR,72316,"BLYTHEVILLE CANNING CO INC.S 4TH ST AT LOCUST, BLYTHEVILLE ARKANSAS 72316 (MISSISSIPPI)",0,C,,
72316RNDLL505WJ,-89.90100000000001,35.917,False,05,093,010100,05,05093,05093010100,1400000US05093010100,RANDALL TEXTRON INC,505 W JOHN MCHANEY,BLYTHEVILLE,AR,72315,"RANDALL TEXTRON INC.505 W JOHN MCHANEY, BLYTHEVILLE ARKANSAS 72315 (MISSISSIPPI)",1,C,,
72315HKNCNPOBOX,-89.90700000000001,35.919000000000004,False,05,093,010100,05,05093,05093010100,1400000US05093010100,BALL METAL FOOD CONTAINER CORP,400 W MC HANEY ST,BLYTHEVILLE,AR,72315,"BALL METAL FOOD CONTAINER CORP.400 W MC HANEY ST, BLYTHEVILLE ARKANSAS 72315 (MISSISSIPPI)",0,C,,
72315GLDWN700SE,-89.91,35.92,False,05,093,010100,05,05093,05093010100,1400000US05093010100,ACUTUS GLADWIN ARKANSAS,700 S ELM ST,BLYTHEVILLE,AR,72315,"ACUTUS GLADWIN ARKANSAS.700 S ELM ST, BLYTHEVILLE ARKANSAS 72315 (MISSISSIPPI)",0,C,,
72315GRCCHARKAN,-89.76700000000001,35.909,False,05,093,010700,05,05093,05093010700,1400000US05093010700,TERRA NITROGEN LP,6054 STATE HWY 18 E,BLYTHEVILLE,AR,72315,"TERRA NITROGEN LP.6054 STATE HWY 18 E, BLYTHEVILLE ARKANSAS 72315 (MISSISSIPPI)",0,C,,
72315NBCNCHWY18,-89.85600000000001,35.919000000000004,False,05,093,010700,05,05093,05093010700,1400000US05093010700,NIBCO INC BLYTHEVILLE DIV,4747 STATE HWY 151,BLYTHEVILLE,AR,72315,"NIBCO INC BLYTHEVILLE DIV.4747 STATE HWY 151, BLYTHEVILLE ARKANSAS 72315 (MISSISSIPPI)",0,C,,110064124291
72315TRRNT1000T,-89.84899999999999,35.924,False,05,093,010700,05,05093,05093010700,1400000US05093010700,OMNIUM BLYTHEVILLE,400 TERRA RD,BLYTHEVILLE,AR,72315,"OMNIUM BLYTHEVILLE.400 TERRA RD, BLYTHEVILLE ARKANSAS 72315 (MISSISSIPPI)",0,C,,110024966946
72316LCTRNEASTH,-89.85,35.867,False,05,093,010700,05,05093,05093010700,1400000US05093010700,BORGWARNER AUTOMOTIVE INC,4149 E HWY 18,BLYTHEVILLE,AR,723161529,"BORGWARNER AUTOMOTIVE INC.4149 E HWY 18, BLYTHEVILLE ARKANSAS 72316 (MISSISSIPPI)",0,C,,
72316NCRYM5929E,-89.77600000000001,35.902,False,05,093,010700,05,05093,05093010700,1400000US05093010700,NUCOR-YAMATO STEEL CO,5929 E STATE HWY 18,BLYTHEVILLE,AR,72316,"NUCOR-YAMATO STEEL CO.5929 E STATE HWY 18, BLYTHEVILLE ARKANSAS 72316 (MISSISSIPPI)",0,C,,110000743562
72315NCRST7301E,-89.727,35.941,False,05,093,010700,05,05093,05093010700,1400000US05093010700,NUCOR STEEL-ARKANSAS,7301 E COUNTY RD 142,BLYTHEVILLE,AR,72315,"NUCOR STEEL-ARKANSAS.7301 E COUNTY RD 142, BLYTHEVILLE ARKANSAS 72315 (MISSISSIPPI)",0,C,,110000452180
72315HCKTTCONUC,-89.71700000000001,35.944,False,05,093,010700,05,05093,05093010700,1400000US05093010700,HARSCO METALS - HICKMAN,7301 E COUNTY RD 142 C/O NUCOR STEEL,BLYTHEVILLE,AR,72315,"HARSCO METALS - HICKMAN.7301 E COUNTY RD 142 C/O NUCOR STEEL, BLYTHEVILLE ARKANSAS 72315 (MISSISSIPPI)",0,C,,110013725889
72316MVRCK4950N,-89.758,35.934,False,05,093,010700,05,05093,05093010700,1400000US05093010700,MAVERICK TUBE CORP,4950 N COUNTY RD 967,BLYTHEVILLE,AR,72315,"MAVERICK TUBE CORP.4950 N COUNTY RD 967, BLYTHEVILLE ARKANSAS 72315 (MISSISSIPPI)",0,C,,110000598005
72315HCKTTCONYS,-89.78399999999999,35.888000000000005,False,05,093,010700,05,05093,05093010700,1400000US05093010700,HARSCO METALS - NYS,5929 E STATE HWY 18 C/O NUCOR-YAMOTO STEEL,BLYTHEVILLE,AR,72315,"HARSCO METALS - NYS.5929 E STATE HWY 18 C/O NUCOR-YAMOTO STEEL, BLYTHEVILLE ARKANSAS 72315 (MISSISSIPPI)",0,C,,110013725898
72315HNTCS5027N,-89.73299999999999,35.934,False,05,093,010700,05,05093,05093010700,1400000US05093010700,HUNTCO STEEL INC,5027 N COUNTY RD 1015,BLYTHEVILLE,AR,72315,"HUNTCO STEEL INC.5027 N COUNTY RD 1015, BLYTHEVILLE ARKANSAS 72315 (MISSISSIPPI)",0,C,,
72316LLMTB4178N,-89.78299999999999,35.885,False,05,093,010700,05,05093,05093010700,1400000US05093010700,ALLMET BLYTHEVILLE LLC,4178 N COUNTY RD 919,BLYTHEVILLE,AR,72316,"ALLMET BLYTHEVILLE LLC.4178 N COUNTY RD 919, BLYTHEVILLE ARKANSAS 72316 (MISSISSIPPI)",0,C,,
72315PSCTB5460N,-89.73299999999999,35.949,False,05,093,010700,05,05093,05093010700,1400000US05093010700,IPSCO TUBULARS INC,5640 N STATE HWY 137,BLYTHEVILLE,AR,72315,"IPSCO TUBULARS INC.5640 N STATE HWY 137, BLYTHEVILLE ARKANSAS 72315 (MISSISSIPPI)",0,C,,110002339336
72315CMMRC5056N,-89.758,35.934,False,05,093,010700,05,05093,05093010700,1400000US05093010700,COMMERCIAL RESINS BLYTHEVILLE,5056 N COUNTY RD 967,BLYTHEVILLE,AR,72315,"COMMERCIAL RESINS BLYTHEVILLE.5056 N COUNTY RD 967, BLYTHEVILLE ARKANSAS 72315 (MISSISSIPPI)",0,C,,
72315STLRL11TER,-89.848,35.928000000000004,False,05,093,010700,05,05093,05093010700,1400000US05093010700,PRIMETALS TECHNOLOGIES USA LLC,101 TERRA RD,BLYTHEVILLE,AR,72315,"PRIMETALS TECHNOLOGIES USA LLC.101 TERRA RD, BLYTHEVILLE ARKANSAS 72315 (MISSISSIPPI)",0,C,,110006035469
72315TLSTB539NC,-89.73299999999999,35.934,False,05,093,010700,05,05093,05093010700,1400000US05093010700,ATLAS TUBE INC - BLYTHEVILLE PLANT,5039 N COUNTY RD 1015,BLYTHEVILLE,AR,72315,"ATLAS TUBE INC - BLYTHEVILLE PLANT.5039 N COUNTY RD 1015, BLYTHEVILLE ARKANSAS 72315 (MISSISSIPPI)",0,C,,110031020124
72315RLLCT5888E,-89.773,35.929,False,05,093,010700,05,05093,05093010700,1400000US05093010700,PRECOAT METALS,5888 E COUNTY RD 180,BLYTHEVILLE,AR,72315,"PRECOAT METALS.5888 E COUNTY RD 180, BLYTHEVILLE ARKANSAS 72315 (MISSISSIPPI)",0,C,,110028304957
72315SKYLN5896H,-89.781,35.917,False,05,093,010700,05,05093,05093010700,1400000US05093010700,SKYLINE STEEL LLC-ARMOREL,5896 HWY 18 E,ARMOREL,AR,72310,"SKYLINE STEEL LLC-ARMOREL.5896 HWY 18 E, ARMOREL ARKANSAS 72310 (MISSISSIPPI)",0,C,,110014464249
7231WPZPRT5974E,-89.771,35.917,False,05,093,010700,05,05093,05093010700,1400000US05093010700,PIZO OPERATING COMPANY,5974 EAST STATE HIGHWAY 18,BLYTHEVILLE,AR,72315,"PIZO OPERATING COMPANY.5974 EAST STATE HIGHWAY 18, BLYTHEVILLE ARKANSAS 72315 (MISSISSIPPI)",0,C,,110038453394
7242WCDLLP31EAS,-90.024,35.861,False,05,093,010700,05,05093,05093010700,1400000US05093010700,AECI - DELL POWER PLANT,301 EAST STATE HIGHWAY 18,DELL,AR,72426,"AECI - DELL POWER PLANT.301 EAST STATE HIGHWAY 18, DELL ARKANSAS 72426 (MISSISSIPPI)",0,C,,110043716565
72315MGNTKRT1BO,-89.863,35.927,False,05,093,010200,05,05093,05093010200,1400000US05093010200,MAGNETEK UNIVERSAL MANUFACTURING,RT 1 BOX 35 INDUSTRIAL DR,BLYTHEVILLE,AR,72315,"MAGNETEK UNIVERSAL MANUFACTURING.RT 1 BOX 35 INDUSTRIAL DR, BLYTHEVILLE ARKANSAS 72315 (MISSISSIPPI)",0,C,,
72315MLWKLHWY18,-89.86200000000001,35.928000000000004,False,05,093,010200,05,05093,05093010200,1400000US05093010200,MILWAUKEE ELECTRIC TOOL CORP,3973 E STATE HWY 18,BLYTHEVILLE,AR,72315,"MILWAUKEE ELECTRIC TOOL CORP.3973 E STATE HWY 18, BLYTHEVILLE ARKANSAS 72315 (MISSISSIPPI)",1,C,,110000743553
72315NRDTPINDUS,-89.86399999999999,35.926,False,05,093,010200,05,05093,05093010200,1400000US05093010200,NER DATA PRODUCTS INC,1 INDUSTRIAL DR INDL PARK,BLYTHEVILLE,AR,723150124,"NER DATA PRODUCTS INC.1 INDUSTRIAL DR INDL PARK, BLYTHEVILLE ARKANSAS 72315 (MISSISSIPPI)",1,C,,
72315MRTHN4025E,-89.86,35.928000000000004,False,05,093,010200,05,05093,05093010200,1400000US05093010200,MARATHON ELECTRIC-REGAL BELOIT CORP,4025 E HWY 18,BLYTHEVILLE,AR,72315,"MARATHON ELECTRIC-REGAL BELOIT CORP.4025 E HWY 18, BLYTHEVILLE ARKANSAS 72315 (MISSISSIPPI)",1,C,,110006036048
72326HLSTDHWY1X,-90.804,35.143,False,05,123,960200,05,05123,05123960200,1400000US05123960200,RBX INDUSTRIES COLT ARKANSAS PLANT,HWY 1 N,COLT,AR,72326,"RBX INDUSTRIES COLT ARKANSAS PLANT.HWY 1 N, COLT ARKANSAS 72326 (ST FRANCIS)",0,C,,
72335YLHST3105N,-90.79,35.039,False,05,123,960400,05,05123,05123960400,1400000US05123960400,YALE HOISTS,3105 N WASHINGTON,FORREST CITY,AR,72335,"YALE HOISTS.3105 N WASHINGTON, FORREST CITY ARKANSAS 72335 (ST FRANCIS)",1,C,,
72335RTHRM3333N,-90.79,35.041,False,05,123,960400,05,05123,05123960400,1400000US05123960400,AIRTHERM LLC,3333 N WASHINGTON,FORREST CITY,AR,72335,"AIRTHERM LLC.3333 N WASHINGTON, FORREST CITY ARKANSAS 72335 (ST FRANCIS)",0,C,,
72335DXFDS3133C,-90.811,35.044000000000004,False,05,123,960400,05,05123,05123960400,1400000US05123960400,THORN APPLE VALLEY DIXIE FOODS,3133 COMMERCE DR,FORREST CITY,AR,723351053,"THORN APPLE VALLEY DIXIE FOODS.3133 COMMERCE DR, FORREST CITY ARKANSAS 72335 (ST FRANCIS)",0,C,,
72335SNYMF3333S,-90.79899999999999,35.043,False,05,123,960400,05,05123,05123960400,1400000US05123960400,SANYO MANUFACTURING CORP,3333 SANYO RD,FORREST CITY,AR,72335,"SANYO MANUFACTURING CORP.3333 SANYO RD, FORREST CITY ARKANSAS 72335 (ST FRANCIS)",0,C,,
72342QNCYSPOBOX,-90.602,34.489000000000004,False,05,107,480400,05,05107,05107480400,1400000US05107480400,ADM,HWY #20 S,HELENA,AR,72342,"ADM.HWY #20 S, HELENA ARKANSAS 72342 (PHILLIPS)",0,C,,
72342YZVLL501OC,-90.59100000000001,34.519,False,05,107,480400,05,05107,05107480400,1400000US05107480400,YAZOO VALLEY OIL MILL INC,501 O'CONNER ST,HELENA,AR,72342,"YAZOO VALLEY OIL MILL INC.501 O'CONNER ST, HELENA ARKANSAS 72342 (PHILLIPS)",0,C,,
72360DGLSLOLIVE,-90.77,34.784,False,05,077,470300,05,05077,05077470300,1400000US05077470300,DOUGLAS & LOMASON CO,OLIVE ST,MARIANNA,AR,72360,"DOUGLAS & LOMASON CO.OLIVE ST, MARIANNA ARKANSAS 72360 (LEE)",0,C,,
72365DSYST201IN,-90.413,35.532,False,05,111,490700,05,05111,05111490700,1400000US05111490700,DO3 SYSTEMS INC,201 INDUSTRIAL PARK,MARKED TREE,AR,72365,"DO3 SYSTEMS INC.201 INDUSTRIAL PARK, MARKED TREE ARKANSAS 72365 (POINSETT)",0,C,,
72365MDSTH301IN,-90.405,35.528,False,05,111,490700,05,05111,05111490700,1400000US05111490700,AIRTEX-MARKED TREE,301 INDUSTRIAL PARK,MARKED TREE,AR,72365,"AIRTEX-MARKED TREE.301 INDUSTRIAL PARK, MARKED TREE ARKANSAS 72365 (POINSETT)",1,C,,110000452279
7236WSNYDR62IND,-90.412,35.528,False,05,111,490700,05,05111,05111490700,1400000US05111490700,SNYDER INDUSTRIES LLC,602 INDUSTRIAL STREET,MARKED TREE,AR,72365,"SNYDER INDUSTRIES LLC.602 INDUSTRIAL STREET, MARKED TREE ARKANSAS 72365 (POINSETT)",0,C,,110001709642
72370CKDMSHWY61,-89.98899999999999,35.69,False,05,093,011100,05,05093,05093011100,1400000US05093011100,ACTAGRO LLC,1300 RICHARD PREWITT DR,OSCEOLA,AR,72370,"ACTAGRO LLC.1300 RICHARD PREWITT DR, OSCEOLA ARKANSAS 72370 (MISSISSIPPI)",0,C,,110001705548
72370CYRNDOFFHI,-89.994,35.69,False,05,093,011100,05,05093,05093011100,1400000US05093011100,EVONIK CYRO LLC,1500 RICHARD PREWITT DR,OSCEOLA,AR,72370,"EVONIK CYRO LLC.1500 RICHARD PREWITT DR, OSCEOLA ARKANSAS 72370 (MISSISSIPPI)",0,C,,110000452288
72370RKNSSHWY61,-89.984,35.689,False,05,093,011100,05,05093,05093011100,1400000US05093011100,SOUTHWIRE CO ARKANSAS PLANT,1400 SOUTHWIRE DR,OSCEOLA,AR,72370,"SOUTHWIRE CO ARKANSAS PLANT.1400 SOUTHWIRE DR, OSCEOLA ARKANSAS 72370 (MISSISSIPPI)",0,C,,110000743571
72370LGNQN18HIG,-89.98200000000001,35.692,False,05,093,011100,05,05093,05093011100,1400000US05093011100,ALGONQUIN INDUSTRIES OSCEOLA PLANT,1800 HWY 61 S,OSCEOLA,AR,72370,"ALGONQUIN INDUSTRIES OSCEOLA PLANT.1800 HWY 61 S, OSCEOLA ARKANSAS 72370 (MISSISSIPPI)",1,C,,110020056758
72370DNSMN1DENS,-90.04,35.701,False,05,093,011100,05,05093,05093011100,1400000US05093011100,DENSO MANUFACTURING ARKANSAS,100 DENSO RD,OSCEOLA,AR,72370,"DENSO MANUFACTURING ARKANSAS.100 DENSO RD, OSCEOLA ARKANSAS 72370 (MISSISSIPPI)",0,C,,110022524008
72370JTPRSPARSO,-89.971,35.694,False,05,093,011000,05,05093,05093011000,1400000US05093011000,J T PARSONS CABINET CO,420 W PARSONS DR,OSCEOLA,AR,72370,"J T PARSONS CABINET CO.420 W PARSONS DR, OSCEOLA ARKANSAS 72370 (MISSISSIPPI)",0,C,,
72370MRCNGCROMP,-89.973,35.69,False,05,093,011000,05,05093,05093011000,1400000US05093011000,AMERICAN GREETINGS,1400 OHLENDORF RD,OSCEOLA,AR,72370,"AMERICAN GREETINGS.1400 OHLENDORF RD, OSCEOLA ARKANSAS 72370 (MISSISSIPPI)",0,C,,110000452297
72370FRTFT1425C,-89.977,35.683,False,05,093,011000,05,05093,05093011000,1400000US05093011000,"FRUIT OF THE LOOM ARKANSAS, INC",1425 OHLENDORF RD,OSCEOLA,AR,72370,"FRUIT OF THE LOOM ARKANSAS, INC.1425 OHLENDORF RD, OSCEOLA ARKANSAS 72370 (MISSISSIPPI)",0,C,,
72370SCLPR700NO,-89.962,35.711,False,05,093,011000,05,05093,05093011000,1400000US05093011000,PRODUCERS MID-SOUTH,700 N PEARL,OSCEOLA,AR,72370,"PRODUCERS MID-SOUTH.700 N PEARL, OSCEOLA ARKANSAS 72370 (MISSISSIPPI)",0,C,,
72370SCLFD710NO,-89.964,35.708,False,05,093,011000,05,05093,05093011000,1400000US05093011000,CREATIVE FOODS LLC,710 N PEARL ST,OSCEOLA,AR,72370,"CREATIVE FOODS LLC.710 N PEARL ST, OSCEOLA ARKANSAS 72370 (MISSISSIPPI)",0,C,,
7237WPLMPN2732A,-89.949,35.665,False,05,093,011000,05,05093,05093011000,1400000US05093011000,PLUM POINT ENERGY STATION,2732A S COUNTY RD 623,OSCEOLA,AR,72370,"PLUM POINT ENERGY STATION.2732A S COUNTY RD 623, OSCEOLA ARKANSAS 72370 (MISSISSIPPI)",0,C,,110033168391
7237WBLKRK124HL,-89.977,35.695,False,05,093,011000,05,05093,05093011000,1400000US05093011000,BLUEOAK ARKANSAS LLC,1024 OHLENDORF RD,OSCEOLA,AR,72370,"BLUEOAK ARKANSAS LLC.1024 OHLENDORF RD, OSCEOLA ARKANSAS 72370 (MISSISSIPPI)",0,C,,110060244132
7237WSMSTC21SUT,-89.979,35.683,False,05,093,011000,05,05093,05093011000,1400000US05093011000,SMS TECHNICAL SERVICES LLC,2100 SOUTH US HWY 61,OSCEOLA,AR,72370,"SMS TECHNICAL SERVICES LLC.2100 SOUTH US HWY 61, OSCEOLA ARKANSAS 72370 (MISSISSIPPI)",0,C,,110046319202
72370VSKSCRT198,-89.94,35.652,False,05,093,011200,05,05093,05093011200,1400000US05093011200,VISKASE COS INC,2221 E STATE HWY 198,OSCEOLA,AR,72370,"VISKASE COS INC.2221 E STATE HWY 198, OSCEOLA ARKANSAS 72370 (MISSISSIPPI)",0,C,,110000452331
72395SRFRK68UNI,-90.04700000000001,35.576,False,05,093,011200,05,05093,05093011200,1400000US05093011200,SR - ARKANSAS,68 UNION ST,WILSON,AR,72395,"SR - ARKANSAS.68 UNION ST, WILSON ARKANSAS 72395 (MISSISSIPPI)",0,C,,
7237WRZRBC17EST,-89.963,35.652,False,05,093,011200,05,05093,05093011200,1400000US05093011200,RAZORBACK CONCRETE 119,1700 E STATE HIGHWAY 198,OSCEOLA,AR,72370,"RAZORBACK CONCRETE 119.1700 E STATE HIGHWAY 198, OSCEOLA ARKANSAS 72370 (MISSISSIPPI)",0,C,,110069277669
7237WBGRVR227ES,-89.955,35.646,False,05,093,011200,05,05093,05093011200,1400000US05093011200,BIG RIVER STEEL LLC,2027 E STATE HIGHWAY 198,OSCEOLA,AR,72370,"BIG RIVER STEEL LLC.2027 E STATE HIGHWAY 198, OSCEOLA ARKANSAS 72370 (MISSISSIPPI)",0,C,,110056033849
