TRIFID,LONGITUDE,LATITUDE,ESTIMATE,STATEFP,COUNTYFP,TRACTCE,STATEGEOID,COUNTYGEOID,TRACTGEOID,AFFGEOID,FACILITY_NAME,STREET,CITY,STUSPS,ZIP_CODE,FACILITY,FAC_CLOSED_IND,ASGN_FEDERAL_IND,BIA_CODE,EPA_REGISTRY_ID
50003NTDBR1831W,-94.03200000000001,41.617,False,19,049,050700,19,19049,19049050700,1400000US19049050700,SIOUX CITY BRICK & TILE CO UNITED BRICK & TILE A DIV,1831 W MAIN ST,ADEL,IA,50003,"SIOUX CITY BRICK & TILE CO UNITED BRICK & TILE A DIV.1831 W MAIN ST, ADEL IOWA 50003 (DALLAS)",0,C,,110000412517
5000WCNTRL31S6T,-94.015,41.615,False,19,049,050700,19,19049,19049050700,1400000US19049050700,CENTRAL IOWA READY MIX,301 S 6TH ST,ADEL,IA,50003,"CENTRAL IOWA READY MIX.301 S 6TH ST, ADEL IOWA 50003 (DALLAS)",0,C,,110070232694
50008NWZLN221NC,-93.365,40.708,False,19,185,070300,19,19185,19185070300,1400000US19185070300,DAIRI CONCEPTS LP,211 N CENTRAL AVE,ALLERTON,IA,50008,"DAIRI CONCEPTS LP.211 N CENTRAL AVE, ALLERTON IOWA 50008 (WAYNE)",0,C,,110036170023
50009KNTFD2031S,-93.465,41.653,False,19,153,010703,19,19153,19153010703,1400000US19153010703,KENT NUTRITION GROUP INC,203 1ST AVE N,ALTOONA,IA,50009,"KENT NUTRITION GROUP INC.203 1ST AVE N, ALTOONA IOWA 50009 (POLK)",0,C,,110000412526
50009RTSTC6023R,-93.471,41.648999999999994,False,19,153,010703,19,19153,19153010703,1400000US19153010703,ARTISTIC MANUFACTURING CORP,602 3RD ST SW,ALTOONA,IA,50009,"ARTISTIC MANUFACTURING CORP.602 3RD ST SW, ALTOONA IOWA 50009 (POLK)",0,C,,110010828827
50009WCLDS612NR,-93.454,41.666000000000004,False,19,153,010703,19,19153,19153010703,1400000US19153010703,IOWA COLD STORAGE,612 NORTHCREST DR NE,ALTOONA,IA,50009,"IOWA COLD STORAGE.612 NORTHCREST DR NE, ALTOONA IOWA 50009 (POLK)",0,C,,
50010BRNSN300AI,-93.613,42.001000000000005,False,19,169,001302,19,19169,19169001302,1400000US19169001302,BOURNS INC,300 AIRPORT RD,AMES,IA,50010,"BOURNS INC.300 AIRPORT RD, AMES IOWA 50010 (STORY)",0,C,,
50010CLRNT31RIV,-93.63,41.994,False,19,169,001302,19,19169,19169001302,1400000US19169001302,CLARION TECHNOLOGIES INC,3100 RIVERSIDE DR,AMES,IA,50010,"CLARION TECHNOLOGIES INC.3100 RIVERSIDE DR, AMES IOWA 50010 (STORY)",0,C,,110037072048
50010HCHCM100DA,-93.58,42.023999999999994,False,19,169,000100,19,19169,19169000100,1400000US19169000100,HACH CO,100 DAYTON AVE,AMES,IA,50010,"HACH CO.100 DAYTON AVE, AMES IOWA 50010 (STORY)",0,C,,110000612025
50010SNDST2800E,-93.573,42.034,False,19,169,000100,19,19169,19169000100,1400000US19169000100,DANFOSS POWER SOLUTIONS (US) CO,2800 E 13TH ST,AMES,IA,50010,"DANFOSS POWER SOLUTIONS (US) CO.2800 E 13TH ST, AMES IOWA 50010 (STORY)",0,C,,110000738649
50010HFFMN616DA,-93.581,42.016000000000005,False,19,169,000100,19,19169,19169000100,1400000US19169000100,DSM NUTRITIONAL PRODUCTS LLC,616 DAYTON AVE,AMES,IA,50010,"DSM NUTRITIONAL PRODUCTS LLC.616 DAYTON AVE, AMES IOWA 50010 (STORY)",0,C,,110001753255
50010MNNST900DA,-93.579,42.03,False,19,169,000100,19,19169,19169000100,1400000US19169000100,3M CO - AMES,900 DAYTON AVE,AMES,IA,50010,"3M CO - AMES.900 DAYTON AVE, AMES IOWA 50010 (STORY)",0,C,,110000412571
50010BRLLM3311E,-93.565,42.023,False,19,169,000100,19,19169,19169000100,1400000US19169000100,BARILLA AMERICA INC,3311 E LINCOLN WAY,AMES,IA,50010,"BARILLA AMERICA INC.3311 E LINCOLN WAY, AMES IOWA 50010 (STORY)",0,C,,
50201LNCLN59511,-93.512,42.023,False,19,169,000100,19,19169,19169000100,1400000US19169000100,LINCOLNWAY ENERGY LLC,59511 LINCOLN HWY,NEVADA,IA,50201,"LINCOLNWAY ENERGY LLC.59511 LINCOLN HWY, NEVADA IOWA 50201 (STORY)",0,C,,110024891027
5001WCLRBT1725D,-93.583,42.04,False,19,169,000100,19,19169,19169000100,1400000US19169000100,BASF CORP,1725 DAYTON AVE,AMES,IA,50010,"BASF CORP.1725 DAYTON AVE, AMES IOWA 50010 (STORY)",0,C,,110060261862
5020WDPNTC59219,-93.516,42.025,False,19,169,000100,19,19169,19169000100,1400000US19169000100,DUPONT CELLULOSIC ETHANOL,59219 LINCOLNWAY HIGHWAY,NEVADA,IA,50201,"DUPONT CELLULOSIC ETHANOL.59219 LINCOLNWAY HIGHWAY, NEVADA IOWA 50201 (STORY)",1,C,,110045328873
50021JHNDRHIGHW,-93.639,41.723,False,19,153,010207,19,19153,19153010207,1400000US19153010207,JOHN DEERE DES MOINES WORKS,825 SW IRVINEDALE DR,ANKENY,IA,50023,"JOHN DEERE DES MOINES WORKS.825 SW IRVINEDALE DR, ANKENY IOWA 50023 (POLK)",0,C,,110000593402
50022JPTRNWESTH,-95.03399999999999,41.413999999999994,False,19,029,190500,19,19029,19029190500,1400000US19029190500,MAHLE ENGINE COMPONENTS USA INC,60428 MARNE RD,ATLANTIC,IA,50022,"MAHLE ENGINE COMPONENTS USA INC.60428 MARNE RD, ATLANTIC IOWA 50022 (CASS)",0,C,,110000412580
50022MRCNB1501S,-95.03399999999999,41.396,False,19,029,190500,19,19029,19029190500,1400000US19029190500,AMERICAN BUILDINGS CO,1501 SW 7TH ST,ATLANTIC,IA,50022,"AMERICAN BUILDINGS CO.1501 SW 7TH ST, ATLANTIC IOWA 50022 (CASS)",0,C,,
50022WLNTG2NDAN,-95.01799999999999,41.413000000000004,False,19,029,190500,19,19029,19029190500,1400000US19029190500,WALNUT GROVE,2ND & BIRCH STS,ATLANTIC,IA,50022,"WALNUT GROVE.2ND & BIRCH STS, ATLANTIC IOWA 50022 (CASS)",0,C,,
50022CRGLL205BI,-95.01799999999999,41.409,False,19,029,190500,19,19029,19029190500,1400000US19029190500,CARGILL INC,205 BIRCH ST,ATLANTIC,IA,50022,"CARGILL INC.205 BIRCH ST, ATLANTIC IOWA 50022 (CASS)",0,C,,
50022MRCNC61W2N,-95.021,41.409,False,19,029,190500,19,19029,19029190500,1400000US19029190500,CENTRAL IOWA  READY MIX,601 W 2ND ST,ATLANTIC,IA,50022,"CENTRAL IOWA  READY MIX.601 W 2ND ST, ATLANTIC IOWA 50022 (CASS)",0,C,,110025317128
50034VNDSTPOBOX,-93.677,42.479,False,19,079,960100,19,19079,19079960100,1400000US19079960100,VAN DIEST SUPPLY CO,2141 POPLAR GROVE,BLAIRSBURG,IA,500347547,"VAN DIEST SUPPLY CO.2141 POPLAR GROVE, BLAIRSBURG IOWA 50034 (HAMILTON)",0,C,,
50595VNDSTOLDHW,-93.89200000000001,42.467,False,19,079,960100,19,19079,19079960100,1400000US19079960100,VAN DIEST SUPPLY CO,1434 220TH ST,WEBSTER CITY,IA,50595,"VAN DIEST SUPPLY CO.1434 220TH ST, WEBSTER CITY IOWA 50595 (HAMILTON)",0,C,,110000413641
5027WGRLQD252VA,-93.54799999999999,42.493,False,19,079,960100,19,19079,19079960100,1400000US19079960100,AGROLIQUID - WILLIAMS,2052 VAIL AVE,WILLIAMS,IA,50271,"AGROLIQUID - WILLIAMS.2052 VAIL AVE, WILLIAMS IOWA 50271 (HAMILTON)",0,C,,110070055348
50036GTSRBINDUS,-93.85700000000001,42.06399999999999,False,19,015,020200,19,19015,19015020200,1400000US19015020200,GATES CORP,2121 INDUSTRIAL PARK RD,BOONE,IA,50036,"GATES CORP.2121 INDUSTRIAL PARK RD, BOONE IOWA 50036 (BOONE)",0,C,,110000412599
50036SHKSHINDUS,-93.85799999999999,42.066,False,19,015,020200,19,19015,19015020200,1400000US19015020200,OSHKOSH TANNING CO INC,1923 INDUSTRIAL PARK RD,BOONE,IA,50036,"OSHKOSH TANNING CO INC.1923 INDUSTRIAL PARK RD, BOONE IOWA 50036 (BOONE)",1,C,,
50036MRCNC827MN,-93.88799999999999,42.06399999999999,False,19,015,020200,19,19015,19015020200,1400000US19015020200,AMERICAN CONCRETE PRODUCTS,827 MONONA,BOONE,IA,50036,"AMERICAN CONCRETE PRODUCTS.827 MONONA, BOONE IOWA 50036 (BOONE)",0,C,,110001323817
5003WBSSRQ15181,-93.87,42.068000000000005,False,19,015,020200,19,19015,19015020200,1400000US19015020200,BESSER QUINN MACHINE & FOUNDRY,1518 12TH ST,BOONE,IA,50036,"BESSER QUINN MACHINE & FOUNDRY.1518 12TH ST, BOONE IOWA 50036 (BOONE)",0,C,,110021347327
50049XNSTW900SO,-93.29799999999999,41.005,False,19,117,950400,19,19117,19117950400,1400000US19117950400,AXIA INC NESTAWAY DIV,900 S 4TH,CHARITON,IA,50049,"AXIA INC NESTAWAY DIV.900 S 4TH, CHARITON IOWA 50049 (LUCAS)",0,C,,
50060VLTMSHIGHW,-93.329,40.756,False,19,185,070100,19,19185,19185070100,1400000US19185070100,EAST PENN MANUFACTURING CO INC,2185 HWY 2,CORYDON,IA,50060,"EAST PENN MANUFACTURING CO INC.2185 HWY 2, CORYDON IOWA 50060 (WAYNE)",0,C,,110000593439
50060DFLCT314EJ,-93.314,40.757,False,19,185,070100,19,19185,19185070100,1400000US19185070100,DEFLECTA-SHIELD CORP,314 E JEFFERSON,CORYDON,IA,50060,"DEFLECTA-SHIELD CORP.314 E JEFFERSON, CORYDON IOWA 50060 (WAYNE)",0,C,,
50075LSRCHRTE1B,-93.56,42.302,False,19,079,960200,19,19079,19079960200,1400000US19079960200,LOUIS RICH CO,3364 VAIL AVE,ELLSWORTH,IA,50075,"LOUIS RICH CO.3364 VAIL AVE, ELLSWORTH IOWA 50075 (HAMILTON)",0,C,,
50130PTBRF26132,-93.663,42.32899999999999,False,19,079,960200,19,19079,19079960200,1400000US19079960200,POET BIOREFINING,2601 320TH ST,JEWELL,IA,50130,"POET BIOREFINING.2601 320TH ST, JEWELL IOWA 50130 (HAMILTON)",0,C,,110031001305
50112DNLDSSOUTH,-92.72,41.73,False,19,157,370400,19,19157,19157370400,1400000US19157370400,DONALDSON CO GRINNELL IOWA,201 SE ST,GRINNELL,IA,50112,"DONALDSON CO GRINNELL IOWA.201 SE ST, GRINNELL IOWA 50112 (POWESHIEK)",0,C,,110000412624
50112HRNSG4THAV,-92.743,41.744,False,19,157,370400,19,19157,19157370400,1400000US19157370400,AHRENS AGRICULTURAL INDUSTRIES CO.,1000 FERGUSON RD,GRINNELL,IA,50112,"AHRENS AGRICULTURAL INDUSTRIES CO..1000 FERGUSON RD, GRINNELL IOWA 50112 (POWESHIEK)",0,C,,110000412642
50112GLDNS1006I,-92.723,41.721000000000004,False,19,157,370400,19,19157,19157370400,1400000US19157370400,LAND O'LAKES PURINA FEED INC,1006 INDUSTRIAL AVE,GRINNELL,IA,50112,"LAND O'LAKES PURINA FEED INC.1006 INDUSTRIAL AVE, GRINNELL IOWA 50112 (POWESHIEK)",0,C,,
50112GRQPM725PE,-92.708,41.74100000000001,False,19,157,370400,19,19157,19157370400,1400000US19157370400,AGRI EQUIPMENT CO,725 PENROSE ST,GRINNELL,IA,50112,"AGRI EQUIPMENT CO.725 PENROSE ST, GRINNELL IOWA 50112 (POWESHIEK)",0,C,,
50112CRTNT911IN,-92.725,41.721000000000004,False,19,157,370400,19,19157,19157370400,1400000US19157370400,CERTAINTEED CORP,911 INDUSTRIAL AVE,GRINNELL,IA,50112,"CERTAINTEED CORP.911 INDUSTRIAL AVE, GRINNELL IOWA 50112 (POWESHIEK)",0,C,,
50112PLSTC909PI,-92.725,41.718,False,19,157,370400,19,19157,19157370400,1400000US19157370400,PLASTECH GRINNELL PRODUCTS,909 PINDER AVE,GRINNELL,IA,50112,"PLASTECH GRINNELL PRODUCTS.909 PINDER AVE, GRINNELL IOWA 50112 (POWESHIEK)",0,C,,
50112JLDWN82IND,-92.725,41.721000000000004,False,19,157,370400,19,19157,19157370400,1400000US19157370400,JELD-WEN DOOR SYSTEMS,820 INDUSTRIAL AVE,GRINNELL,IA,50112,"JELD-WEN DOOR SYSTEMS.820 INDUSTRIAL AVE, GRINNELL IOWA 50112 (POWESHIEK)",0,C,,110043621854
50112MRCLRHWY6W,-92.819,41.717,False,19,099,040100,19,19157,19099040100,1400000US19099040100,MIRACLE RECREATION EQUIPMENT CO,HWY 6 W,GRINNELL,IA,50112,"MIRACLE RECREATION EQUIPMENT CO.HWY 6 W, GRINNELL IOWA 50112 (POWESHIEK)",0,C,,
50208MYTGCN19TA,-93.03200000000001,41.718,False,19,099,040100,19,19099,19099040100,1400000US19099040100,MAYTAG APPLIANCES - NEMC,1716 N 19TH AVE E,NEWTON,IA,50208,"MAYTAG APPLIANCES - NEMC.1716 N 19TH AVE E, NEWTON IOWA 50208 (JASPER)",0,C,,110001361222
50208CNTRL3426E,-93.01899999999999,41.733000000000004,False,19,099,040100,19,19099,19099040100,1400000US19099040100,REG NEWTON LLC,3426 E 28TH ST N,NEWTON,IA,50208,"REG NEWTON LLC.3426 E 28TH ST N, NEWTON IOWA 50208 (JASPER)",0,C,,110024523684
50125HRSCH1301N,-93.542,41.373000000000005,False,19,181,020700,19,19181,19181020700,1400000US19181020700,HERSCHEL-ADAMS INC,1301 N 14TH ST,INDIANOLA,IA,501251585,"HERSCHEL-ADAMS INC.1301 N 14TH ST, INDIANOLA IOWA 50125 (WARREN)",0,C,,
50125FRHFN1700N,-93.542,41.376000000000005,False,19,181,020700,19,19181,19181020700,1400000US19181020700,FRUEHAUF TRAILER CORP INDIANOLA PLANT,1700 N 14TH ST,INDIANOLA,IA,50125,"FRUEHAUF TRAILER CORP INDIANOLA PLANT.1700 N 14TH ST, INDIANOLA IOWA 50125 (WARREN)",0,C,,
50126CRGLL602IN,-93.264,42.512,False,19,083,480200,19,19083,19083480200,1400000US19083480200,CARGILL INC,602 INDUSTRIAL RD,IOWA FALLS,IA,50126,"CARGILL INC.602 INDUSTRIAL RD, IOWA FALLS IOWA 50126 (HARDIN)",0,C,,110000412660
50126MMMTH1036I,-93.271,42.512,False,19,083,480200,19,19083,19083480200,1400000US19083480200,BERRY IOWA CORP,1036 INDUSTRIAL PARK RD,IOWA FALLS,IA,50126,"BERRY IOWA CORP.1036 INDUSTRIAL PARK RD, IOWA FALLS IOWA 50126 (HARDIN)",0,C,,
50126PRNML203OA,-93.264,42.512,False,19,083,480200,19,19083,19083480200,1400000US19083480200,PURINA MILLS INC,329 OAK ST,IOWA FALLS,IA,50126,"PURINA MILLS INC.329 OAK ST, IOWA FALLS IOWA 50126 (HARDIN)",1,C,,
50126FBRDW1120C,-93.25200000000001,42.525,False,19,083,480200,19,19083,19083480200,1400000US19083480200,CMC JOIST & DECK IOWA,1120 COMMERCIAL ST,IOWA FALLS,IA,50126,"CMC JOIST & DECK IOWA.1120 COMMERCIAL ST, IOWA FALLS IOWA 50126 (HARDIN)",0,C,,110010828701
5012WFRTRR54CUN,-93.25399999999999,42.513999999999996,False,19,083,480200,19,19083,19083480200,1400000US19083480200,FORTERRA CONCRETE PRODUCTS - IOWA FALLS,540 COUNTRY CLUB RD,IOWA FALLS,IA,50126,"FORTERRA CONCRETE PRODUCTS - IOWA FALLS.540 COUNTRY CLUB RD, IOWA FALLS IOWA 50126 (HARDIN)",0,C,,110069315271
50126FRMLNRR2XX,-93.207,42.521,True,19,083,480200,19,19083,19083480200,1400000US19083480200,FARMLAND FOODS INC,R RT 2,IOWA FALLS,IA,50126,"FARMLAND FOODS INC R RT 2, IOWA FALLS, IA, 50126",0,C,,
50129CHCGR208EC,-94.37200000000001,42.026,False,19,073,080200,19,19073,19073080200,1400000US19073080200,CHICAGO RIVET & MACHINE CO JEFFERSON DIV,208 E CENTRAL,JEFFERSON,IA,50129,"CHICAGO RIVET & MACHINE CO JEFFERSON DIV.208 E CENTRAL, JEFFERSON IOWA 50129 (GREENE)",0,C,,110011274995
50129PRKRNHWY30,-94.36,42.035,False,19,073,080200,19,19073,19073080200,1400000US19073080200,PARKER INDUSTRIES,900 E HWY 30,JEFFERSON,IA,50129,"PARKER INDUSTRIES.900 E HWY 30, JEFFERSON IOWA 50129 (GREENE)",0,C,,
50129WCLND601EC,-94.368,42.026,False,19,073,080200,19,19073,19073080200,1400000US19073080200,ELECTROLUX HOME PRODUCTS,601 E CENTRAL,JEFFERSON,IA,50129,"ELECTROLUX HOME PRODUCTS.601 E CENTRAL, JEFFERSON IOWA 50129 (GREENE)",0,C,,110011275002
5012WHMLTN1295R,-94.34899999999999,42.035,False,19,073,080200,19,19073,19073080200,1400000US19073080200,GREEN COUNTY REDI-MIX,1295 ORCHARD AVE,JEFFERSON,IA,50129,"GREEN COUNTY REDI-MIX.1295 ORCHARD AVE, JEFFERSON IOWA 50129 (GREENE)",0,C,,110070058966
50138GHRML200SG,-93.06299999999999,41.317,False,19,125,030402,19,19125,19125030402,1400000US19125030402,HORMEL FOODS CORP,209 N GODFREY LN,KNOXVILLE,IA,50138,"HORMEL FOODS CORP.209 N GODFREY LN, KNOXVILLE IOWA 50138 (MARION)",0,C,,110000516371
50138MNNST3406E,-93.066,41.321000000000005,False,19,125,030402,19,19125,19125030402,1400000US19125030402,3M CO - KNOXVILLE,3406 E PLEASANT,KNOXVILLE,IA,50138,"3M CO - KNOXVILLE.3406 E PLEASANT, KNOXVILLE IOWA 50138 (MARION)",0,C,,110000412697
50158CMBRS920TU,-92.897,42.041000000000004,False,19,127,950900,19,19127,19127950900,1400000US19127950900,ACME BRASS & ALUMINUM FOUNDRY,920 TURNER ST,MARSHALLTOWN,IA,50158,"ACME BRASS & ALUMINUM FOUNDRY.920 TURNER ST, MARSHALLTOWN IOWA 50158 (MARSHALL)",0,C,,
50158DNHMB811EA,-92.898,42.049,False,19,127,950900,19,19127,19127950900,1400000US19127950900,MEPCO,811 E MAIN ST,MARSHALLTOWN,IA,50158,"MEPCO.811 E MAIN ST, MARSHALLTOWN IOWA 50158 (MARSHALL)",0,C,,110000412704
50158LNNXN200S1,-92.89200000000001,42.047,False,19,127,950900,19,19127,19127950900,1400000US19127950900,LENNOX INDUSTRIES INC,200 S 12TH AVE,MARSHALLTOWN,IA,50158,"LENNOX INDUSTRIES INC.200 S 12TH AVE, MARSHALLTOWN IOWA 50158 (MARSHALL)",0,C,,110000412731
50158MRSHL104SO,-92.9,42.048,False,19,127,950900,19,19127,19127950900,1400000US19127950900,MARSHALLTOWN TROWEL CO,104 SOUTH 8TH AVE,MARSHALLTOWN,IA,50158,"MARSHALLTOWN TROWEL CO.104 SOUTH 8TH AVE, MARSHALLTOWN IOWA 50158 (MARSHALL)",0,C,,
50158LLNTN3001E,-92.86,42.048,False,19,127,950900,19,19127,19127950900,1400000US19127950900,IPL-SUTHERLAND GENERATING STATION,3001 E MAIN ST,MARSHALLTOWN,IA,50158,"IPL-SUTHERLAND GENERATING STATION.3001 E MAIN ST, MARSHALLTOWN IOWA 50158 (MARSHALL)",0,C,,110019914011
50158DMNDP715S3,-92.90799999999999,42.038999999999994,False,19,127,950900,19,19127,19127950900,1400000US19127950900,DIAMOND PRODUCTS CO,715 S 3RD AVE,MARSHALLTOWN,IA,50158,"DIAMOND PRODUCTS CO.715 S 3RD AVE, MARSHALLTOWN IOWA 50158 (MARSHALL)",0,C,,110015680137
50158FSHRC1STAV,-92.867,41.937,False,19,127,950400,19,19127,19127950400,1400000US19127950400,FISHER CONTROLS INTERNATIONAL INC,1ST AVE,MARSHALLTOWN,IA,50158,"FISHER CONTROLS INTERNATIONAL INC.1ST AVE, MARSHALLTOWN IOWA 50158 (MARSHALL)",0,C,,
50158FSHRCGOVER,-92.89299999999999,42.027,False,19,127,951000,19,19127,19127951000,1400000US19127951000,FISHER CONTROLS INTERNATIONAL LLC,1702 S 12TH AVE,MARSHALLTOWN,IA,50158,"FISHER CONTROLS INTERNATIONAL LLC.1702 S 12TH AVE, MARSHALLTOWN IOWA 50158 (MARSHALL)",0,C,,110036275241
50158PCKGN1402S,-92.88600000000001,42.031000000000006,False,19,127,951000,19,19127,19127951000,1400000US19127951000,PACKAGING CORP OF AMERICA,1402 SOUTH 17TH AVE,MARSHALLTOWN,IA,50158,"PACKAGING CORP OF AMERICA.1402 SOUTH 17TH AVE, MARSHALLTOWN IOWA 50158 (MARSHALL)",0,C,,
50158GSTNC1210I,-92.89200000000001,42.036,False,19,127,951000,19,19127,19127951000,1400000US19127951000,AUGUSTINE CO INC,1210 IND US TRIAL BLVD,MARSHALLTOWN,IA,50158,"AUGUSTINE CO INC.1210 IND US TRIAL BLVD, MARSHALLTOWN IOWA 50158 (MARSHALL)",0,C,,110000412713
5015WFRTRR22ELI,-92.87899999999999,42.028,False,19,127,951000,19,19127,19127951000,1400000US19127951000,FORTERRA CONCRETE PRODUCTS - MARSHALLTOWN,2002 E OLIVE ST,MARSHALLTOWN,IA,50158,"FORTERRA CONCRETE PRODUCTS - MARSHALLTOWN.2002 E OLIVE ST, MARSHALLTOWN IOWA 50158 (MARSHALL)",0,C,,110069315477
50158SWFTNNORTH,-92.898,42.053999999999995,False,19,127,950500,19,19127,19127950500,1400000US19127950500,SWIFT PORK,402 N 10TH AVE,MARSHALLTOWN,IA,50158,"SWIFT PORK.402 N 10TH AVE, MARSHALLTOWN IOWA 50158 (MARSHALL)",0,C,,110014393325
50171MNTZM300S8,-92.51799999999999,41.583,False,19,157,370500,19,19157,19157370500,1400000US19157370500,MONTEZUMA MANUFACTURING,403 S 8TH ST,MONTEZUMA,IA,50171,"MONTEZUMA MANUFACTURING.403 S 8TH ST, MONTEZUMA IOWA 50171 (POWESHIEK)",0,C,,110000412759
50157TWCNCSMAIN,-92.556,41.706,False,19,157,370500,19,19157,19157370500,1400000US19157370500,BASF,106 S MAIN,MALCOM,IA,50157,"BASF.106 S MAIN, MALCOM IOWA 50157 (POWESHIEK)",0,C,,110000593448
50171RNHRTHWY63,-92.53,41.591,False,19,157,370500,19,19157,19157370500,1400000US19157370500,A-1 FIBERGLASS,530 N FRONT ST,MONTEZUMA,IA,50171,"A-1 FIBERGLASS.530 N FRONT ST, MONTEZUMA IOWA 50171 (POWESHIEK)",0,C,,110000742484
50208MYTGCN19TH,-93.041,41.717,False,19,099,040300,19,19099,19099040300,1400000US19099040300,TPI COMPOSITES IOWA II BUS PLANT,927 N 19TH AVE E,NEWTON,IA,50208,"TPI COMPOSITES IOWA II BUS PLANT.927 N 19TH AVE E, NEWTON IOWA 50208 (JASPER)",0,C,,110016950851
5020WTRNTY81N19,-93.04299999999999,41.717,False,19,099,040300,19,19099,19099040300,1400000US19099040300,ARCOSA WIND TOWERS INC PLT 1550,801 N. 19TH AVE. EAST,NEWTON,IA,50208,"ARCOSA WIND TOWERS INC PLT 1550.801 N. 19TH AVE. EAST, NEWTON IOWA 50208 (JASPER)",0,C,,110038904022
50208MYTGCONEDE,-93.057,41.702,False,19,099,040500,19,19099,19099040500,1400000US19099040500,MAYTAG APPLIANCES NLP PLANT 1,403 W 4TH ST N,NEWTON,IA,50208,"MAYTAG APPLIANCES NLP PLANT 1.403 W 4TH ST N, NEWTON IOWA 50208 (JASPER)",0,C,,
50208THMBR316E7,-93.046,41.702,False,19,099,040500,19,19099,19099040500,1400000US19099040500,THOMBERT INC,316 E 7TH ST N,NEWTON,IA,50208,"THOMBERT INC.316 E 7TH ST N, NEWTON IOWA 50208 (JASPER)",0,C,,110000412795
50213PLMLL1000T,-93.791,41.025,False,19,039,960100,19,19039,19039960100,1400000US19039960100,PAUL MUELLER CO,1715 TIEKEN DR,OSCEOLA,IA,50213,"PAUL MUELLER CO.1715 TIEKEN DR, OSCEOLA IOWA 50213 (CLARKE)",0,C,,110000412811
50213WMRCNINDUS,-93.791,41.025,False,19,039,960100,19,19039,19039960100,1400000US19039960100,IOWA-AMERICAN FOUNDRY,1827 TIEKEN DR,OSCEOLA,IA,50213,"IOWA-AMERICAN FOUNDRY.1827 TIEKEN DR, OSCEOLA IOWA 50213 (CLARKE)",0,C,,
50213FRNSL1000F,-93.78299999999999,41.025,False,19,039,960100,19,19039,19039960100,1400000US19039960100,ALTEC OSCEOLA BODY PLANT,1001 FURNAS DR,OSCEOLA,IA,50213,"ALTEC OSCEOLA BODY PLANT.1001 FURNAS DR, OSCEOLA IOWA 50213 (CLARKE)",0,C,,110000412802
50213JMMYDJIMMY,-93.79299999999999,41.019,False,19,039,960100,19,19039,19039960100,1400000US19039960100,JIMMY DEAN MFG,JIMMY DEAN AVE,OSCEOLA,IA,50213,"JIMMY DEAN MFG.JIMMY DEAN AVE, OSCEOLA IOWA 50213 (CLARKE)",0,C,,
50213SCLFD1027W,-93.786,41.023999999999994,False,19,039,960100,19,19039,19039960100,1400000US19039960100,OSCEOLA FOODS INC,1027 WARREN AVE,OSCEOLA,IA,502130467,"OSCEOLA FOODS INC.1027 WARREN AVE, OSCEOLA IOWA 50213 (CLARKE)",0,C,,110011272648
50219RLSCR102MA,-92.915,41.398,False,19,125,030300,19,19125,19125030300,1400000US19125030300,PELLA CORP,102 MAIN ST,PELLA,IA,50219,"PELLA CORP.102 MAIN ST, PELLA IOWA 50219 (MARION)",0,C,,110011274334
50219PLLMN519OS,-92.915,41.398,False,19,125,030300,19,19125,19125030300,1400000US19125030300,PELLA MUNICIPAL POWER PLANT,519 OSKALOOSA ST,PELLA,IA,502190345,"PELLA MUNICIPAL POWER PLANT.519 OSKALOOSA ST, PELLA IOWA 50219 (MARION)",0,C,,110013337095
50219VRMRM2MILE,-92.89399999999999,41.407,False,19,125,030200,19,19125,19125030200,1400000US19125030200,VERMEER CORP,1210 VERMEER RD E,PELLA,IA,50219,"VERMEER CORP.1210 VERMEER RD E, PELLA IOWA 50219 (MARION)",0,C,,110000412875
50219PRCSN300SE,-92.898,41.394,False,19,125,030200,19,19125,19125030200,1400000US19125030200,PRECISION PULLEY & IDLER INC,300 SE 14TH ST,PELLA,IA,50219,"PRECISION PULLEY & IDLER INC.300 SE 14TH ST, PELLA IOWA 50219 (MARION)",0,C,,110000412857
50220BRDNN715FI,-94.10700000000001,41.835,False,19,049,050400,19,19049,19049050400,1400000US19049050400,MEADOW GOLD DAIRIES,715 1ST AVE,PERRY,IA,50220,"MEADOW GOLD DAIRIES.715 1ST AVE, PERRY IOWA 50220 (DALLAS)",0,C,,
50220BPNCXRR2XX,-94.126,41.842,False,19,049,050400,19,19049,19049050400,1400000US19049050400,TYSON FRESH MEATS INC-PERRY,13500 I CT,PERRY,IA,50220,"TYSON FRESH MEATS INC-PERRY.13500 I CT, PERRY IOWA 50220 (DALLAS)",0,C,,110015757304
5022WWSNDS1515T,-94.101,41.843,False,19,049,050400,19,19049,19049050400,1400000US19049050400,WIESE INDUSTRIES INC,1501 5TH ST,PERRY,IA,50220,"WIESE INDUSTRIES INC.1501 5TH ST, PERRY IOWA 50220 (DALLAS)",0,C,,110001361053
5022WMRCNC915RA,-94.105,41.836999999999996,False,19,049,050400,19,19049,19049050400,1400000US19049050400,CENTRAL IOWA READY MIX,915 RAILROAD ST,PERRY,IA,50220,"CENTRAL IOWA READY MIX.915 RAILROAD ST, PERRY IOWA 50220 (DALLAS)",0,C,,110001387865
50220SCRMYRR2OS,-94.134,41.85,False,19,049,050500,19,19049,19049050500,1400000US19049050500,OSCAR MAYER FOODS CORP,OSCAR MAYER RD,PERRY,IA,50220,"OSCAR MAYER FOODS CORP.OSCAR MAYER RD, PERRY IOWA 50220 (DALLAS)",0,C,,
50225CHMTC1006H,-93.272,41.396,False,19,125,030100,19,19125,19125030100,1400000US19125030100,CHEM TECH LTD,1006 B US INESS HWY 5,PLEASANTVILLE,IA,50225,"CHEM TECH LTD.1006 B US INESS HWY 5, PLEASANTVILLE IOWA 50225 (MARION)",0,C,,110000412900
50219VNGRP1400W,-92.93,41.409,False,19,125,030100,19,19125,19125030100,1400000US19125030100,VAN GORP CORP,1410 WASHINGTON ST,PELLA,IA,50219,"VAN GORP CORP.1410 WASHINGTON ST, PELLA IOWA 50219 (MARION)",0,C,,110000412866
5021WPLLNG1811W,-92.93700000000001,41.411,False,19,125,030100,19,19125,19125030100,1400000US19125030100,PELLA ENGRAVING CO,1811 WASHINGTON ST,PELLA,IA,50219,"PELLA ENGRAVING CO.1811 WASHINGTON ST, PELLA IOWA 50219 (MARION)",0,C,,110005777524
50265BWJHN1800F,-93.73,41.563,False,19,153,011028,19,19153,19153011028,1400000US19153011028,B W JOHNSON MANUFACTURING CO,1800 FULLER RD,WEST DES MOINES,IA,50265,"B W JOHNSON MANUFACTURING CO.1800 FULLER RD, WEST DES MOINES IOWA 50265 (POLK)",0,C,,
50265STLTR2250F,-93.735,41.56,False,19,153,011028,19,19153,19153011028,1400000US19153011028,STEEL TREATING,2250 FULLER RD,WEST DES MOINES,IA,50265,"STEEL TREATING.2250 FULLER RD, WEST DES MOINES IOWA 50265 (POLK)",0,C,,
50265MRCNC265S1,-93.721,41.567,False,19,153,011028,19,19153,19153011028,1400000US19153011028,CENTRAL  IOWA READY MIX WEST DES MOINES,265 S 13TH ST,WEST DES MOINES,IA,50265,"CENTRAL  IOWA READY MIX WEST DES MOINES.265 S 13TH ST, WEST DES MOINES IOWA 50265 (POLK)",0,C,,110001328224
5026WLLSTT52S18,-93.728,41.562,False,19,153,011028,19,19153,19153011028,1400000US19153011028,ALL STATE INDUSTRIES INC,500 S 18TH ST,WEST DES MOINES,IA,50265,"ALL STATE INDUSTRIES INC.500 S 18TH ST, WEST DES MOINES IOWA 50265 (POLK)",0,C,,110012151839
50265DLVNN8114T,-93.70700000000001,41.581,False,19,153,011111,19,19153,19153011111,1400000US19153011111,DELAVAN INC GAS TURBINE PRODUCTS DIV,811 4TH ST,WEST DES MOINES,IA,502650100,"DELAVAN INC GAS TURBINE PRODUCTS DIV.811 4TH ST, WEST DES MOINES IOWA 50265 (POLK)",0,C,,
50273PRRMN505EM,-94.01100000000001,41.348,False,19,121,060100,19,19121,19121060100,1400000US19121060100,MAHLE FILTER SYSTEMS NA INC,505 E MADISON AVE,WINTERSET,IA,50273,"MAHLE FILTER SYSTEMS NA INC.505 E MADISON AVE, WINTERSET IOWA 50273 (MADISON)",0,C,,110011274815
50301KMNNDBOX70,-93.58,41.582,False,19,153,005200,19,19153,19153005200,1400000US19153005200,KEMIN INDUSTRIES INC,2100 MAURY ST,DES MOINES,IA,50317,"KEMIN INDUSTRIES INC.2100 MAURY ST, DES MOINES IOWA 50317 (POLK)",0,C,,110000412946
50316RCKSN1917D,-93.584,41.591,False,19,153,005200,19,19153,19153005200,1400000US19153005200,EMCO ENTERPRISES INC,1917 DEAN ST,DES MOINES,IA,50316,"EMCO ENTERPRISES INC.1917 DEAN ST, DES MOINES IOWA 50316 (POLK)",0,C,,
50317CLRCN129SE,-93.587,41.588,False,19,153,005200,19,19153,19153005200,1400000US19153005200,SIEGWERK USA CO EAST FACILITY,129 SE 18TH,DES MOINES,IA,50317,"SIEGWERK USA CO EAST FACILITY.129 SE 18TH, DES MOINES IOWA 50317 (POLK)",0,C,,110000413099
50317MNFRT1700M,-93.589,41.581,False,19,153,005200,19,19153,19153005200,1400000US19153005200,MONFORT INC,1700 MAURY,DES MOINES,IA,50317,"MONFORT INC.1700 MAURY, DES MOINES IOWA 50317 (POLK)",0,C,,
50317WPCKN1801M,-93.585,41.581,False,19,153,005200,19,19153,19153005200,1400000US19153005200,IOWA PACKING CO,1801 MAURY,DES MOINES,IA,50317,"IOWA PACKING CO.1801 MAURY, DES MOINES IOWA 50317 (POLK)",0,C,,
50317NTNLB601SE,-93.586,41.583999999999996,False,19,153,005200,19,19153,19153005200,1400000US19153005200,NATIONAL BY-PRODUCTS INC,601 SE 18TH ST,DES MOINES,IA,50317,"NATIONAL BY-PRODUCTS INC.601 SE 18TH ST, DES MOINES IOWA 50317 (POLK)",0,C,,
50305MRDTH5701S,-93.695,41.556000000000004,False,19,153,004001,19,19153,19153004001,1400000US19153004001,RR DONNELLEY PRINTING CO LP,5701 S W PARK AVE,DES MOINES,IA,50321,"RR DONNELLEY PRINTING CO LP.5701 S W PARK AVE, DES MOINES IOWA 50321 (POLK)",0,C,,
50309QLSNC1340W,-93.679,41.556000000000004,False,19,153,004001,19,19153,19153004001,1400000US19153004001,QUALIS GROUP L.L.C.,4600 PARK AVE,DES MOINES,IA,50321,"QUALIS GROUP L.L.C..4600 PARK AVE, DES MOINES IOWA 50321 (POLK)",0,C,,110000412973
50321DLXCH2700B,-93.654,41.563,False,19,153,004001,19,19153,19153004001,1400000US19153004001,DELUXE CHECK PRINTERS INC,2700 BELL AVE,DES MOINES,IA,50321,"DELUXE CHECK PRINTERS INC.2700 BELL AVE, DES MOINES IOWA 50321 (POLK)",0,C,,
50321TLSPR2124V,-93.647,41.568000000000005,False,19,153,004001,19,19153,19153004001,1400000US19153004001,ATLAS PRODUCTS INC (BASIC COATINGS),2124 GEORGE FLAGG PKWY,DES MOINES,IA,50321,"ATLAS PRODUCTS INC (BASIC COATINGS).2124 GEORGE FLAGG PKWY, DES MOINES IOWA 50321 (POLK)",0,C,,110000413204
50321STNCN2201B,-93.648,41.563,False,19,153,004001,19,19153,19153004001,1400000US19153004001,"CAPTIVE PLASTICS, LLC  SUB BERRY PLASTICS CORPORATION",2201 BELL AVE,DES MOINES,IA,50321,"CAPTIVE PLASTICS, LLC  SUB BERRY PLASTICS CORPORATION.2201 BELL AVE, DES MOINES IOWA 50321 (POLK)",0,C,,110001326477
50306RMSTR2345E,-93.57,41.583999999999996,False,19,153,005300,19,19153,19153005300,1400000US19153005300,TITAN TIRE CORP,2345 E MARKET ST,DES MOINES,IA,50317,"TITAN TIRE CORP.2345 E MARKET ST, DES MOINES IOWA 50317 (POLK)",0,C,,110000412964
50317CRGLL3030S,-93.557,41.574,False,19,153,005300,19,19153,19153005300,1400000US19153005300,CARGILL INC,3030 E GRANGER,DES MOINES,IA,50317,"CARGILL INC.3030 E GRANGER, DES MOINES IOWA 50317 (POLK)",0,C,,110018868242
50317DMNDS2538S,-93.53,41.56100000000001,False,19,153,005300,19,19153,19153005300,1400000US19153005300,DIAMOND ANIMAL HEALTH INC,2538 SE 43RD ST,DES MOINES,IA,50317,"DIAMOND ANIMAL HEALTH INC.2538 SE 43RD ST, DES MOINES IOWA 50317 (POLK)",0,C,,
50317HLNCH3525V,-93.546,41.568999999999996,False,19,153,005300,19,19153,19153005300,1400000US19153005300,HELENA INDUSTRIES INC,3525 VANDALIA RD,DES MOINES,IA,50317,"HELENA INDUSTRIES INC.3525 VANDALIA RD, DES MOINES IOWA 50317 (POLK)",0,C,,110000413133
50317GSTFS3124E,-93.555,41.589,False,19,153,005300,19,19153,19153005300,1400000US19153005300,BAYER CROPSCIENCE LP,3124 E COURT AVE,DES MOINES,IA,50317,"BAYER CROPSCIENCE LP.3124 E COURT AVE, DES MOINES IOWA 50317 (POLK)",0,C,,110000413124
5031WFRTRR2825M,-93.559,41.58,False,19,153,005300,19,19153,19153005300,1400000US19153005300,FORTERRA CONCRETE PRODUCTS - DES MOINES,2825 MAURY ST,DES MOINES,IA,50317,"FORTERRA CONCRETE PRODUCTS - DES MOINES.2825 MAURY ST, DES MOINES IOWA 50317 (POLK)",0,C,,110069312899
5031WCNTRL118SE,-93.55799999999999,41.577,False,19,153,005300,19,19153,19153005300,1400000US19153005300,CENTRAL IOWA READY MIX,1108 SE 30TH STREET,DES MOINES,IA,50317,"CENTRAL IOWA READY MIX.1108 SE 30TH STREET, DES MOINES IOWA 50317 (POLK)",0,C,,110060257859
50309DCNCX200SW,-93.63799999999999,41.581,False,19,153,005100,19,19153,19153005100,1400000US19153005100,DICO INC,200 SW 16TH ST,DES MOINES,IA,50309,"DICO INC.200 SW 16TH ST, DES MOINES IOWA 50309 (POLK)",0,C,,
50309MDWGL1719W,-93.64,41.585,False,19,153,005100,19,19153,19153005100,1400000US19153005100,MEADOW GOLD DAIRIES INC,1719 W GRAND AVE,DES MOINES,IA,503093809,"MEADOW GOLD DAIRIES INC.1719 W GRAND AVE, DES MOINES IOWA 50309 (POLK)",0,C,,
50309PTTDS921MU,-93.626,41.578,False,19,153,005100,19,19153,19153005100,1400000US19153005100,PITT-DES MOINES INC,921 MURPHY ST,DES MOINES,IA,50309,"PITT-DES MOINES INC.921 MURPHY ST, DES MOINES IOWA 50309 (POLK)",1,C,,
50309BWJHN209SW,-93.622,41.584,True,19,153,005100,19,19153,19153005100,1400000US19153005100,B W JOHNSON MANUFACTURING CO,209 SW 11TH ST,DES MOINES,IA,50309,"B W JOHNSON MANUFACTURING CO 209 SW 11TH ST, DES MOINES, IA, 50309",0,C,,
50311FWNNG8040U,-93.73,41.602,False,19,153,011205,19,19153,19153011205,1400000US19153011205,FAWN ENGINEERING CORP,8040 UNIVERSITY AVE,DES MOINES,IA,50325,"FAWN ENGINEERING CORP.8040 UNIVERSITY AVE, DES MOINES IOWA 50325 (POLK)",0,C,,110000789521
50313CNTRL1946H,-93.584,41.622,False,19,153,000300,19,19153,19153000300,1400000US19153000300,CONSOLIDATED NUTRITION LC,1946 HULL AVE,DES MOINES,IA,50313,"CONSOLIDATED NUTRITION LC.1946 HULL AVE, DES MOINES IOWA 50313 (POLK)",0,C,,
50315GBSNH1623E,-93.594,41.628,False,19,153,000300,19,19153,19153000300,1400000US19153000300,GARDNER GIBSON,1623 E EUCLID,DES MOINES,IA,50316,"GARDNER GIBSON.1623 E EUCLID, DES MOINES IOWA 50316 (POLK)",0,C,,110000413044
50316DMXXX1942E,-93.584,41.622,False,19,153,000300,19,19153,19153000300,1400000US19153000300,ADM POWER PLANT,1942 E HULL,DES MOINES,IA,50316,"ADM POWER PLANT.1942 E HULL, DES MOINES IOWA 50316 (POLK)",0,C,,
50316RCHRD1940E,-93.583,41.626000000000005,False,19,153,000300,19,19153,19153000300,1400000US19153000300,ADM SOYBEAN PROCESSING,1935 EAST EUCLID AVE,DES MOINES,IA,50313,"ADM SOYBEAN PROCESSING.1935 EAST EUCLID AVE, DES MOINES IOWA 50313 (POLK)",0,C,,110067425799
50316TNSNN2100E,-93.59100000000001,41.613,False,19,153,000300,19,19153,19153000300,1400000US19153000300,TENSION ENVELOPE CORP,2100 E 17TH ST,DES MOINES,IA,50316,"TENSION ENVELOPE CORP.2100 E 17TH ST, DES MOINES IOWA 50316 (POLK)",0,C,,
50313TNBRT4141D,-93.589,41.636,False,19,153,000300,19,19153,19153000300,1400000US19153000300,TONE'S SPICES BURNS PHILP FOOD,4141 DIXON ST,DES MOINES,IA,50313,"TONE'S SPICES BURNS PHILP FOOD.4141 DIXON ST, DES MOINES IOWA 50313 (POLK)",0,C,,
50317SMRTN1626D,-93.581,41.61,False,19,153,000300,19,19153,19153000300,1400000US19153000300,SMART INDUSTRIES CORP MFG,1626 DELAWARE AVE,DES MOINES,IA,50317,"SMART INDUSTRIES CORP MFG.1626 DELAWARE AVE, DES MOINES IOWA 50317 (POLK)",0,C,,
50316MRCNC1626E,-93.588,41.608000000000004,False,19,153,000300,19,19153,19153000300,1400000US19153000300,LIBERTY READY MIX PLANT 3,1626 DIXON ST,DES MOINES,IA,50316,"LIBERTY READY MIX PLANT 3.1626 DIXON ST, DES MOINES IOWA 50316 (POLK)",0,C,,110001360839
50313MRCNC4DELA,-93.581,41.635,False,19,153,000300,19,19153,19153000300,1400000US19153000300,AMERICAN CONCRETE PRODUCTS,4000 DELAWARE,DES MOINES,IA,50313,"AMERICAN CONCRETE PRODUCTS.4000 DELAWARE, DES MOINES IOWA 50313 (POLK)",0,C,,110001360722
5031WLBRTY323DI,-93.59,41.625,False,19,153,000300,19,19153,19153000300,1400000US19153000300,LIBERTY READY MIX,3230 DIXON ST,DES MOINES,IA,50313,"LIBERTY READY MIX.3230 DIXON ST, DES MOINES IOWA 50313 (POLK)",0,C,,110030490644
50313FDSPC1877N,-93.59,41.666000000000004,False,19,153,010500,19,19153,19153010500,1400000US19153010500,ADM ANIMAL NUTRITION,1877 NE 58TH AVE,DES MOINES,IA,50313,"ADM ANIMAL NUTRITION.1877 NE 58TH AVE, DES MOINES IOWA 50313 (POLK)",0,C,,110000767698
50313FRSTNSECON,-93.62100000000001,41.645,False,19,153,010500,19,19153,19153010500,1400000US19153010500,BRIDGESTONE AMERICAS TIRE OPERATIONS LLC,4600 NW 2ND ST,DES MOINES,IA,50313,"BRIDGESTONE AMERICAS TIRE OPERATIONS LLC.4600 NW 2ND ST, DES MOINES IOWA 50313 (POLK)",0,C,,110010507709
50313MRCNN1500E,-93.598,41.638000000000005,False,19,153,010500,19,19153,19153010500,1400000US19153010500,AMERICAN NATIONAL CAN CO,1500 E AURORA AVE,DES MOINES,IA,50313,"AMERICAN NATIONAL CAN CO.1500 E AURORA AVE, DES MOINES IOWA 50313 (POLK)",0,C,,
50316CNTRC1625E,-93.594,41.644,False,19,153,010500,19,19153,19153010500,1400000US19153010500,CONSTRUCTION PRODUCTS INC,1625 E BROADWAY,DES MOINES,IA,50313,"CONSTRUCTION PRODUCTS INC.1625 E BROADWAY, DES MOINES IOWA 50313 (POLK)",0,C,,110000413053
50313BRTNS1970N,-93.587,41.644,False,19,153,010500,19,19153,19153010500,1400000US19153010500,BARTON SOLVENTS INC DES MOINES,1970 NE BROADWAY,DES MOINES,IA,50313,"BARTON SOLVENTS INC DES MOINES.1970 NE BROADWAY, DES MOINES IOWA 50313 (POLK)",0,C,,110000412982
50313MLSLV1979N,-93.587,41.659,False,19,153,010500,19,19153,19153010500,1400000US19153010500,BRENNTAG GREAT LAKES LLC,1979 N E 54TH AVE,DES MOINES,IA,50313,"BRENNTAG GREAT LAKES LLC.1979 N E 54TH AVE, DES MOINES IOWA 50313 (POLK)",0,C,,110000413008
50316DZNCX1572N,-93.596,41.666000000000004,False,19,153,010500,19,19153,19153010500,1400000US19153010500,DEE ZEE INC,1572 NE 58TH AVE,DES MOINES,IA,50316,"DEE ZEE INC.1572 NE 58TH AVE, DES MOINES IOWA 50316 (POLK)",0,C,,
5031WLMRND27NE6,-93.585,41.67,False,19,153,010500,19,19153,19153010500,1400000US19153010500,LEMAR-DES MOINES,2070 NE 60TH AVE,DES MOINES,IA,50313,"LEMAR-DES MOINES.2070 NE 60TH AVE, DES MOINES IOWA 50313 (POLK)",0,C,,110012151456
50313GLRNW129HO,-93.619,41.61600000000001,False,19,153,001500,19,19153,19153001500,1400000US19153001500,EAGLE IRON WORKS,129 E HOLCOMB AVE,DES MOINES,IA,50313,"EAGLE IRON WORKS.129 E HOLCOMB AVE, DES MOINES IOWA 50313 (POLK)",0,C,,110000772076
50313STLWRFIRST,-93.619,41.62,False,19,153,000500,19,19153,19153000500,1400000US19153000500,HIRSH INDUSTRIES INC,1ST & NEW YORK AVE,DES MOINES,IA,50314,"HIRSH INDUSTRIES INC.1ST & NEW YORK AVE, DES MOINES IOWA 50314 (POLK)",0,C,,
50314PPSCL111UN,-93.619,41.6,False,19,153,004900,19,19153,19153004900,1400000US19153004900,PEPSI-COLA GENERAL BOTTLERS INC,111 UNIVERSITY AVE,DES MOINES,IA,50314,"PEPSI-COLA GENERAL BOTTLERS INC.111 UNIVERSITY AVE, DES MOINES IOWA 50314 (POLK)",0,C,,
50314WPNTM97IND,-93.618,41.602,False,19,153,004900,19,19153,19153004900,1400000US19153004900,IOWA PAINT TECH. & MANUFACTURING CENTER,97 INDIANA AVE,DES MOINES,IA,50314,"IOWA PAINT TECH. & MANUFACTURING CENTER.97 INDIANA AVE, DES MOINES IOWA 50314 (POLK)",0,C,,110018868527
50314PRXRD17002,-93.62,41.608999999999995,False,19,153,004900,19,19099,19153004900,1400000US19153004900,PRAXAIR DISTRIBUTION INC,1700 2ND AVE,DES MOINES,IA,50314,"PRAXAIR DISTRIBUTION INC.1700 2ND AVE, DES MOINES IOWA 50314 (JASPER)",0,C,,
50314PRRFR17THU,-93.62700000000001,41.601000000000006,False,19,153,005000,19,19153,19153005000,1400000US19153005000,PRAIRIE FARMS DAIRY INC,7TH & UNIVERSITY,DES MOINES,IA,50314,"PRAIRIE FARMS DAIRY INC.7TH & UNIVERSITY, DES MOINES IOWA 50314 (POLK)",0,C,,
50317FRYCP2515D,-93.57,41.591,False,19,153,002100,19,19153,19153002100,1400000US19153002100,NER DATA PRODS INC,2515 DEAN AVE,DES MOINES,IA,50317,"NER DATA PRODS INC.2515 DEAN AVE, DES MOINES IOWA 50317 (POLK)",0,C,,
50317MCSPC2121E,-93.579,41.593,False,19,153,002100,19,19153,19153002100,1400000US19153002100,EMCO ENTERPRISES INC,2121 E WALNUT ST,DES MOINES,IA,503172264,"EMCO ENTERPRISES INC.2121 E WALNUT ST, DES MOINES IOWA 50317 (POLK)",0,C,,
50317KNTLC1101N,-93.50299999999999,41.6,False,19,153,010803,19,19153,19153010803,1400000US19153010803,KANE TOOL CO INC,1101 NE 56TH ST,DES MOINES,IA,50317,"KANE TOOL CO INC.1101 NE 56TH ST, DES MOINES IOWA 50317 (POLK)",0,C,,
50317NDRSN2229H,-93.574,41.601000000000006,False,19,153,001800,19,19153,19153001800,1400000US19153001800,ANDERSON ERICKSON DAIRY,2229 HUBELL AVE,DES MOINES,IA,50317,"ANDERSON ERICKSON DAIRY.2229 HUBELL AVE, DES MOINES IOWA 50317 (POLK)",0,C,,110000413151
50317TWNSN4400V,-93.52799999999999,41.568999999999996,False,19,153,010804,19,19153,19153010804,1400000US19153010804,SPARTECH LLC,4400 VANDALIA RD,PLEASANT HILL,IA,50327,"SPARTECH LLC.4400 VANDALIA RD, PLEASANT HILL IOWA 50327 (POLK)",0,C,,110000413179
50321PRRMN3001M,-93.65799999999999,41.541000000000004,False,19,153,004004,19,19153,19153004004,1400000US19153004004,MAHLE-PARR MANUFACTURING INC,3001 MCKINLEY AVENUE,DES MOINES,IA,50321,"MAHLE-PARR MANUFACTURING INC.3001 MCKINLEY AVENUE, DES MOINES IOWA 50321 (POLK)",0,C,,
50321SGWRK3535S,-93.69200000000001,41.552,False,19,153,004004,19,19153,19153004004,1400000US19153004004,SIEGWERK USA CO CORP FACILITY,3535 SW 56TH,DES MOINES,IA,50321,"SIEGWERK USA CO CORP FACILITY.3535 SW 56TH, DES MOINES IOWA 50321 (POLK)",0,C,,110005777944
50322MDLNDHWY6X,-94.196,41.583,False,19,049,050600,19,19049,19049050600,1400000US19049050600,GLEN-GERY CORP,1519 OLD HWY 6,REDFIELD,IA,50233,"GLEN-GERY CORP.1519 OLD HWY 6, REDFIELD IOWA 50233 (DALLAS)",0,C,,110007044518
50233MDLNDPOBOX,-94.18299999999999,41.592,False,19,049,050600,19,19049,19049050600,1400000US19049050600,MIDLAND INTERNATIONAL TILEWORKS,1521 HWY 6 E,REDFIELD,IA,50233,"MIDLAND INTERNATIONAL TILEWORKS.1521 HWY 6 E, REDFIELD IOWA 50233 (DALLAS)",0,C,,
50322PTTDS9600H,-93.75,41.614,False,19,153,011206,19,19153,19153011206,1400000US19153011206,CB&I STORAGE TANK SOLUTIONS LLC,9600 HICKMAN RD,CLIVE,IA,50325,"CB&I STORAGE TANK SOLUTIONS LLC.9600 HICKMAN RD, CLIVE IOWA 50325 (POLK)",0,C,,110000413222
50401CRRSC2519T,-93.196,43.143,False,19,033,950402,19,19033,19033950402,1400000US19033950402,AADG INC CURRIES DIV 9TH ST FACILITY,251 9TH ST SE,MASON CITY,IA,50401,"AADG INC CURRIES DIV 9TH ST FACILITY.251 9TH ST SE, MASON CITY IOWA 50401 (CERRO GORDO)",0,C,,110036173636
50401DVDMN16001,-93.17299999999999,43.163000000000004,False,19,033,951400,19,19033,19033951400,1400000US19033951400,MASONITE CORP - 12TH ST FACILITY,1600 12TH ST NE,MASON CITY,IA,50401,"MASONITE CORP - 12TH ST FACILITY.1600 12TH ST NE, MASON CITY IOWA 50401 (CERRO GORDO)",0,C,,110000748362
50401PPSCLHWY18,-93.15100000000001,43.148,False,19,033,951400,19,19033,19033951400,1400000US19033951400,PEPSI COLA BOTTLING CO,HWY 18 E,MASON CITY,IA,50401,"PEPSI COLA BOTTLING CO.HWY 18 E, MASON CITY IOWA 50401 (CERRO GORDO)",0,C,,
50401RCKWL1511S,-93.132,43.14,True,19,033,951400,19,19033,19033951400,1400000US19033951400,ROCKWELL INTL CORP,1511 S BENJAMIN AVE,MASON CITY,IA,50401,"ROCKWELL INTL CORP 1511 S BENJAMIN AVE, MASON CITY, IA, 50401",0,C,,
50401GNRLF10221,-93.21799999999999,43.163999999999994,False,19,033,950200,19,19033,19033950200,1400000US19033950200,KRAFT HEINZ FOODS CO,1022 12TH ST NW,MASON CITY,IA,50401,"KRAFT HEINZ FOODS CO.1022 12TH ST NW, MASON CITY IOWA 50401 (CERRO GORDO)",0,C,,110000413259
50401GPRCS16051,-93.226,43.13399999999999,False,19,033,950200,19,19033,19033950200,1400000US19033950200,AG PROCESSING INC,1605 19TH ST SW,MASON CITY,IA,50401,"AG PROCESSING INC.1605 19TH ST SW, MASON CITY IOWA 50401 (CERRO GORDO)",0,C,,110000413268
50401LBBYW19THS,-93.241,43.13399999999999,False,19,033,950200,19,19033,19033950200,1400000US19033950200,MASONITE CORP - 19TH ST FACILITY,2510 19TH ST SW,MASON CITY,IA,50401,"MASONITE CORP - 19TH ST FACILITY.2510 19TH ST SW, MASON CITY IOWA 50401 (CERRO GORDO)",0,C,,110016705458
50401LNDLK16091,-93.226,43.13399999999999,False,19,033,950200,19,19033,19033950200,1400000US19033950200,LAND O'LAKES PURINA FEED LLC - MASON CITY,1609 19TH ST SW,MASON CITY,IA,50401,"LAND O'LAKES PURINA FEED LLC - MASON CITY.1609 19TH ST SW, MASON CITY IOWA 50401 (CERRO GORDO)",0,C,,110000413277
50401MNNST17001,-93.228,43.138000000000005,False,19,033,950200,19,19033,19033950200,1400000US19033950200,MINNESOTA RUBBER & PLASTICS,1700 15TH ST SW,MASON CITY,IA,50401,"MINNESOTA RUBBER & PLASTICS.1700 15TH ST SW, MASON CITY IOWA 50401 (CERRO GORDO)",0,C,,110000413295
50401PRTLN17THS,-93.205,43.175,False,19,033,950200,19,19033,19033950200,1400000US19033950200,HOLCIM (US) INC,1840 N FEDERAL AVE,MASON CITY,IA,504017400,"HOLCIM (US) INC.1840 N FEDERAL AVE, MASON CITY IOWA 50401 (CERRO GORDO)",0,C,,110010507308
50401RMRFD1401S,-93.259,43.137,False,19,033,950200,19,19033,19033950200,1400000US19033950200,CONAGRA FOODS,1401 S EISENHOWER AVE,MASON CITY,IA,504020341,"CONAGRA FOODS.1401 S EISENHOWER AVE, MASON CITY IOWA 50402 (CERRO GORDO)",0,C,,
50401SHNNN20011,-93.23100000000001,43.138999999999996,False,19,033,950200,19,19033,19033950200,1400000US19033950200,SHANNON GROUP INC TONKA DIV,2001 15TH ST SW,MASON CITY,IA,50401,"SHANNON GROUP INC TONKA DIV.2001 15TH ST SW, MASON CITY IOWA 50401 (CERRO GORDO)",1,C,,
50401LHGHP70025,-93.214,43.178999999999995,False,19,033,950200,19,19033,19033950200,1400000US19033950200,LEHIGH CEMENT CO LLC,700 25TH ST,MASON CITY,IA,50401,"LEHIGH CEMENT CO LLC.700 25TH ST, MASON CITY IOWA 50401 (CERRO GORDO)",0,C,,110000767705
50401LXNDR15801,-93.226,43.137,False,19,033,950200,19,19033,19033950200,1400000US19033950200,ALEXANDER TECHNOLOGIES,1580 15TH ST SW,MASON CITY,IA,50401,"ALEXANDER TECHNOLOGIES.1580 15TH ST SW, MASON CITY IOWA 50401 (CERRO GORDO)",0,C,,
50401CNTNN1603S,-93.26100000000001,43.137,False,19,033,950200,19,19033,19033950200,1400000US19033950200,CONTINENTAL GRAIN CO INC WAYNE FEED DIV,1603 S EISENHOWER AVE,MASON CITY,IA,50401,"CONTINENTAL GRAIN CO INC WAYNE FEED DIV.1603 S EISENHOWER AVE, MASON CITY IOWA 50401 (CERRO GORDO)",0,C,,
50401SCHND24211,-93.23700000000001,43.138999999999996,False,19,033,950200,19,19033,19033950200,1400000US19033950200,MD PRODUCTS,2421 15TH ST SW,MASON CITY,IA,50401,"MD PRODUCTS.2421 15TH ST SW, MASON CITY IOWA 50401 (CERRO GORDO)",0,C,,110000413311
50401CRRSC16001,-93.228,43.165,False,19,033,950200,19,19033,19033950200,1400000US19033950200,CURRIES DIV OF AADG INC,1500 12TH ST NW - 1502 12TH ST NW,MASON CITY,IA,50401,"CURRIES DIV OF AADG INC.1500 12TH ST NW - 1502 12TH ST NW, MASON CITY IOWA 50401 (CERRO GORDO)",0,C,,110000413240
50401WDHRB32779,-93.24799999999999,43.141999999999996,False,19,033,950200,19,19033,19033950200,1400000US19033950200,WOODHARBOR DOORS & CABINETRY,3277 9TH ST SW,MASON CITY,IA,50401,"WOODHARBOR DOORS & CABINETRY.3277 9TH ST SW, MASON CITY IOWA 50401 (CERRO GORDO)",0,C,,110036353460
50401SNNYF1750S,-93.23100000000001,43.135,False,19,033,950200,19,19033,19033950200,1400000US19033950200,CARGILL KITCHEN SOLUTIONS INC,1750 S BENJAMIN AVE S,MASON CITY,IA,50401,"CARGILL KITCHEN SOLUTIONS INC.1750 S BENJAMIN AVE S, MASON CITY IOWA 50401 (CERRO GORDO)",0,C,,110002052750
50401GLDNG18334,-93.229,43.11600000000001,False,19,033,950200,19,19033,19033950200,1400000US19033950200,GOLDEN GRAIN ENERGY LLC,1822 43RD ST SW,MASON CITY,IA,50401,"GOLDEN GRAIN ENERGY LLC.1822 43RD ST SW, MASON CITY IOWA 50401 (CERRO GORDO)",0,C,,110020160403
50401FRDMF41721,-93.264,43.132,False,19,033,950200,19,19033,19033950200,1400000US19033950200,REG MASON CITY LLC,4172 19TH ST SW,MASON CITY,IA,50401,"REG MASON CITY LLC.4172 19TH ST SW, MASON CITY IOWA 50401 (CERRO GORDO)",0,C,,110031261863
50401MSNCT1410S,-93.21,43.138000000000005,False,19,033,950300,19,19033,19033950300,1400000US19033950300,MASON CITY RECYCLING CENTER LTD,1410 S MONROE,MASON CITY,IA,50401,"MASON CITY RECYCLING CENTER LTD.1410 S MONROE, MASON CITY IOWA 50401 (CERRO GORDO)",0,C,,
50401WLLBR1604S,-93.221,43.136,False,19,033,950300,19,19033,19033950300,1400000US19033950300,WELLBORN INDUSTRIES LTD,1604 S PIERCE,MASON CITY,IA,50401,"WELLBORN INDUSTRIES LTD.1604 S PIERCE, MASON CITY IOWA 50401 (CERRO GORDO)",0,C,,
50421CNTRLHWY69,-93.618,42.833999999999996,False,19,197,680100,19,19197,19197680100,1400000US19197680100,ADM ALLIANCE NUTRITION INC,1404 HWY 69 S,BELMOND,IA,50421,"ADM ALLIANCE NUTRITION INC.1404 HWY 69 S, BELMOND IOWA 50421 (WRIGHT)",0,C,,
50421TNCRP700LU,-93.603,42.84,False,19,197,680100,19,19197,19197680100,1400000US19197680100,EATON CORP,700 LUICK'S LN,BELMOND,IA,50421,"EATON CORP.700 LUICK'S LN, BELMOND IOWA 50421 (WRIGHT)",0,C,,110011274325
50428NSYSC14016,-93.37100000000001,43.132,False,19,033,950700,19,19033,19033950700,1400000US19033950700,"UNISYS CORP, CLEAR LAKE OPS",1401 6TH AVE S,CLEAR LAKE,IA,50428,"UNISYS CORP, CLEAR LAKE OPS.1401 6TH AVE S, CLEAR LAKE IOWA 50428 (CERRO GORDO)",1,C,,
5042WMDLND17144,-93.368,43.13399999999999,False,19,033,950700,19,19033,19033950700,1400000US19033950700,MIDLAND CONCRETE PRODUCTS,1714 4TH AVE S,CLEAR LAKE,IA,50428,"MIDLAND CONCRETE PRODUCTS.1714 4TH AVE S, CLEAR LAKE IOWA 50428 (CERRO GORDO)",0,C,,110070247033
50436WNNBGCRYST,-93.632,43.27,False,19,189,680300,19,19081,19189680300,1400000US19189680300,WINNEBAGO INDUSTRIES INC,605 W CRYSTAL LAKE RD,FOREST CITY,IA,50436,"WINNEBAGO INDUSTRIES INC.605 W CRYSTAL LAKE RD, FOREST CITY IOWA 50436 (HANCOCK)",0,C,,110000833162
50438WMLDT500HW,-93.60799999999999,43.106,False,19,081,270100,19,19081,19081270100,1400000US19081270100,IOWA MOLD TOOLING CO INC,500 HWY 18W,GARNER,IA,50438,"IOWA MOLD TOOLING CO INC.500 HWY 18W, GARNER IOWA 50438 (HANCOCK)",0,C,,110056931708
50438ZNPRC880EA,-93.59299999999999,43.091,False,19,081,270100,19,19081,19081270100,1400000US19081270100,ZINPRO CORP,880 E LYONS ST,GARNER,IA,50438,"ZINPRO CORP.880 E LYONS ST, GARNER IOWA 50438 (HANCOCK)",0,C,,110000413366
50438STLLR28WTH,-93.604,43.102,False,19,081,270100,19,19081,19081270100,1400000US19081270100,STELLAR INDUSTRIES INC - GARNER PLANT,190 STATE ST,GARNER,IA,50438,"STELLAR INDUSTRIES INC - GARNER PLANT.190 STATE ST, GARNER IOWA 50438 (HANCOCK)",0,C,,110043600494
50441SBCRP7121S,-93.209,42.748999999999995,False,19,069,360200,19,19069,19069360200,1400000US19069360200,SEABEE,712 1ST ST NW,HAMPTON,IA,50441,"SEABEE.712 1ST ST NW, HAMPTON IOWA 50441 (FRANKLIN)",0,C,,110000413384
50441SBCRPHWY3W,-93.243,42.742,False,19,069,360200,19,19069,19069360200,1400000US19069360200,SEABEE CORP JASON BLDG,HWY 3 WEST,HAMPTON,IA,50441,"SEABEE CORP JASON BLDG.HWY 3 WEST, HAMPTON IOWA 50441 (FRANKLIN)",0,C,,
50441TWNSTRR2MA,-93.20700000000001,42.744,False,19,069,360200,19,19069,19069360200,1400000US19069360200,TWIN STATE INC,1455 140TH ST,HAMPTON,IA,50441,"TWIN STATE INC.1455 140TH ST, HAMPTON IOWA 50441 (FRANKLIN)",0,C,,110000413393
50441WNNBG1401S,-93.22200000000001,42.728,False,19,069,360200,19,19069,19069360200,1400000US19069360200,WINNEBAGO INDUSTRIES INC.,1280 OLIVE AVE,HAMPTON,IA,50441,"WINNEBAGO INDUSTRIES INC..1280 OLIVE AVE, HAMPTON IOWA 50441 (FRANKLIN)",0,C,,110000413400
50441WNNBG3128T,-93.211,42.748999999999995,False,19,069,360200,19,19069,19069360200,1400000US19069360200,WINNEBAGO INDUSTRIES INC,312 8TH PL NW,HAMPTON,IA,50441,"WINNEBAGO INDUSTRIES INC.312 8TH PL NW, HAMPTON IOWA 50441 (FRANKLIN)",0,C,,
50441MPRLN1280I,-93.228,42.727,False,19,069,360200,19,19069,19069360200,1400000US19069360200,OMNIUM,1280 IMPERIAL RD,HAMPTON,IA,50441,"OMNIUM.1280 IMPERIAL RD, HAMPTON IOWA 50441 (FRANKLIN)",0,C,,110011558073
50447KFRBL305EA,-93.79,42.934,False,19,081,270400,19,19081,19081270400,1400000US19081270400,STELLAR INDUSTRIES INC - KANAWHA PLANT,305 E FIRST ST,KANAWHA,IA,50447,"STELLAR INDUSTRIES INC - KANAWHA PLANT.305 E FIRST ST, KANAWHA IOWA 50447 (HANCOCK)",0,C,,110000413419
50477TRGGS912NO,-93.79299999999999,42.942,False,19,081,270400,19,19081,19081270400,1400000US19081270400,TRIGGS TRAILER CORP,912 N MAIN,KANAWHA,IA,50447,"TRIGGS TRAILER CORP.912 N MAIN, KANAWHA IOWA 50447 (HANCOCK)",1,C,,
5043WHWKYP1275D,-93.912,42.948,False,19,081,270400,19,19081,19081270400,1400000US19081270400,HAWKEYE PRIDE EGG FARM,1275 DEER AVE,CORWITH,IA,50430,"HAWKEYE PRIDE EGG FARM.1275 DEER AVE, CORWITH IOWA 50430 (HANCOCK)",0,C,,110060260257
50450FLTGR311NO,-93.538,43.422,False,19,189,680100,19,19189,19189680100,1400000US19189680100,CUMMINS FILTRATION,311 N PARK ST,LAKE MILLS,IA,50450,"CUMMINS FILTRATION.311 N PARK ST, LAKE MILLS IOWA 50450 (WINNEBAGO)",0,C,,110000413428
50450NVRSL202NE,-93.531,43.43,False,19,189,680100,19,19189,19189680100,1400000US19189680100,DIELECTRIC CORP - IOWA,202 N 9TH AVE E,LAKE MILLS,IA,50450,"DIELECTRIC CORP - IOWA.202 N 9TH AVE E, LAKE MILLS IOWA 50450 (WINNEBAGO)",0,C,,110028180769
50450LRSNM500LA,-93.509,43.423,False,19,189,680100,19,19189,19189680100,1400000US19189680100,LARSON MANUFACTURING CO,500 LARSON AVE,LAKE MILLS,IA,50450,"LARSON MANUFACTURING CO.500 LARSON AVE, LAKE MILLS IOWA 50450 (WINNEBAGO)",0,C,,
50459CRRLL15THS,-93.211,43.442,False,19,195,690100,19,19195,19195690100,1400000US19195690100,ADVANCED COMPONENT TECHS (FKA CARROLL GEORGE INC),91 S 16TH ST,NORTHWOOD,IA,50459,"ADVANCED COMPONENT TECHS (FKA CARROLL GEORGE INC).91 S 16TH ST, NORTHWOOD IOWA 50459 (WORTH)",0,C,,
50459FLDSTHIGHW,-93.198,43.443000000000005,False,19,195,690100,19,19195,19195690100,1400000US19195690100,TRUSTILE DOORS OF IOWA,100 ENTERPRISE DRIVE,NORTHWOOD,IA,504590109,"TRUSTILE DOORS OF IOWA.100 ENTERPRISE DRIVE, NORTHWOOD IOWA 50459 (WORTH)",0,C,,110000593509
50475SKPMN1SUKU,-93.21,42.898999999999994,False,19,069,360100,19,19069,19069360100,1400000US19069360100,SUKUP MFG CO,1555 255TH ST,SHEFFIELD,IA,504750677,"SUKUP MFG CO.1555 255TH ST, SHEFFIELD IOWA 50475 (FRANKLIN)",0,C,,
50501CRLCMHWY20,-94.209,42.498000000000005,False,19,187,000900,19,19187,19187000900,1400000US19187000900,CRL COMPONENTS INC,HWY 20 W,FORT DODGE,IA,505019006,"CRL COMPONENTS INC.HWY 20 W, FORT DODGE IOWA 50501 (WEBSTER)",1,C,,
50501GRGPC2374M,-94.177,42.457,False,19,187,000900,19,19187,19187000900,1400000US19187000900,GEORGIA-PACIFIC GYPSUM LLC,2374 MILL RD,FORT DODGE,IA,50501,"GEORGIA-PACIFIC GYPSUM LLC.2374 MILL RD, FORT DODGE IOWA 50501 (WEBSTER)",0,C,,110025332138
50501MPCCNHIGHW,-94.201,42.484,True,19,187,000900,19,19187,19187000900,1400000US19187000900,MEPCO/CENTRALAB INC,HWY 20 W,FORT DODGE,IA,505019006,"MEPCO/CENTRALAB INC HWY 20 W, FORT DODGE, IA, 505019006",0,C,,
50501QLTYP21168,-94.201,42.5,True,19,187,000900,19,19187,19187000900,1400000US19187000900,QUALITY PLUS ESSAR CORP,2116 8TH AVE SOUTH,FORT DODGE,IA,50501,"QUALITY PLUS ESSAR CORP 2116 8TH AVE SOUTH, FORT DODGE, IA, 50501",0,C,,
50501FRMLNPOBOX,-94.01700000000001,42.498999999999995,False,19,187,010100,19,19187,19187010100,1400000US19187010100,KOCH FERTILIZER FT DODGE LLC,3162 200TH ST,DUNCOMBE,IA,50532,"KOCH FERTILIZER FT DODGE LLC.3162 200TH ST, DUNCOMBE IOWA 50532 (WEBSTER)",0,C,,110010507861
50532VNDSTPOBOX,-93.994,42.473,False,19,187,010100,19,19187,19187010100,1400000US19187010100,VAN DIEST SUPPLY CO,N RAILROAD AVE,DUNCOMBE,IA,505320189,"VAN DIEST SUPPLY CO.N RAILROAD AVE, DUNCOMBE IOWA 50532 (WEBSTER)",0,C,,
50501LQDCROLDHW,-94.01799999999999,42.501000000000005,False,19,187,010100,19,19187,19187010100,1400000US19187010100,"PRAXAIR, INC.",3160 200TH ST,DUNCOMBE,IA,50532,"PRAXAIR, INC..3160 200TH ST, DUNCOMBE IOWA 50532 (WEBSTER)",0,C,,110000413482
50532LNDLK302SI,-93.991,42.472,False,19,187,010100,19,19187,19187010100,1400000US19187010100,NEW COOPERATIVE INC-DUNCOMBE MILL,302 SIMPSON ST,DUNCOMBE,IA,50532,"NEW COOPERATIVE INC-DUNCOMBE MILL.302 SIMPSON ST, DUNCOMBE IOWA 50532 (WEBSTER)",0,C,,110012705242
50501FRSKS24005,-94.166,42.501000000000005,False,19,187,000500,19,19187,19187000500,1400000US19187000500,NESTLE PURINA PETCARE CO,2400 5TH AVE S,FORT DODGE,IA,50501,"NESTLE PURINA PETCARE CO.2400 5TH AVE S, FORT DODGE IOWA 50501 (WEBSTER)",0,C,,110001761451
50501LNDLK28278,-94.15899999999999,42.497,False,19,187,000500,19,19187,19187000500,1400000US19187000500,LAND O'LAKES FARMLAND FEED,2827 8TH AVE S,FORT DODGE,IA,50501,"LAND O'LAKES FARMLAND FEED.2827 8TH AVE S, FORT DODGE IOWA 50501 (WEBSTER)",0,C,,
50501SLGNC3591M,-94.135,42.498999999999995,False,19,187,000500,19,19187,19187000500,1400000US19187000500,SILGAN CONTAINERS MANUFACTURING CORP,3591 MAPLE DR,FORT DODGE,IA,50501,"SILGAN CONTAINERS MANUFACTURING CORP.3591 MAPLE DR, FORT DODGE IOWA 50501 (WEBSTER)",0,C,,110012460292
50501NTDST2110P,-94.145,42.485,False,19,187,000500,19,19187,19187000500,1400000US19187000500,US GYPSUM-FORT DODGE PLANT,2110 PARAGON AVE,FORT DODGE,IA,50501,"US GYPSUM-FORT DODGE PLANT.2110 PARAGON AVE, FORT DODGE IOWA 50501 (WEBSTER)",0,C,,110018866039
50501MRCNC26QUA,-94.12899999999999,42.492,False,19,187,000500,19,19187,19187000500,1400000US19187000500,CCM - FT DODGE SOUTH,2060 QUAIL AVE,FORT DODGE,IA,50501,"CCM - FT DODGE SOUTH.2060 QUAIL AVE, FORT DODGE IOWA 50501 (WEBSTER)",0,C,,110001397621
5050WCRTNT219QU,-94.12899999999999,42.485,False,19,187,000500,19,19187,19187000500,1400000US19187000500,CERTAINTEED GYPSUM,2109 QUAIL AVE,FORT DODGE,IA,50501,"CERTAINTEED GYPSUM.2109 QUAIL AVE, FORT DODGE IOWA 50501 (WEBSTER)",0,C,,110002442866
50501FRTDD8005T,-94.212,42.523,False,19,187,000300,19,19187,19187000300,1400000US19187000300,ELANCO FORT DODGE,800 5TH ST NW,FORT DODGE,IA,50501,"ELANCO FORT DODGE.800 5TH ST NW, FORT DODGE IOWA 50501 (WEBSTER)",0,C,,110000747149
50501NVRSL2908N,-92.41,41.06100000000001,False,19,179,960300,19,19179,19179960300,1400000US19179960300,PRAXIS MID AMERICA,2908 N CT,OTTUMWA,IA,52501,"PRAXIS MID AMERICA.2908 N CT, OTTUMWA IOWA 52501 (WAPELLO)",0,C,,110000413491
52501WBVRG4INDU,-92.4,41.063,False,19,179,960300,19,19179,19179960300,1400000US19179960300,IOWA BEVERAGE MANUFACTURING INC,4 INDUSTRIAL PARK,OTTUMWA,IA,52501,"IOWA BEVERAGE MANUFACTURING INC.4 INDUSTRIAL PARK, OTTUMWA IOWA 52501 (WAPELLO)",0,C,,
50501PRMXR227SO,-94.171,42.504,False,19,187,000600,19,19187,19187000600,1400000US19187000600,PREMIXERS LTD,227 SOUTH 21TH ST,FORT DODGE,IA,50501,"PREMIXERS LTD.227 SOUTH 21TH ST, FORT DODGE IOWA 50501 (WEBSTER)",0,C,,
50501NWNGC1584S,-94.16799999999999,42.486999999999995,False,19,187,000600,19,19187,19187000600,1400000US19187000600,NEW NGC INC D/B/A NATIONAL GYPSUM CO,1584 S 22ND ST - RR 5,FORT DODGE,IA,50501,"NEW NGC INC D/B/A NATIONAL GYPSUM CO.1584 S 22ND ST - RR 5, FORT DODGE IOWA 50501 (WEBSTER)",0,C,,110013287219
50511SNPNTHIGHW,-94.20700000000001,43.082,False,19,109,950500,19,19109,19109950500,1400000US19109950500,SNAP-ON TOOLS MANUFACTURING CO,2600 US HWY 18 E,ALGONA,IA,50511,"SNAP-ON TOOLS MANUFACTURING CO.2600 US HWY 18 E, ALGONA IOWA 50511 (KOSSUTH)",0,C,,110010828854
50511HRMLFHWY18,-94.223,43.08,False,19,109,950500,19,19109,19109950500,1400000US19109950500,HORMEL FOODS CORP,1118 HIGHWAY 18 EAST,ALGONA,IA,50511,"HORMEL FOODS CORP.1118 HIGHWAY 18 EAST, ALGONA IOWA 50511 (KOSSUTH)",0,C,,
50511KCHMT832NM,-94.214,43.077,False,19,109,950500,19,19109,19109950500,1400000US19109950500,"FLINT HILLS RESOURCES PINE BEND, LLC ALGONA TERMINAL",832 N MAIN ST,ALGONA,IA,50511,"FLINT HILLS RESOURCES PINE BEND, LLC ALGONA TERMINAL.832 N MAIN ST, ALGONA IOWA 50511 (KOSSUTH)",0,C,,110000413507
50511STFRK21814,-94.18799999999999,43.078,False,19,109,950500,19,19109,19109950500,1400000US19109950500,AG PROCESSING INC-ALGONA METHYL ESTER,2108 140TH AVE,ALGONA,IA,50511,"AG PROCESSING INC-ALGONA METHYL ESTER.2108 140TH AVE, ALGONA IOWA 50511 (KOSSUTH)",0,C,,110032943563
50514RMSTRHWY9B,-94.512,43.4,False,19,063,070100,19,19063,19063070100,1400000US19063070100,GKN ARMSTRONG WHEELS INC,5453 6TH AVE,ARMSTRONG,IA,50514,"GKN ARMSTRONG WHEELS INC.5453 6TH AVE, ARMSTRONG IOWA 50514 (EMMET)",0,C,,110000413516
50514RTSWYHIGHW,-94.491,43.394,False,19,063,070100,19,19063,19063070100,1400000US19063070100,ART'S-WAY MANUFACTURING CO INC,5556 HWY 9,ARMSTRONG,IA,50514,"ART'S-WAY MANUFACTURING CO INC.5556 HWY 9, ARMSTRONG IOWA 50514 (EMMET)",0,C,,
50518VNDSTPOBOX,-94.37299999999999,42.50899999999999,False,19,187,010200,19,19187,19187010200,1400000US19187010200,"VAN DIEST SUPPLY CO, BARNUM PLANT","W FRONT ST, PO BOX 610",BARNUM,IA,505180026,"VAN DIEST SUPPLY CO, BARNUM PLANT.W FRONT ST, PO BOX 610, BARNUM IOWA 50518 (WEBSTER)",0,C,,
50501VRSNF193HA,-94.301,42.511,False,19,187,010200,19,19187,19187010200,1400000US19187010200,VALERO RENEWABLE FUELS LLC,1930 HAYES AVE,FORT DODGE,IA,50501,"VALERO RENEWABLE FUELS LLC.1930 HAYES AVE, FORT DODGE IOWA 50501 (WEBSTER)",0,C,,110055566640
5050WCRGLL195HA,-94.31200000000001,42.506,False,19,187,010200,19,19187,19187010200,1400000US19187010200,CARGILL INC,1950 HARVEST AVE,FORT DODGE,IA,50501,"CARGILL INC.1950 HARVEST AVE, FORT DODGE IOWA 50501 (WEBSTER)",0,C,,110055498527
5050WCJBMR1946H,-94.311,42.512,False,19,187,010200,19,19187,19187010200,1400000US19187010200,CJ BIO AMERICA,1946 HARVEST AVENUE,FORT DODGE,IA,50501,"CJ BIO AMERICA.1946 HARVEST AVENUE, FORT DODGE IOWA 50501 (WEBSTER)",0,C,,110055951108
50525PLCMNHWY3E,-93.713,42.732,False,19,197,680300,19,19197,19197680300,1400000US19197680300,STRONGHOLD BY HAGIE,1601 CENTRAL AVE E,CLARION,IA,50525,"STRONGHOLD BY HAGIE.1601 CENTRAL AVE E, CLARION IOWA 50525 (WRIGHT)",0,C,,
50525HGMNF721WE,-93.742,42.732,False,19,197,680300,19,19197,19197680300,1400000US19197680300,HAGIE MANUFACTURING CO INC,721 WEST CENTRAL AVE,CLARION,IA,50525,"HAGIE MANUFACTURING CO INC.721 WEST CENTRAL AVE, CLARION IOWA 50525 (WRIGHT)",0,C,,
50533FRMLN1020N,-93.91,42.673,False,19,197,680500,19,19197,19197680500,1400000US19197680500,LAND O'LAKES FARMLAND FEED,1020 NW 10TH ST,EAGLE GROVE,IA,50533,"LAND O'LAKES FARMLAND FEED.1020 NW 10TH ST, EAGLE GROVE IOWA 50533 (WRIGHT)",0,C,,
50533GPRCS500NO,-93.90299999999999,42.669,False,19,197,680500,19,19197,19197680500,1400000US19197680500,AG PROCESSING INC,500 N COMMERCIAL AVE,EAGLE GROVE,IA,50533,"AG PROCESSING INC.500 N COMMERCIAL AVE, EAGLE GROVE IOWA 50533 (WRIGHT)",0,C,,110011273022
50541VNDSTPOBOX,-94.395,42.661,False,19,091,970200,19,19091,19091970200,1400000US19091970200,VAN DIEST SUPPLY CO,1251-270TH ST,GILMORE CITY,IA,505418720,"VAN DIEST SUPPLY CO.1251-270TH ST, GILMORE CITY IOWA 50541 (HUMBOLDT)",0,C,,
50519NWFDS12HUM,-94.288,42.87,False,19,091,970200,19,19091,19091970200,1400000US19091970200,NEW FEEDS LLC BODE,12 HUMBOLDT AVE,BODE,IA,50519,"NEW FEEDS LLC BODE.12 HUMBOLDT AVE, BODE IOWA 50519 (HUMBOLDT)",0,C,,
50554RTNMK112WA,-94.84899999999999,42.847,False,19,151,780100,19,19151,19151780100,1400000US19151780100,RATION MAKER PRODS INC,112 WALNUT ST,LAURENS,IA,50554,"RATION MAKER PRODS INC.112 WALNUT ST, LAURENS IOWA 50554 (POCAHONTAS)",0,C,,
50554GLDST603HW,-94.85700000000001,42.847,False,19,151,780100,19,19151,19151780100,1400000US19151780100,FISHER,603 HWY 10,LAURENS,IA,50554,"FISHER.603 HWY 10, LAURENS IOWA 50554 (POCAHONTAS)",0,C,,110007358670
50554FSHRGOLIVE,-94.852,42.849,False,19,151,780100,19,19151,19151780100,1400000US19151780100,FISHER GOLD STAR OLIVE & RUSH LAKE,OLIVE & RUSH LAKE RD,LAURENS,IA,50554,"FISHER GOLD STAR OLIVE & RUSH LAKE.OLIVE & RUSH LAKE RD, LAURENS IOWA 50554 (POCAHONTAS)",0,C,,
5055WPNGCR5EHIG,-94.84899999999999,42.841,False,19,151,780100,19,19151,19151780100,1400000US19151780100,PENGO CORP,500 E HWY 10,LAURENS,IA,50554,"PENGO CORP.500 E HWY 10, LAURENS IOWA 50554 (POCAHONTAS)",0,C,,110012169287
50563NRTHW1INDU,-94.54,42.522,False,19,025,950100,19,19025,19025950100,1400000US19025950100,BRAND FX BODY CO,525 8TH ST,MANSON,IA,50563,"BRAND FX BODY CO.525 8TH ST, MANSON IOWA 50563 (CALHOUN)",0,C,,110000413561
50563BPRDC1INDU,-94.53399999999999,42.55,False,19,025,950100,19,19025,19025950100,1400000US19025950100,ADM ANIMAL HEALTH & NUTRITION FEED,1 INDUSTRIAL RD,MANSON,IA,50563,"ADM ANIMAL HEALTH & NUTRITION FEED.1 INDUSTRIAL RD, MANSON IOWA 50563 (CALHOUN)",1,C,,
50574BRNDF21215,-94.696,42.748000000000005,False,19,151,780200,19,19151,19151780200,1400000US19151780200,BRANDFX LLC,21201 510TH ST,POCAHONTAS,IA,50574,"BRANDFX LLC.21201 510TH ST, POCAHONTAS IOWA 50574 (POCAHONTAS)",0,C,,110005736855
50574NRTHW800NE,-94.65899999999999,42.74,False,19,151,780200,19,19151,19151780200,1400000US19151780200,NORTHWEST BODIES INC,800 NE 6TH,POCAHONTAS,IA,50574,"NORTHWEST BODIES INC.800 NE 6TH, POCAHONTAS IOWA 50574 (POCAHONTAS)",0,C,,
50574RBSKMHWY3E,-94.65799999999999,42.733000000000004,False,19,151,780200,19,19151,19151780200,1400000US19151780200,E R BUSKE MANUFACTURING CO INC,HWY 3 E,POCAHONTAS,IA,50574,"E R BUSKE MANUFACTURING CO INC.HWY 3 E, POCAHONTAS IOWA 50574 (POCAHONTAS)",0,C,,
50588BPNCXFLIND,-95.18799999999999,42.64,False,19,021,960400,19,19021,19021960400,1400000US19021960400,TYSON FRESH MEATS INC,1009 RICHLAND ST.,STORM LAKE,IA,50588,"TYSON FRESH MEATS INC.1009 RICHLAND ST., STORM LAKE IOWA 50588 (BUENA VISTA)",0,C,,110000605792
50588FRSTM2000E,-95.171,42.637,False,19,021,960400,19,19021,19021960400,1400000US19021960400,FURST-MCNESS CO,2000 EXPQANSION BLVD,STORM LAKE,IA,50588,"FURST-MCNESS CO.2000 EXPQANSION BLVD, STORM LAKE IOWA 50588 (BUENA VISTA)",0,C,,110000413605
50588BLMRF315VI,-95.184,42.638999999999996,False,19,021,960400,19,19021,19021960400,1400000US19021960400,HILLSHIRE BRANDS PLANT-WHOLLY OWNED SUB OF TYSON FOODS INC,315 VILAS RD,STORM LAKE,IA,50588,"HILLSHIRE BRANDS PLANT-WHOLLY OWNED SUB OF TYSON FOODS INC.315 VILAS RD, STORM LAKE IOWA 50588 (BUENA VISTA)",0,C,,110000523032
50588FRSNF2897E,-95.162,42.636,False,19,021,960400,19,19021,19021960400,1400000US19021960400,MERIDIAN MANUFACTURING INC,2902 EXPANSION BLVD,STORM LAKE,IA,50588,"MERIDIAN MANUFACTURING INC.2902 EXPANSION BLVD, STORM LAKE IOWA 50588 (BUENA VISTA)",0,C,,110000413598
50588BPNCWRRXXX,-95.15899999999999,42.604,False,19,021,960400,19,19021,19021960400,1400000US19021960400,IBP INC WASTEWATER TREATMENT PLANT,RR,STORM LAKE,IA,50588,"IBP INC WASTEWATER TREATMENT PLANT.RR, STORM LAKE IOWA 50588 (BUENA VISTA)",0,C,,
50588SRLCR51SEN,-95.197,42.643,False,19,021,960400,19,19021,19021960400,1400000US19021960400,HILLSHIRE BRANDS MILL-WHOLLY OWNED SUB OF TYSON FOODS INC,501 SENECA ST,STORM LAKE,IA,50588,"HILLSHIRE BRANDS MILL-WHOLLY OWNED SUB OF TYSON FOODS INC.501 SENECA ST, STORM LAKE IOWA 50588 (BUENA VISTA)",0,C,,110039493820
5155WGCCST195EX,-95.17299999999999,42.638000000000005,False,19,021,960400,19,19021,19021960400,1400000US19021960400,GCC-STORM LAKE,1905 EXPANSION BLVD,STORM LAKE,IA,50588,"GCC-STORM LAKE.1905 EXPANSION BLVD, STORM LAKE IOWA 50588 (BUENA VISTA)",0,C,,110064089542
50590FBRBD4074T,-94.30799999999999,43.385,False,19,109,950100,19,19109,19109950100,1400000US19109950100,BRANDFX LLC,105 4TH AVE W,SWEA CITY,IA,50590,"BRANDFX LLC.105 4TH AVE W, SWEA CITY IOWA 50590 (KOSSUTH)",0,C,,110000413614
50451MDWST16604,-94.147,43.38399999999999,False,19,109,950100,19,19109,19109950100,1400000US19109950100,VALERO LAKOTA PLANT,1660 428TH ST,LAKOTA,IA,50451,"VALERO LAKOTA PLANT.1660 428TH ST, LAKOTA IOWA 50451 (KOSSUTH)",0,C,,110006529729
50595RRWCM1603E,-93.788,42.471000000000004,False,19,079,960300,19,19079,19079960300,1400000US19079960300,ARROW ACME INC,1603 E 2ND ST,WEBSTER CITY,IA,50595,"ARROW ACME INC.1603 E 2ND ST, WEBSTER CITY IOWA 50595 (HAMILTON)",0,C,,110011275119
50595WHTCN600ST,-93.821,42.472,False,19,079,960300,19,19079,19079960300,1400000US19079960300,ELECTROLUX HOME PRODUCTS,400 DES MOINES ST,WEBSTER CITY,IA,50595,"ELECTROLUX HOME PRODUCTS.400 DES MOINES ST, WEBSTER CITY IOWA 50595 (HAMILTON)",0,C,,110011275128
50598PRCSS515WE,-94.42399999999999,43.06399999999999,False,19,109,950600,19,19109,19109950600,1400000US19109950600,AI PROCESSORS,515 W BROAD ST,WHITTEMORE,IA,50598,"AI PROCESSORS.515 W BROAD ST, WHITTEMORE IOWA 50598 (KOSSUTH)",0,C,,110000413669
50511MRPHY21209,-94.28399999999999,43.07,False,19,109,950600,19,19109,19109950600,1400000US19109950600,MURPHY BROWN LLC ALGONA FEED MILL,2120 90TH AVE,ALGONA,IA,50511,"MURPHY BROWN LLC ALGONA FEED MILL.2120 90TH AVE, ALGONA IOWA 50511 (KOSSUTH)",0,C,,110017385122
50606SSCTDJCT31,-91.67,42.75,False,19,065,080200,19,19065,19065080200,1400000US19065080200,ASSOCIATED MILK PRODUCERS INC,3281 40TH ST,ARLINGTON,IA,50606,"ASSOCIATED MILK PRODUCERS INC.3281 40TH ST, ARLINGTON IOWA 50606 (FAYETTE)",0,C,,110000494215
50613CLYQP101LI,-92.444,42.54,False,19,013,002604,19,19013,19013002604,1400000US19013002604,CLAY EQUIPMENT CORP,101 LINCOLN ST,CEDAR FALLS,IA,506133130,"CLAY EQUIPMENT CORP.101 LINCOLN ST, CEDAR FALLS IOWA 50613 (BLACK HAWK)",0,C,,
50613JHNDR6725C,-92.416,42.474,False,19,013,002601,19,19013,19013002601,1400000US19013002601,JOHN DEERE PRODUCTS ENGINEERING CENTER,6725 CEDAR HEIGHTS DR,CEDAR FALLS,IA,50613,"JOHN DEERE PRODUCTS ENGINEERING CENTER.6725 CEDAR HEIGHTS DR, CEDAR FALLS IOWA 50613 (BLACK HAWK)",0,C,,
50613VKNGP711VI,-92.45299999999999,42.483999999999995,False,19,013,002601,19,19013,19013002601,1400000US19013002601,VIKING PUMP INC - SOUTH MAIN FACILITY,711 VIKING RD,CEDAR FALLS,IA,50613,"VIKING PUMP INC - SOUTH MAIN FACILITY.711 VIKING RD, CEDAR FALLS IOWA 50613 (BLACK HAWK)",0,C,,110013313985
50613MTKTC312SA,-92.449,42.478,False,19,013,002601,19,19013,19013002601,1400000US19013002601,METOKOTE CORP PLANT 15,312 SAVANNAH,CEDAR FALLS,IA,50613,"METOKOTE CORP PLANT 15.312 SAVANNAH, CEDAR FALLS IOWA 50613 (BLACK HAWK)",0,C,,110000413678
50613WYNNG701PE,-92.45200000000001,42.475,False,19,013,002601,19,19013,19013002601,1400000US19013002601,CURBTENDER INC,701 PERFORMANCE DR,CEDAR FALLS,IA,50613,"CURBTENDER INC.701 PERFORMANCE DR, CEDAR FALLS IOWA 50613 (BLACK HAWK)",0,C,,110001755360
5061WWLSRN71CHA,-92.455,42.474,False,19,013,002601,19,19013,19013002601,1400000US19013002601,IOWA LASER,7100 CHANCELLAR DR,CEDAR FALLS,IA,50613,"IOWA LASER.7100 CHANCELLAR DR, CEDAR FALLS IOWA 50613 (BLACK HAWK)",0,C,,110017751565
50613NVRSL1326W,-92.44200000000001,42.526,False,19,013,002301,19,19013,19013002301,1400000US19013002301,UNIVERSAL INDUSTRIES,1326 WATERLOO RD,CEDAR FALLS,IA,50613,"UNIVERSAL INDUSTRIES.1326 WATERLOO RD, CEDAR FALLS IOWA 50613 (BLACK HAWK)",0,C,,
50613VKNGL7THBL,-92.443,42.533,False,19,013,002200,19,19013,19013002200,1400000US19013002200,VIKING PUMP INC-ALLOYS FOUNDRY,7TH & BLUFF ST,CEDAR FALLS,IA,50613,"VIKING PUMP INC-ALLOYS FOUNDRY.7TH & BLUFF ST, CEDAR FALLS IOWA 50613 (BLACK HAWK)",0,C,,110000593581
50613CDRFLUTILI,-92.44,42.528,False,19,013,002200,19,19013,19013002200,1400000US19013002200,CEDAR FALLS UTILITIES,UTILITY PKWY,CEDAR FALLS,IA,50613,"CEDAR FALLS UTILITIES.UTILITY PKWY, CEDAR FALLS IOWA 50613 (BLACK HAWK)",0,C,,110000593572
50616SLSBR2000R,-92.75200000000001,43.076,False,19,067,480100,19,19067,19067480100,1400000US19067480100,ZOETIS LLC,2000 ROCKFORD RD,CHARLES CITY,IA,50616,"ZOETIS LLC.2000 ROCKFORD RD, CHARLES CITY IOWA 50616 (FLOYD)",0,C,,110000413712
50616WNNBG2100C,-92.693,43.052,False,19,067,480100,19,19067,19067480100,1400000US19067480100,WINNEBAGO INDUSTRIES INC,1100 11TH STREET,CHARLES CITY,IA,50616,"WINNEBAGO INDUSTRIES INC.1100 11TH STREET, CHARLES CITY IOWA 50616 (FLOYD)",0,C,,110064140068
50616CDLLC715EC,-92.689,43.048,False,19,067,480100,19,19067,19067480100,1400000US19067480100,CDI LLC,715 E CORPORATE DR,CHARLES CITY,IA,50616,"CDI LLC.715 E CORPORATE DR, CHARLES CITY IOWA 50616 (FLOYD)",0,C,,110018905023
50616VRSNC1787Q,-92.745,43.096000000000004,False,19,067,480100,19,19067,19067480100,1400000US19067480100,VALERO CHARLES CITY PLANT,1787 QUARRY RD,CHARLES CITY,IA,50616,"VALERO CHARLES CITY PLANT.1787 QUARRY RD, CHARLES CITY IOWA 50616 (FLOYD)",0,C,,110024519225
50616WHTNW300LA,-92.681,43.085,False,19,067,480400,19,19067,19067480400,1400000US19067480400,WHITE-NEW IDEA CHARLES CITY OPERATIONS,300 LAWLER ST,CHARLES CITY,IA,50616,"WHITE-NEW IDEA CHARLES CITY OPERATIONS.300 LAWLER ST, CHARLES CITY IOWA 50616 (FLOYD)",0,C,,
5061WSMPLY91NRT,-92.67299999999999,43.073,False,19,067,480400,19,19067,19067480400,1400000US19067480400,SIMPLY ESSENTIALS POULTRY,901 N MAIN ST,CHARLES CITY,IA,50616,"SIMPLY ESSENTIALS POULTRY.901 N MAIN ST, CHARLES CITY IOWA 50616 (FLOYD)",0,C,,110044278689
50621RTCHN120SM,-92.875,42.224,False,19,075,960400,19,19075,19075960400,1400000US19075960400,RITCHIE INDUSTRIES INC,120 S MAIN ST,CONRAD,IA,50621,"RITCHIE INDUSTRIES INC.120 S MAIN ST, CONRAD IOWA 50621 (GRUNDY)",0,C,,110000413721
50627WHNKP19011,-93.10700000000001,42.358999999999995,False,19,083,480600,19,19083,19083480600,1400000US19083480600,RUST-OLEUM CORP,1901 15TH AVE,ELDORA,IA,50627,"RUST-OLEUM CORP.1901 15TH AVE, ELDORA IOWA 50627 (HARDIN)",0,C,,110033183551
50630BTRCC341SJ,-92.20299999999999,42.961999999999996,False,19,037,070300,19,19037,19037070300,1400000US19037070300,CONAGRA FOODS,341 S JEFFERSON,FREDERICKSBURG,IA,50630,"CONAGRA FOODS.341 S JEFFERSON, FREDERICKSBURG IOWA 50630 (CHICKASAW)",0,C,,
50630SSCTD279NO,-92.20100000000001,42.967,False,19,037,070300,19,19037,19037070300,1400000US19037070300,ASSOCIATED MILK PRODUCERS INC,279 N WOODWARD AVE,FREDERICKSBURG,IA,50630,"ASSOCIATED MILK PRODUCERS INC.279 N WOODWARD AVE, FREDERICKSBURG IOWA 50630 (CHICKASAW)",0,C,,
50630VKMFG279NW,-92.20100000000001,42.967,False,19,037,070300,19,19037,19037070300,1400000US19037070300,AVEKA MANUFACTURING INC,279 N WOODWARD,FREDERICKSBURG,IA,50630,"AVEKA MANUFACTURING INC.279 N WOODWARD, FREDERICKSBURG IOWA 50630 (CHICKASAW)",0,C,,110011274904
5065WTKPRC225RU,-92.31700000000001,43.032,False,19,037,070300,19,19037,19037070300,1400000US19037070300,ATEK METAL TECHNOLOGIES,2205 RUSTY KENNEDY RD,NEW HAMPTON,IA,50659,"ATEK METAL TECHNOLOGIES.2205 RUSTY KENNEDY RD, NEW HAMPTON IOWA 50659 (CHICKASAW)",0,C,,110024523586
5215WHMLND2779I,-92.15799999999999,43.067,False,19,037,070300,19,19037,19037070300,1400000US19037070300,HOMELAND ENERGY SOLUTIONS LLC,2779 IA HIGHWAY 24,LAWLER,IA,52154,"HOMELAND ENERGY SOLUTIONS LLC.2779 IA HIGHWAY 24, LAWLER IOWA 52154 (CHICKASAW)",0,C,,110031117716
50638WSTRN7THST,-92.773,42.368,False,19,075,960300,19,19075,19075960300,1400000US19075960300,RICHELIEU FOODS INC,7TH ST & A AVE,GRUNDY CENTER,IA,50638,"RICHELIEU FOODS INC.7TH ST & A AVE, GRUNDY CENTER IOWA 50638 (GRUNDY)",0,C,,
50643LNDLK650W5,-92.46,42.407,False,19,013,003002,19,19013,19013003002,1400000US19013003002,LAND O'LAKES INC,650 W 5TH ST,HUDSON,IA,50643,"LAND O'LAKES INC.650 W 5TH ST, HUDSON IOWA 50643 (BLACK HAWK)",1,C,,
50704JHNDR3801W,-92.427,42.468999999999994,False,19,013,003002,19,19013,19013003002,1400000US19013003002,JOHN DEERE ENGINE WORKS,3801 W RIDGEWAY AVE,WATERLOO,IA,50701,"JOHN DEERE ENGINE WORKS.3801 W RIDGEWAY AVE, WATERLOO IOWA 50701 (BLACK HAWK)",0,C,,110000413945
50659SRLBK900NL,-92.318,43.068000000000005,False,19,037,070400,19,19037,19037070400,1400000US19037070400,SARA LEE BAKERY,900 N LINN AVE,NEW HAMPTON,IA,50659,"SARA LEE BAKERY.900 N LINN AVE, NEW HAMPTON IOWA 50659 (CHICKASAW)",0,C,,
50659SPRSWNORTH,-92.323,43.065,False,19,037,070400,19,19037,19037070400,1400000US19037070400,ADM ANIMAL NUTRITION INC,506 N SHERMAN AVE,NEW HAMPTON,IA,50659,"ADM ANIMAL NUTRITION INC.506 N SHERMAN AVE, NEW HAMPTON IOWA 50659 (CHICKASAW)",0,C,,110000605809
50659TRMRK500BA,-92.331,43.065,False,19,037,070400,19,19037,19037070400,1400000US19037070400,TRIMARK CORP,500 BAILEY AVE,NEW HAMPTON,IA,50659,"TRIMARK CORP.500 BAILEY AVE, NEW HAMPTON IOWA 50659 (CHICKASAW)",0,C,,110011274922
5065WNWHMP928WM,-92.33,43.067,False,19,037,070400,19,19037,19037070400,1400000US19037070400,NHMF LLC,928 W MILWAUKEE ST,NEW HAMPTON,IA,50659,"NHMF LLC.928 W MILWAUKEE ST, NEW HAMPTON IOWA 50659 (CHICKASAW)",0,C,,110022402782
50662DNLDS301FI,-91.921,42.673,False,19,065,080500,19,19065,19065080500,1400000US19065080500,DONALDSON CO INC,301 5TH AVE SW,OELWEIN,IA,50662,"DONALDSON CO INC.301 5TH AVE SW, OELWEIN IOWA 50662 (FAYETTE)",1,C,,
50662NTDFR16353,-91.913,42.657,False,19,065,080500,19,19065,19065080500,1400000US19065080500,UNITED FARM TOOLS INC,31 16TH ST SE,OELWEIN,IA,50662,"UNITED FARM TOOLS INC.31 16TH ST SE, OELWEIN IOWA 50662 (FAYETTE)",0,C,,
50662BRTCH1006I,-91.90899999999999,42.663999999999994,False,19,065,080500,19,19065,19065080500,1400000US19065080500,BERTCH CABINET MANUFACTURING MARKETPLACE DIV,1006 INDUSTRIAL DR,OELWEIN,IA,50662,"BERTCH CABINET MANUFACTURING MARKETPLACE DIV.1006 INDUSTRIAL DR, OELWEIN IOWA 50662 (FAYETTE)",0,C,,110000413785
50662XLSPC214TH,-91.916,42.673,False,19,065,080500,19,19065,19065080500,1400000US19065080500,XL SPECIALIZED TRAILERS INC,201 4TH ST SW,OELWEIN,IA,50662,"XL SPECIALIZED TRAILERS INC.201 4TH ST SW, OELWEIN IOWA 50662 (FAYETTE)",1,C,,110005747031
5066WWSHLYN951S,-91.90899999999999,42.663999999999994,False,19,065,080500,19,19065,19065080500,1400000US19065080500,ASHLEY INDUSTRIAL MOLDING,951 SECOND AVE SE,OELWEIN,IA,50662,"ASHLEY INDUSTRIAL MOLDING.951 SECOND AVE SE, OELWEIN IOWA 50662 (FAYETTE)",0,C,,110039016775
50664WPSVL30010,-91.891,42.477,False,19,019,950500,19,19019,19019950500,1400000US19019950500,WAPSIE VALLEY CREAMERY INC,"300 - 10TH ST., NE",INDEPENDENCE,IA,50644,"WAPSIE VALLEY CREAMERY INC.300 - 10TH ST., NE, INDEPENDENCE IOWA 50644 (BUCHANAN)",0,C,,110000413801
50644WLNTG10072,-91.89299999999999,42.477,False,19,019,950500,19,19019,19019950500,1400000US19019950500,WALNUT GROVE PRODS INDEPENDENCE PLANT,1007 2ND AVE NE,INDEPENDENCE,IA,50644,"WALNUT GROVE PRODS INDEPENDENCE PLANT.1007 2ND AVE NE, INDEPENDENCE IOWA 50644 (BUCHANAN)",0,C,,
50644LMRDT717TH,-91.889,42.455,False,19,019,950500,19,19019,19019950500,1400000US19019950500,L&M RADIATOR INC,700 17TH ST SE,INDEPENDENCE,IA,50644,"L&M RADIATOR INC.700 17TH ST SE, INDEPENDENCE IOWA 50644 (BUCHANAN)",1,C,,110022825629
50701JHNDR2000W,-92.367,42.507,False,19,013,000400,19,19013,19013000400,1400000US19013000400,JOHN DEERE FOUNDRY WATERLOO,2000 WESTFIELD AVE,WATERLOO,IA,50701,"JOHN DEERE FOUNDRY WATERLOO.2000 WESTFIELD AVE, WATERLOO IOWA 50701 (BLACK HAWK)",0,C,,
50704JHNDR400WE,-92.355,42.501999999999995,False,19,013,000400,19,19013,19013000400,1400000US19013000400,JOHN DEERE WATERLOO WORKS DRIVETRAIN OPERATIONS AND FOUNDRY,300 WEST COMMERCIAL ST.,WATERLOO,IA,50701,"JOHN DEERE WATERLOO WORKS DRIVETRAIN OPERATIONS AND FOUNDRY.300 WEST COMMERCIAL ST., WATERLOO IOWA 50701 (BLACK HAWK)",0,C,,110000413954
50702BRTCH4747C,-92.29899999999999,42.448,False,19,013,002901,19,19013,19013002901,1400000US19013002901,BERTCH CABINET MFG INC,4747 CRESTWOOD DR,WATERLOO,IA,50702,"BERTCH CABINET MFG INC.4747 CRESTWOOD DR, WATERLOO IOWA 50702 (BLACK HAWK)",0,C,,110000748371
50703BRTCH1205P,-92.361,42.541000000000004,False,19,013,001702,19,19013,19013001702,1400000US19013001702,MASTERBRAND CABINETS WATERLOO OPERATIONS,1205 PETERS DR,WATERLOO,IA,50703,"MASTERBRAND CABINETS WATERLOO OPERATIONS.1205 PETERS DR, WATERLOO IOWA 50703 (BLACK HAWK)",0,C,,110041094286
50703HYDRT2815W,-92.368,42.538000000000004,False,19,013,001702,19,19013,19013001702,1400000US19013001702,HYDRITE CHEMICAL CO,2815 WCF&N DR,WATERLOO,IA,50703,"HYDRITE CHEMICAL CO.2815 WCF&N DR, WATERLOO IOWA 50703 (BLACK HAWK)",0,C,,110000593616
50703DVNCD2839B,-92.35799999999999,42.54,False,19,013,001702,19,19013,19013001702,1400000US19013001702,ADVANCED HEAT TREAT CORP,2859 BURTON AVE,WATERLOO,IA,50703,"ADVANCED HEAT TREAT CORP.2859 BURTON AVE, WATERLOO IOWA 50703 (BLACK HAWK)",0,C,,110000413874
50703CHMBR550ES,-92.33200000000001,42.521,False,19,013,001900,19,19013,19013001900,1400000US19013001900,CHAMBERLAIN MANUFACTURING CORP,550 ESTHER ST,WATERLOO,IA,50703,"CHAMBERLAIN MANUFACTURING CORP.550 ESTHER ST, WATERLOO IOWA 50703 (BLACK HAWK)",0,C,,
50704BPNCX501NE,-92.26100000000001,42.50899999999999,False,19,013,001900,19,19013,19013001900,1400000US19013001900,TYSON FRESH MEATS INC WATERLOO IOWA,501 N ELK RUN RD,WATERLOO,IA,50703,"TYSON FRESH MEATS INC WATERLOO IOWA.501 N ELK RUN RD, WATERLOO IOWA 50703 (BLACK HAWK)",0,C,,110067426510
50703BFPRD501NE,-92.259,42.504,False,19,013,001900,19,19013,19013001900,1400000US19013001900,BEEF PRODUCTS INC (WLO),501 N ELK RUN RD,WATERLOO,IA,50703,"BEEF PRODUCTS INC (WLO).501 N ELK RUN RD, WATERLOO IOWA 50703 (BLACK HAWK)",1,C,,110000517138
50703MTKTC2320N,-92.286,42.512,False,19,013,001900,19,19013,19013001900,1400000US19013001900,CROWN GROUP WATERLOO PLANT,2320 NORTHEAST DR,WATERLOO,IA,50703,"CROWN GROUP WATERLOO PLANT.2320 NORTHEAST DR, WATERLOO IOWA 50703 (BLACK HAWK)",0,C,,110000593625
50703KNTFD2233W,-92.381,42.542,False,19,013,001600,19,19013,19013001600,1400000US19013001600,KENT NUTRITION GROUP INC,2233 W AIRLINE HWY,WATERLOO,IA,50703,"KENT NUTRITION GROUP INC.2233 W AIRLINE HWY, WATERLOO IOWA 50703 (BLACK HAWK)",0,C,,110000413892
50704CNTRL306TH,-92.355,42.52,False,19,013,001600,19,19013,19013001600,1400000US19013001600,AIRGAS CENTRAL STATES,306 THORSON AVE,WATERLOO,IA,50704,"AIRGAS CENTRAL STATES.306 THORSON AVE, WATERLOO IOWA 50704 (BLACK HAWK)",0,C,,
50704PPSCL1424B,-92.35700000000001,42.519,False,19,013,001600,19,19013,19013001600,1400000US19013001600,PEPSI-COLA GENERAL BOTTLERS,1424 BURTON AVE,WATERLOO,IA,507032130,"PEPSI-COLA GENERAL BOTTLERS.1424 BURTON AVE, WATERLOO IOWA 50703 (BLACK HAWK)",0,C,,
50703DVNCD2825M,-92.39399999999999,42.547,False,19,013,001600,19,19013,19013001600,1400000US19013001600,ADVANCED HEAT TREAT CORP,2825 MIDPORT BLVD,WATERLOO,IA,50703,"ADVANCED HEAT TREAT CORP.2825 MIDPORT BLVD, WATERLOO IOWA 50703 (BLACK HAWK)",0,C,,110011272960
5070WCNGRF271MI,-92.391,42.545,False,19,013,001600,19,19013,19013001600,1400000US19013001600,CONAGRA FOODS RETAIL PRODUCTS,2701 MIDPORT BLVD.,WATERLOO,IA,50703,"CONAGRA FOODS RETAIL PRODUCTS.2701 MIDPORT BLVD., WATERLOO IOWA 50703 (BLACK HAWK)",0,C,,110033625441
50704JHNDR3500E,-92.275,42.527,False,19,013,002700,19,19013,19013002700,1400000US19013002700,JOHN DEERE WATERLOO WORKS TCAO,3500 E DONALD ST,WATERLOO,IA,50703,"JOHN DEERE WATERLOO WORKS TCAO.3500 E DONALD ST, WATERLOO IOWA 50703 (BLACK HAWK)",0,C,,110000413936
50703GLTNN4455R,-92.25299999999999,42.516000000000005,False,19,013,002700,19,19013,19013002700,1400000US19013002700,WATERLOO PROCESSING LLC,4455 REMINGTON RD,WATERLOO,IA,50703,"WATERLOO PROCESSING LLC.4455 REMINGTON RD, WATERLOO IOWA 50703 (BLACK HAWK)",0,C,,110000413883
50703PRSNT3136W,-92.266,42.555,True,19,013,002700,19,19013,19013002700,1400000US19013002700,PRIES ENTERPRISES INC,3136 WAGNER RD,WATERLOO,IA,50703,"PRIES ENTERPRISES INC 3136 WAGNER RD, WATERLOO, IA, 50703",0,C,,
50704NRTHL1000R,-92.383,42.511,False,19,013,001503,19,19013,19013001503,1400000US19013001503,NORTHLAND PRODUCTS CO,1000 RAINBOW DR,WATERLOO,IA,50701,"NORTHLAND PRODUCTS CO.1000 RAINBOW DR, WATERLOO IOWA 50701 (BLACK HAWK)",0,C,,110000413963
50704WTRLN300AN,-92.376,42.49100000000001,False,19,013,001502,19,19013,19013001502,1400000US19013001502,WATERLOO INDUSTRIES INC,300 ANSBOROUGH AVE,WATERLOO,IA,507012136,"WATERLOO INDUSTRIES INC.300 ANSBOROUGH AVE, WATERLOO IOWA 50701 (BLACK HAWK)",0,C,,
50801FNSTLUSROU,-94.34,41.05,False,19,175,190200,19,19175,19175190200,1400000US19175190200,WELLMAN DYNAMICS,1746 COMMERCE RD,CRESTON,IA,50801,"WELLMAN DYNAMICS.1746 COMMERCE RD, CRESTON IOWA 50801 (UNION)",0,C,,110018868732
50801GTSMFEASTH,-94.344,41.05,False,19,175,190200,19,19175,19175190200,1400000US19175190200,GITS MANUFACTURING INC,1739 COMMERCE RD,CRESTON,IA,50801,"GITS MANUFACTURING INC.1739 COMMERCE RD, CRESTON IOWA 50801 (UNION)",0,C,,110002119724
50801NBSCN500IN,-94.348,41.052,False,19,175,190200,19,19175,19175190200,1400000US19175190200,FERRARA CANDY CO (CRESTON),500 IND US TRIAL PKWY,CRESTON,IA,50801,"FERRARA CANDY CO (CRESTON).500 IND US TRIAL PKWY, CRESTON IOWA 50801 (UNION)",0,C,,110012151483
50801CFPRC1310E,-94.344,41.059,False,19,175,190200,19,19175,19175190200,1400000US19175190200,ZFS CRESTON LLC,1310 E HOWARD ST,CRESTON,IA,50801,"ZFS CRESTON LLC.1310 E HOWARD ST, CRESTON IOWA 50801 (UNION)",0,C,,110008058403
50801MRCNC56EMN,-94.35700000000001,41.058,False,19,175,190200,19,19175,19175190200,1400000US19175190200,CENTRAL IOWA READY MIX,506 E MONTGOMERY ST,CRESTON,IA,50801,"CENTRAL IOWA READY MIX.506 E MONTGOMERY ST, CRESTON IOWA 50801 (UNION)",0,C,,110020518787
50801GRNVLRR1XX,-94.35700000000001,41.117,False,19,175,190300,19,19175,19175190300,1400000US19175190300,GREEN VALLEY CHEMICAL CORP.,1284 N CHERRY ST RD,CRESTON,IA,50801,"GREEN VALLEY CHEMICAL CORP..1284 N CHERRY ST RD, CRESTON IOWA 50801 (UNION)",0,C,,
50849SGWRKHWY25,-94.454,41.317,False,19,001,960300,19,19001,19001960300,1400000US19001960300,QUAD GREENFIELD LLC,401 N TOWNLINE RD,GREENFIELD,IA,50849,"QUAD GREENFIELD LLC.401 N TOWNLINE RD, GREENFIELD IOWA 50849 (ADAIR)",0,C,,110011709721
5084WCRDNL716NE,-94.45299999999999,41.31399999999999,False,19,001,960300,19,19001,19001960300,1400000US19001960300,CARDINAL GLASS,716 NE 6TH ST,GREENFIELD,IA,50849,"CARDINAL GLASS.716 NE 6TH ST, GREENFIELD IOWA 50849 (ADAIR)",0,C,,110070551589
50851SHRDN104WO,-94.559,40.883,False,19,173,180100,19,19173,19173180100,1400000US19173180100,SHERIDAN EGG CO INC,104 W OHIO,LENOX,IA,50851,"SHERIDAN EGG CO INC.104 W OHIO, LENOX IOWA 50851 (TAYLOR)",0,C,,
50851PRCSN700SW,-94.561,40.875,False,19,173,180100,19,19173,19173180100,1400000US19173180100,PRECISION PULLEY & IDLER INC,700 S WALNUT ST,LENOX,IA,50851,"PRECISION PULLEY & IDLER INC.700 S WALNUT ST, LENOX IOWA 50851 (TAYLOR)",0,C,,110002119733
50851PPTTS100PA,-94.552,40.897,False,19,173,180100,19,19173,19173180100,1400000US19173180100,PAPETTI'S HYGRADE EGG PRODUCTS INC,100 PAPETTI PKWY,LENOX,IA,50851,"PAPETTI'S HYGRADE EGG PRODUCTS INC.100 PAPETTI PKWY, LENOX IOWA 50851 (TAYLOR)",0,C,,110010028353
51012WLNTGHWY59,-95.552,42.718999999999994,False,19,035,080400,19,19035,19035080400,1400000US19035080400,WALNUT GROVE PRODS  CHEROKEE PLANT,HWY 59 S,CHEROKEE,IA,51012,"WALNUT GROVE PRODS  CHEROKEE PLANT.HWY 59 S, CHEROKEE IOWA 51012 (CHEROKEE)",0,C,,
51049SMNSN500HW,-95.63600000000001,42.632,False,19,035,080400,19,19035,19035080400,1400000US19035080400,SIMONSEN IND INC,500 HWY 31 E,QUIMBY,IA,510490247,"SIMONSEN IND INC.500 HWY 31 E, QUIMBY IOWA 51049 (CHEROKEE)",0,C,,
5101WSTNDR11WAS,-95.552,42.716,False,19,035,080400,19,19035,19035080400,1400000US19035080400,STANDARD READY MIX CHEROKEE PLANT,110 WASHBURN RD,CHEROKEE,IA,51012,"STANDARD READY MIX CHEROKEE PLANT.110 WASHBURN RD, CHEROKEE IOWA 51012 (CHEROKEE)",0,C,,110067554471
51012WLSNF1300S,-95.561,42.73,False,19,035,080100,19,19035,19035080100,1400000US19035080100,TYSON DELI INC,1300 S LAKE ST,CHEROKEE,IA,51012,"TYSON DELI INC.1300 S LAKE ST, CHEROKEE IOWA 51012 (CHEROKEE)",0,C,,110000414016
51012BCNCX1130R,-95.53399999999999,42.771,False,19,035,080100,19,19035,19035080100,1400000US19035080100,OBECO INDUSTRIES,1130 RIVERVIEW DR,CHEROKEE,IA,51012,"OBECO INDUSTRIES.1130 RIVERVIEW DR, CHEROKEE IOWA 51012 (CHEROKEE)",0,C,,
51023CLCRF222AV,-96.488,42.989,False,19,167,070400,19,19167,19167070400,1400000US19167070400,COILCRAFT INC,222 AVE E,HAWARDEN,IA,51023,"COILCRAFT INC.222 AVE E, HAWARDEN IOWA 51023 (SIOUX)",0,C,,
51023HWRDN12310,-96.493,42.997,False,19,167,070400,19,19167,19167070400,1400000US19167070400,HAWARDEN MACHINE CO,123 10TH ST,HAWARDEN,IA,51023,"HAWARDEN MACHINE CO.123 10TH ST, HAWARDEN IOWA 51023 (SIOUX)",0,C,,110000414025
51031WLLSD1212N,-96.164,42.791000000000004,False,19,149,970100,19,19149,19149970100,1400000US19149970100,WELLS ENTERPRISES INC NORTH ICE CREAM PLANT,121 SECOND AVE SE,LE MARS,IA,51031,"WELLS ENTERPRISES INC NORTH ICE CREAM PLANT.121 SECOND AVE SE, LE MARS IOWA 51031 (PLYMOUTH)",0,C,,110001398899
51031WLLSD12THL,-96.182,42.78,False,19,149,970200,19,19149,19149970200,1400000US19149970200,DEAN FOODS NORTH CENTRAL LLC,1188 LINCOLN ST SW,LE MARS,IA,51031,"DEAN FOODS NORTH CENTRAL LLC.1188 LINCOLN ST SW, LE MARS IOWA 51031 (PLYMOUTH)",0,C,,110064137820
51031WLLSD1620I,-96.186,42.773999999999994,False,19,149,970200,19,19149,19149970200,1400000US19149970200,WELLS' DAIRY CENTRAL WAREHOUSE,1620 INDUSTRIAL RD,LE MARS,IA,51031,"WELLS' DAIRY CENTRAL WAREHOUSE.1620 INDUSTRIAL RD, LE MARS IOWA 51031 (PLYMOUTH)",0,C,,
51031TYSNF5218T,-96.178,42.787,False,19,149,970200,19,19149,19149970200,1400000US19149970200,TYSON FOODS INC,521  8TH AVE SW,LE MARS,IA,51031,"TYSON FOODS INC.521  8TH AVE SW, LE MARS IOWA 51031 (PLYMOUTH)",0,C,,
51031WLLSD11911,-96.184,42.772,False,19,149,970200,19,19149,19149970200,1400000US19149970200,WELLS ENTERPRISES INC SOUTH ICE CREAM PLANT,1191 18TH ST SW,LE MARS,IA,51031,"WELLS ENTERPRISES INC SOUTH ICE CREAM PLANT.1191 18TH ST SW, LE MARS IOWA 51031 (PLYMOUTH)",0,C,,110000414034
51031SPRSW8THST,-96.177,42.783,False,19,149,970200,19,19149,19149970200,1400000US19149970200,ADM ALLIANCE NUTRITION,710 8TH ST SW,LE MARS,IA,51031,"ADM ALLIANCE NUTRITION.710 8TH ST SW, LE MARS IOWA 51031 (PLYMOUTH)",0,C,,110010305543
51031WLLSD1ROCK,-96.184,42.771,False,19,149,970200,19,19149,19149970200,1400000US19149970200,WELLS ENTERPRISES INC ENGINEERING CENTER,1 ROCKY RD SW,LE MARS,IA,51031,"WELLS ENTERPRISES INC ENGINEERING CENTER.1 ROCKY RD SW, LE MARS IOWA 51031 (PLYMOUTH)",0,C,,110016705485
5103WGCCLM32NDA,-96.169,42.797,False,19,149,970200,19,19149,19149970200,1400000US19149970200,GCC-LE MARS S,300 2ND AVE,LE MARS,IA,51031,"GCC-LE MARS S.300 2ND AVE, LE MARS IOWA 51031 (PLYMOUTH)",0,C,,110060259027
51041DMNDVINDUS,-96.05799999999999,42.994,False,19,167,070600,19,19167,19167070600,1400000US19167070600,VOGEL PAINT & WAX CO INC,1020 ALBANY PL SE,ORANGE CITY,IA,51041,"VOGEL PAINT & WAX CO INC.1020 ALBANY PL SE, ORANGE CITY IOWA 51041 (SIOUX)",0,C,,110000414043
51041TYSNFINDUS,-96.057,42.99100000000001,False,19,167,070600,19,19167,19167070600,1400000US19167070600,PREMIUM PET HEALTH-MIDWEST,101 14TH ST SE,ORANGE CITY,IA,51041,"PREMIUM PET HEALTH-MIDWEST.101 14TH ST SE, ORANGE CITY IOWA 51041 (SIOUX)",0,C,,110000517316
5104WRNGCT4128T,-96.06299999999999,42.998000000000005,False,19,167,070600,19,19167,19167070600,1400000US19167070600,GCC-ORANGE CITY,412 8TH ST SW,ORANGE CITY,IA,51041,"GCC-ORANGE CITY.412 8TH ST SW, ORANGE CITY IOWA 51041 (SIOUX)",0,C,,110040467269
51054BLLBR504FS,-96.35700000000001,42.406000000000006,False,19,193,003300,19,19193,19193003300,1400000US19193003300,SIOUX CITY BRICK & TILE CO SERGEANT BLUFF PLANT,504 F ST,SERGEANT BLUFF,IA,51054,"SIOUX CITY BRICK & TILE CO SERGEANT BLUFF PLANT.504 F ST, SERGEANT BLUFF IOWA 51054 (WOODBURY)",0,C,,110000767787
5105WSRGNT2SUTH,-96.359,42.413000000000004,False,19,193,003300,19,19193,19193003300,1400000US19193003300,GCC-SERGEANT BLUFF,200 SOUTHRIDGE RD,SERGEANT BLUFF,IA,51054,"GCC-SERGEANT BLUFF.200 SOUTHRIDGE RD, SERGEANT BLUFF IOWA 51054 (WOODBURY)",0,C,,110055498536
51054STNNNPORTN,-96.355,42.4,True,19,193,003300,19,19193,19193003300,1400000US19193003300,US TANNING CO INC,PORT NEAL INDUSTRIAL DISTRICT,SERGEANT BLUFF,IA,51054,"US TANNING CO INC PORT NEAL INDUSTRIAL DISTRICT, SERGEANT BLUFF, IA, 51054",1,C,,
51054GPRCSBOX20,-96.36200000000001,42.305,False,19,193,003500,19,19193,19193003500,1400000US19193003500,AG PROCESSING INC,2753 PORT NEAL CIR,SERGEANT BLUFF,IA,51054,"AG PROCESSING INC.2753 PORT NEAL CIR, SERGEANT BLUFF IOWA 51054 (WOODBURY)",0,C,,110000414061
51054TRRNTPORTN,-96.365,42.328,False,19,193,003500,19,19193,19193003500,1400000US19193003500,CF INDUSTRIES NITROGEN LLC-PORT NEAL NITROGEN COMPLEX,1182 260TH ST,SERGEANT BLUFF,IA,51054,"CF INDUSTRIES NITROGEN LLC-PORT NEAL NITROGEN COMPLEX.1182 260TH ST, SERGEANT BLUFF IOWA 51054 (WOODBURY)",0,C,,110000414089
51059KNDKNPORTN,-96.352,42.35,False,19,193,003500,19,19193,19193003500,1400000US19193003500,GELITA,2445 PORT NEAL IND US TRIAL RD,SERGEANT BLUFF,IA,51054,"GELITA.2445 PORT NEAL IND US TRIAL RD, SERGEANT BLUFF IOWA 51054 (WOODBURY)",0,C,,110005746773
51054FMCCR12422,-96.36200000000001,42.328,False,19,193,003500,19,19193,19193003500,1400000US19193003500,FMC CORP,1242 260TH  ST PORT NEAL INDUSTRIAL PARK,SERGEANT BLUFF,IA,51054,"FMC CORP.1242 260TH  ST PORT NEAL INDUSTRIAL PARK, SERGEANT BLUFF IOWA 51054 (WOODBURY)",0,C,,
51054NTRFL2717P,-96.361,42.31100000000001,False,19,193,003500,19,19193,19193003500,1400000US19193003500,THE ANDERSONS INC - SERGEANT BLUFF,2717 PORT NEAL CIR,SERGEANT BLUFF,IA,51054,"THE ANDERSONS INC - SERGEANT BLUFF.2717 PORT NEAL CIR, SERGEANT BLUFF IOWA 51054 (WOODBURY)",0,C,,110000414070
51101GRGNL11512,-96.368,42.327,False,19,193,003500,19,19193,19193003500,1400000US19193003500,MIDAMERICAN ENERGY CO GEORGE NEAL NORTH,1151 260TH ST,SERGEANT BLUFF,IA,51054,"MIDAMERICAN ENERGY CO GEORGE NEAL NORTH.1151 260TH ST, SERGEANT BLUFF IOWA 51054 (WOODBURY)",0,C,,110001323318
51101GRGNL2761P,-96.367,42.299,False,19,193,003500,19,19193,19193003500,1400000US19193003500,MIDAMERICAN ENERGY-GEORGE NEAL SOUTH,2761 PORT NEAL CIR,SALIX,IA,51052,"MIDAMERICAN ENERGY-GEORGE NEAL SOUTH.2761 PORT NEAL CIR, SALIX IOWA 51052 (WOODBURY)",0,C,,110000414114
5105WSTNDR2241P,-96.35600000000001,42.382,False,19,193,003500,19,19193,19193003500,1400000US19193003500,STANDARD READY MIX SERGEANT BLUFF PLANT,2241 PORT NEAL RD,SERGEANT BLUFF,IA,51054,"STANDARD READY MIX SERGEANT BLUFF PLANT.2241 PORT NEAL RD, SERGEANT BLUFF IOWA 51054 (WOODBURY)",1,C,,110067554676
51101LSTMR801ST,-96.389,42.498000000000005,False,19,193,000100,19,19193,19193000100,1400000US19193000100,ELASTOMER ENGINEERING INC,801 STEUBEN ST,SIOUX CITY,IA,51101,"ELASTOMER ENGINEERING INC.801 STEUBEN ST, SIOUX CITY IOWA 51101 (WOODBURY)",0,C,,110002119779
51102CRGLL980CL,-96.391,42.501000000000005,False,19,193,000100,19,19193,19193000100,1400000US19193000100,CARGILL INC,980 CLARK ST,SIOUX CITY,IA,51101,"CARGILL INC.980 CLARK ST, SIOUX CITY IOWA 51101 (WOODBURY)",0,C,,110000414141
51105MSSRV1300D,-96.381,42.501999999999995,False,19,193,000100,19,19193,19193000100,1400000US19193000100,MISSOURI VALLEY STEEL CO,1300 DIVISION ST,SIOUX CITY,IA,51105,"MISSOURI VALLEY STEEL CO.1300 DIVISION ST, SIOUX CITY IOWA 51105 (WOODBURY)",0,C,,110000414187
51105CRGLL3315H,-96.36399999999999,42.526,False,19,193,000100,19,19193,19193000100,1400000US19193000100,CARGILL FEED & NUTRITION SIOUX CITY,3315 HWY 75 N,SIOUX CITY,IA,51105,"CARGILL FEED & NUTRITION SIOUX CITY.3315 HWY 75 N, SIOUX CITY IOWA 51105 (WOODBURY)",0,C,,110007044607
51105RVNGF22HAW,-96.387,42.512,False,19,193,000100,19,19193,19193000100,1400000US19193000100,IRVING F JENSEN CO PORTABLE CONCRETE PLANTS,2020 HAWKEYE DR,SIOUX CITY,IA,51105,"IRVING F JENSEN CO PORTABLE CONCRETE PLANTS.2020 HAWKEYE DR, SIOUX CITY IOWA 51105 (WOODBURY)",2,C,,110002084538
51105STNDR1221S,-96.389,42.504,False,19,193,000100,19,19193,19193000100,1400000US19193000100,STANDARD READY MIX CONCRETE CO SIOUX CITY PLANT,1221 STEUBEN ST,SIOUX CITY,IA,51105,"STANDARD READY MIX CONCRETE CO SIOUX CITY PLANT.1221 STEUBEN ST, SIOUX CITY IOWA 51105 (WOODBURY)",0,C,,110018932084
5110WKNFRV222HA,-96.387,42.512,False,19,193,000100,19,19193,19193000100,1400000US19193000100,KNIFE RIVER MIDWEST PLANT #4,2220 HAWKEYE DRIVE,SIOUX CITY,IA,51105,"KNIFE RIVER MIDWEST PLANT #4.2220 HAWKEYE DRIVE, SIOUX CITY IOWA 51105 (WOODBURY)",0,C,,110002084538
5110WSXCTY81DIV,-96.381,42.498999999999995,False,19,193,000100,19,19193,19193000100,1400000US19193000100,SIOUX CITY FOUNDRY CO,801 DIVISION ST,SIOUX CITY,IA,51105,"SIOUX CITY FOUNDRY CO.801 DIVISION ST, SIOUX CITY IOWA 51105 (WOODBURY)",0,C,,110012305077
51101NTRFL514SO,-96.39399999999999,42.486999999999995,False,19,193,003600,19,19193,19193003600,1400000US19193003600,THE ANDERSONS INC - SIOUX CITY,514 S FLOYD BLVD,SIOUX CITY,IA,51101,"THE ANDERSONS INC - SIOUX CITY.514 S FLOYD BLVD, SIOUX CITY IOWA 51101 (WOODBURY)",0,C,,110000414123
51102SXLND2301B,-96.381,42.431000000000004,False,19,193,003600,19,19193,19193003600,1400000US19193003600,VALMONT COATINGS INC DBA SIOUXLAND GALVANIZING CORP,2301 BRIDGEPORT DR,SIOUX CITY,IA,51111,"VALMONT COATINGS INC DBA SIOUXLAND GALVANIZING CORP.2301 BRIDGEPORT DR, SIOUX CITY IOWA 51111 (WOODBURY)",0,C,,110000414169
51106CHSTR4700S,-96.367,42.426,False,19,193,003600,19,19193,19193003600,1400000US19193003600,CHESTERMAN CO,4700 S LEWIS BLVD,SIOUX CITY,IA,51106,"CHESTERMAN CO.4700 S LEWIS BLVD, SIOUX CITY IOWA 51106 (WOODBURY)",0,C,,110000414196
51106KNTFD4001S,-96.37100000000001,42.437,False,19,193,003600,19,19193,19193003600,1400000US19193003600,KENT NUTRITION GROUP INC,4001 S LEWIS BLVD,SIOUX CITY,IA,51106,"KENT NUTRITION GROUP INC.4001 S LEWIS BLVD, SIOUX CITY IOWA 51106 (WOODBURY)",0,C,,110000414203
51107JHNMR1200B,-96.38799999999999,42.482,False,19,193,003600,19,19193,19193003600,1400000US19193003600,JOHN MORRELL & CO,1200 BLUFF RD PO BOX 2630,SIOUX CITY,IA,51106,"JOHN MORRELL & CO.1200 BLUFF RD PO BOX 2630, SIOUX CITY IOWA 51106 (WOODBURY)",0,C,,110000414230
51110DSYNT55001,-96.37,42.412,False,19,193,003600,19,19193,19193003600,1400000US19193003600,DIOSYNTH INC,5500 1/2 BRADLEY ST,SIOUX CITY,IA,51111,"DIOSYNTH INC.5500 1/2 BRADLEY ST, SIOUX CITY IOWA 51111 (WOODBURY)",0,C,,
51102SXBYP1900M,-96.391,42.426,False,19,193,003600,19,19193,19193003600,1400000US19193003600,DARLING INTERNATIONAL INC.,1900 MURRAY ST,SIOUX CITY,IA,51102,"DARLING INTERNATIONAL INC..1900 MURRAY ST, SIOUX CITY IOWA 51102 (WOODBURY)",0,C,,110001323345
51102HBBRD4520S,-96.369,42.428000000000004,False,19,193,003600,19,19193,19193003600,1400000US19193003600,HUBBARD FEEDS INC,4520 S YORK,SIOUX CITY,IA,51106,"HUBBARD FEEDS INC.4520 S YORK, SIOUX CITY IOWA 51106 (WOODBURY)",0,C,,110000414150
51107NTRFL1919G,-96.385,42.49,False,19,193,003600,19,19193,19193003600,1400000US19193003600,NUTRA-FLO ULTRA PHOS PLANT,2100 GRAND AVE,SIOUX CITY,IA,51107,"NUTRA-FLO ULTRA PHOS PLANT.2100 GRAND AVE, SIOUX CITY IOWA 51107 (WOODBURY)",0,C,,
51102TRPKF6201M,-96.37100000000001,42.397,False,19,193,003600,19,19193,19193003600,1400000US19193003600,TUR-PAK FOODS INC,6201 MACARTHUR ST,SIOUX CITY,IA,51111,"TUR-PAK FOODS INC.6201 MACARTHUR ST, SIOUX CITY IOWA 51111 (WOODBURY)",0,C,,
51106KYDFD1919G,-96.38600000000001,42.49,False,19,193,003600,19,19193,19193003600,1400000US19193003600,KAY DEE LLC - KAY DEE FEED FACILITY,1919 GRAND AVE,SIOUX CITY,IA,51106,"KAY DEE LLC - KAY DEE FEED FACILITY.1919 GRAND AVE, SIOUX CITY IOWA 51106 (WOODBURY)",0,C,,110001145109
51111JBRNC233BR,-96.382,42.431000000000004,False,19,193,003600,19,19193,19193003600,1400000US19193003600,JEBRO INC,2303 BRIDGEPORT DR,SIOUX CITY,IA,51111,"JEBRO INC.2303 BRIDGEPORT DR, SIOUX CITY IOWA 51111 (WOODBURY)",0,C,,110017713410
51106CRLYS1WARR,-96.383,42.485,False,19,193,003600,19,19193,19193003600,1400000US19193003600,CURLY'S FOODS INC,1000 WARRINGTON RD,SIOUX CITY,IA,51106,"CURLY'S FOODS INC.1000 WARRINGTON RD, SIOUX CITY IOWA 51106 (WOODBURY)",0,C,,110001397863
51111SRFRC185AI,-96.37,42.41,False,19,193,003600,19,19193,19193003600,1400000US19193003600,US DOD USAF SIOUX CITY ANG RANGE,185 AIR REFUELING WING 2920 HEADQUARTERS AVE,SIOUX CITY,IA,51111,"US DOD USAF SIOUX CITY ANG RANGE.185 AIR REFUELING WING 2920 HEADQUARTERS AVE, SIOUX CITY IOWA 51111 (WOODBURY)",0,F,,110037143739
5111WPCHPT2717M,-96.374,42.427,False,19,193,003600,19,19193,19193003600,1400000US19193003600,PECH OPTICAL CORP,2717 MURRAY ST,SIOUX CITY,IA,51111,"PECH OPTICAL CORP.2717 MURRAY ST, SIOUX CITY IOWA 51111 (WOODBURY)",0,C,,110037236130
5111WSBRND711SU,-96.363,42.383,False,19,193,003600,19,19193,19193003600,1400000US19193003600,SABRE INDUSTRIES,7101 SOUTHBRIDGE DR,SIOUX CITY,IA,51111,"SABRE INDUSTRIES.7101 SOUTHBRIDGE DR, SIOUX CITY IOWA 51111 (WOODBURY)",0,C,,110054624279
51111LFSMN2501M,-96.374,42.428,True,19,193,003600,19,19193,19193003600,1400000US19193003600,AALFS MANUFACTURING INC LAUNDRY COMPLEX,2501 MURRAY RD,SIOUX CITY,IA,51111,"AALFS MANUFACTURING INC LAUNDRY COMPLEX 2501 MURRAY RD, SIOUX CITY, IA, 51111",0,C,,
51103RCHST1805Z,-96.431,42.492,False,19,193,001500,19,19193,19193001500,1400000US19193001500,GENERAL MOTORS CORP ROCHESTER PRODS DIV,1805 ZENITH DR,SIOUX CITY,IA,511035208,"GENERAL MOTORS CORP ROCHESTER PRODS DIV.1805 ZENITH DR, SIOUX CITY IOWA 51103 (WOODBURY)",0,C,,
51201GPRCS8042N,-95.85600000000001,43.181999999999995,False,19,141,490300,19,19141,19141490300,1400000US19141490300,AG PROCESSING INC,804 2ND AVE,SHELDON,IA,51201,"AG PROCESSING INC.804 2ND AVE, SHELDON IOWA 51201 (O'BRIEN)",0,C,,110018868126
51201LNDLK100WE,-95.85700000000001,43.181999999999995,False,19,141,490300,19,19141,19141490300,1400000US19141490300,LAND O'LAKES PURINA FEED LLC - SHELDON,105 W 8TH ST,SHELDON,IA,51201,"LAND O'LAKES PURINA FEED LLC - SHELDON.105 W 8TH ST, SHELDON IOWA 51201 (O'BRIEN)",0,C,,110000414267
51201MNTNR1701S,-95.85799999999999,43.17,False,19,141,490300,19,19141,19141490300,1400000US19141490300,MAINTAINER CORP OF IOWA,1701 S SECOND AVE,SHELDON,IA,51201,"MAINTAINER CORP OF IOWA.1701 S SECOND AVE, SHELDON IOWA 51201 (O'BRIEN)",0,C,,
51234DTHMRHWY18,-95.999,43.18600000000001,False,19,167,070100,19,19167,19167070100,1400000US19167070100,DETHMERS MANUFACTURING CO,HWY 18 E,BOYDEN,IA,512340189,"DETHMERS MANUFACTURING CO.HWY 18 E, BOYDEN IOWA 51234 (SIOUX)",0,C,,
51234FRMRS602MA,-96.006,43.187,False,19,167,070100,19,19167,19167070100,1400000US19167070100,FARMERS FEED & SUPPLY CO,602 MAIN ST,BOYDEN,IA,51234,"FARMERS FEED & SUPPLY CO.602 MAIN ST, BOYDEN IOWA 51234 (SIOUX)",0,C,,110000414276
51238PCKRL108FI,-95.90799999999999,43.071999999999996,False,19,167,070100,19,19167,19167070100,1400000US19167070100,PACKERLAND PACKING CO,108 1ST AVE S,HOSPERS,IA,51238,"PACKERLAND PACKING CO.108 1ST AVE S, HOSPERS IOWA 51238 (SIOUX)",0,C,,
51201RSNBN1530W,-95.86200000000001,43.173,False,19,167,070100,19,19167,19167070100,1400000US19167070100,ROSENBOON MACHINE & TOOL INC,1530 WESTERN AVE,SHELDON,IA,51201,"ROSENBOON MACHINE & TOOL INC.1530 WESTERN AVE, SHELDON IOWA 51201 (SIOUX)",0,C,,110012705019
5120WGCCSH59WES,-95.86399999999999,43.18600000000001,False,19,167,070100,19,19141,19167070100,1400000US19167070100,GCC-SHELDON,509 W PARK ST,SHELDON,IA,51201,"GCC-SHELDON.509 W PARK ST, SHELDON IOWA 51201 (O'BRIEN)",0,C,,110064089533
5120WSTNDR1132W,-95.86200000000001,43.181000000000004,False,19,167,070100,19,19141,19167070100,1400000US19167070100,STANDARD READY MIX SHELDON PLANT,1132 WESTERN AVE,SHELDON,IA,51201,"STANDARD READY MIX SHELDON PLANT.1132 WESTERN AVE, SHELDON IOWA 51201 (O'BRIEN)",0,C,,110046344005
5123WDNHRT41HSP,-95.911,43.067,False,19,167,070100,19,19167,19167070100,1400000US19167070100,DEN HARTOG INDUSTRIES,4010 HOSPERS DR S,HOSPERS,IA,51238,"DEN HARTOG INDUSTRIES.4010 HOSPERS DR S, HOSPERS IOWA 51238 (SIOUX)",0,C,,110017378586
51237SDNGN1245K,-95.978,43.358999999999995,False,19,119,950100,19,19119,19119950100,1400000US19119950100,SUDENGA INDUSTRIES INC,2002 KINGBIRD AVE,GEORGE,IA,51237,"SUDENGA INDUSTRIES INC.2002 KINGBIRD AVE, GEORGE IOWA 51237 (LYON)",0,C,,
51248SSCTD101W1,-95.656,43.181000000000004,False,19,141,490200,19,19141,19141490200,1400000US19141490200,ASSOCIATED MILK PRODUCERS INC,101 W 1ST ST,SANBORN,IA,51248,"ASSOCIATED MILK PRODUCERS INC.101 W 1ST ST, SANBORN IOWA 51248 (O'BRIEN)",0,C,,110000494224
51201FRMRS10162,-95.809,43.171,True,19,141,490200,19,19141,19141490200,1400000US19141490200,FARMERS CO-OP. ELEVATOR ASSOC.,1016 2ND AVE.,SHELDON,IA,51201,"FARMERS CO-OP. ELEVATOR ASSOC. 1016 2ND AVE., SHELDON, IA, 51201",0,C,,
51249CHSPCCLOVE,-95.734,43.391000000000005,False,19,143,460100,19,19143,19143460100,1400000US19143460100,CHASE PACKAGING CORP,CLOVERDALE RD,SIBLEY,IA,51249,"CHASE PACKAGING CORP.CLOVERDALE RD, SIBLEY IOWA 51249 (OSCEOLA)",0,C,,
51249SSCTD10204,-95.749,43.398,False,19,143,460100,19,19143,19143460100,1400000US19143460100,ASSOCIATED MILK PRODUCERS INC .,1020 FOURTH ST,SIBLEY,IA,51249,"ASSOCIATED MILK PRODUCERS INC ..1020 FOURTH ST, SIBLEY IOWA 51249 (OSCEOLA)",0,C,,110000414294
51250HRKRS25115,-96.17200000000001,43.093,False,19,167,070700,19,19167,19167070700,1400000US19167070700,GOLDEN CRISP PREMIUM FOODS,251 15TH ST NE,SIOUX CENTER,IA,51250,"GOLDEN CRISP PREMIUM FOODS.251 15TH ST NE, SIOUX CENTER IOWA 51250 (SIOUX)",0,C,,
51250MWGRS42015,-96.17200000000001,43.093,False,19,167,070700,19,19167,19167070700,1400000US19167070700,GROSCHOPP INC,420 15TH ST NE,SIOUX CENTER,IA,51250,"GROSCHOPP INC.420 15TH ST NE, SIOUX CENTER IOWA 51250 (SIOUX)",0,C,,110000414301
51250PLLCR1800N,-96.176,43.097,False,19,167,070700,19,19167,19167070700,1400000US19167070700,PELLA CORP SIOUX CENTER OPERATIONS,1800 N MAIN AVE,SIOUX CENTER,IA,51250,"PELLA CORP SIOUX CENTER OPERATIONS.1800 N MAIN AVE, SIOUX CENTER IOWA 51250 (SIOUX)",0,C,,
5125WSXCNT114NM,-96.175,43.089,False,19,167,070700,19,19167,19167070700,1400000US19167070700,GCC-SIOUX CENTER,1140 N MAIN AVE,SIOUX CENTER,IA,51250,"GCC-SIOUX CENTER.1140 N MAIN AVE, SIOUX CENTER IOWA 51250 (SIOUX)",0,C,,110001388301
