TRIFID,LONGITUDE,LATITUDE,ESTIMATE,STATEFP,COUNTYFP,TRACTCE,STATEGEOID,COUNTYGEOID,TRACTGEOID,AFFGEOID,FACILITY_NAME,STREET,CITY,STUSPS,ZIP_CODE,FACILITY,FAC_CLOSED_IND,ASGN_FEDERAL_IND,BIA_CODE,EPA_REGISTRY_ID
55003NDRSNFOOTO,-92.77600000000001,45.021,False,27,163,070704,27,27163,27163070704,1400000US27163070704,ANDERSEN CORP,100 4TH AVE N,BAYPORT,MN,55003,"ANDERSEN CORP.100 4TH AVE N, BAYPORT MINNESOTA 55003 (WASHINGTON)",0,C,,110000423603
55009BRGQS301WA,-92.904,44.519,False,27,049,080600,27,27049,27049080600,1400000US27049080600,HENKEL US OPERATIONS CORP,301 WASHINGTON ST W,CANNON FALLS,MN,55009,"HENKEL US OPERATIONS CORP.301 WASHINGTON ST W, CANNON FALLS MINNESOTA 55009 (GOODHUE)",0,C,,110000423630
55009CNNNQ324WW,-92.904,44.519,False,27,049,080600,27,27049,27049080600,1400000US27049080600,CANNON EQUIPMENT MIDWEST,324 W WASHINGTON ST,CANNON FALLS,MN,55009,"CANNON EQUIPMENT MIDWEST.324 W WASHINGTON ST, CANNON FALLS MINNESOTA 55009 (GOODHUE)",0,C,,110000423649
55009GMNNC103ME,-92.906,44.521,False,27,049,080600,27,27049,27049080600,1400000US27049080600,GEMINI - CANNON FALLS,103 MENSING WAY,CANNON FALLS,MN,55009,"GEMINI - CANNON FALLS.103 MENSING WAY, CANNON FALLS MINNESOTA 55009 (GOODHUE)",0,C,,110002122195
55009MSBRY105WA,-92.899,44.519,False,27,049,080600,27,27049,27049080600,1400000US27049080600,AMESBURY GROUP INC,105 WASHINGTON ST,CANNON FALLS,MN,550090456,"AMESBURY GROUP INC.105 WASHINGTON ST, CANNON FALLS MINNESOTA 55009 (GOODHUE)",0,C,,110003781042
55016MCHMLHIGHW,-92.90799999999999,44.788999999999994,False,27,163,071400,27,27163,27163071400,1400000US27163071400,3M COTTAGE GROVE CENTER,10746 INNOVATION RD,COTTAGE GROVE,MN,55016,"3M COTTAGE GROVE CENTER.10746 INNOVATION RD, COTTAGE GROVE MINNESOTA 55016 (WASHINGTON)",0,C,,110000423667
55106DVNCC358PR,-92.943,44.808,False,27,163,071400,27,27163,27163071400,1400000US27163071400,ADVANCE CORP,8200 97TH ST S,COTTAGE GROVE,MN,55016,"ADVANCE CORP.8200 97TH ST S, COTTAGE GROVE MINNESOTA 55016 (WASHINGTON)",0,C,,110024421561
55016LSPCT95251,-92.91,44.79600000000001,False,27,163,071400,27,27163,27163071400,1400000US27163071400,LSP - COTTAGE GROVE LP,9525 105TH ST CT S,COTTAGE GROVE,MN,55016,"LSP - COTTAGE GROVE LP.9525 105TH ST CT S, COTTAGE GROVE MINNESOTA 55016 (WASHINGTON)",0,C,,110000423658
55016PNRTH948JA,-92.936,44.813,False,27,163,071400,27,27163,27163071400,1400000US27163071400,UP NORTH PLASTICS INC,9480 JAMAICA AVE S,COTTAGE GROVE,MN,55016,"UP NORTH PLASTICS INC.9480 JAMAICA AVE S, COTTAGE GROVE MINNESOTA 55016 (WASHINGTON)",0,C,,110001444232
55021BTRCC222NE,-93.264,44.294,False,27,131,070700,27,27131,27131070700,1400000US27131070700,BEATRICE CHEESE INC,222 NE 3RD ST,FARIBAULT,MN,55021,"BEATRICE CHEESE INC.222 NE 3RD ST, FARIBAULT MINNESOTA 55021 (RICE)",0,C,,
55021CRWNCPOBOX,-93.294,44.291000000000004,False,27,131,070902,27,27131,27131070902,1400000US27131070902,CROWN AEROSOL PACKAGING,4TH ST & PARK AVE,FARIBAULT,MN,55021,"CROWN AEROSOL PACKAGING.4TH ST & PARK AVE, FARIBAULT MINNESOTA 55021 (RICE)",0,C,,110040867327
55021LNDLK1612N,-93.292,44.298,False,27,131,070901,27,27131,27131070901,1400000US27131070901,PROTIENT INC,1612 NW 7TH ST,FARIBAULT,MN,55021,"PROTIENT INC.1612 NW 7TH ST, FARIBAULT MINNESOTA 55021 (RICE)",0,C,,110000423685
55021SNYDR30024,-93.275,44.316,False,27,131,070901,27,27131,27131070901,1400000US27131070901,DAIKIN APPLIED,300 24TH ST NW,FARIBAULT,MN,55021,"DAIKIN APPLIED.300 24TH ST NW, FARIBAULT MINNESOTA 55021 (RICE)",0,C,,110000423694
55021KGMNF226PA,-93.29299999999999,44.31399999999999,False,27,131,070901,27,27131,27131070901,1400000US27131070901,K & G MANUFACTURING CO,226 PARK AVE NW,FARIBAULT,MN,55021,"K & G MANUFACTURING CO.226 PARK AVE NW, FARIBAULT MINNESOTA 55021 (RICE)",0,C,,110000423676
55021KBRND2050A,-93.302,44.328,False,27,131,070901,27,27131,27131070901,1400000US27131070901,NORTHERN TOOL & EQUIPMENT,2050 AIRTECH RD,FARIBAULT,MN,55021,"NORTHERN TOOL & EQUIPMENT.2050 AIRTECH RD, FARIBAULT MINNESOTA 55021 (RICE)",0,C,,110003737975
55021MNNST41PAR,-93.289,44.335,False,27,131,070901,27,27131,27131070901,1400000US27131070901,MINNESOTA MUNICIPAL POWER AGENCY FARIBAULT ENERGY PARK,4100 PARK AVE,FARIBAULT,MN,55021,"MINNESOTA MUNICIPAL POWER AGENCY FARIBAULT ENERGY PARK.4100 PARK AVE, FARIBAULT MINNESOTA 55021 (RICE)",0,C,,110020155945
55021JRMFD1116N,-93.274,44.303000000000004,False,27,131,070901,27,27131,27131070901,1400000US27131070901,JENNIE-O TURKEY STORE  INC,1116 NW 4TH AVE NW,FARIBAULT,MN,55021,"JENNIE-O TURKEY STORE  INC.1116 NW 4TH AVE NW, FARIBAULT MINNESOTA 55021 (RICE)",0,C,,110000566281
55024MRGLD15FOU,-93.14299999999999,44.644,False,27,037,060904,27,27037,27037060904,1400000US27037060904,KEMPS LLC,15 - 4TH ST,FARMINGTON,MN,55024,"KEMPS LLC.15 - 4TH ST, FARMINGTON MINNESOTA 55024 (DAKOTA)",0,C,,110000423710
55033NTKWT800EA,-92.84100000000001,44.736000000000004,False,27,037,061108,27,27037,27037061108,1400000US27037061108,INTEK PLASTICS INC,800 E 10TH ST,HASTINGS,MN,550332299,"INTEK PLASTICS INC.800 E 10TH ST, HASTINGS MINNESOTA 55033 (DAKOTA)",0,C,,
55033CRTSL700SP,-92.84,44.72,False,27,037,061108,27,27037,27037061108,1400000US27037061108,CURTIS ELECTRONICS CORP,700 SPIRAL BLVD,HASTINGS,MN,55033,"CURTIS ELECTRONICS CORP.700 SPIRAL BLVD, HASTINGS MINNESOTA 55033 (DAKOTA)",1,C,,
55033MSTRN1000S,-92.834,44.72,False,27,037,061108,27,27037,27037061108,1400000US27037061108,INTEK PLASTICS INC,1000 SPIRIAL BLVD,HASTINGS,MN,550332299,"INTEK PLASTICS INC.1000 SPIRIAL BLVD, HASTINGS MINNESOTA 55033 (DAKOTA)",0,C,,
55033CNGRF2005V,-92.85,44.726000000000006,False,27,037,061108,27,27037,27037061108,1400000US27037061108,CONAGRA FOODS GRAIN PROCESSING CO,1 KING MIDAS PARK,HASTINGS,MN,55033,"CONAGRA FOODS GRAIN PROCESSING CO.1 KING MIDAS PARK, HASTINGS MINNESOTA 55033 (DAKOTA)",0,C,,
5503WHSTNG171VE,-92.852,44.728,False,27,037,061108,27,27037,27037061108,1400000US27037061108,HASTINGS COOP CREAMERY,1701 VERMILLION ST.,HASTINGS,MN,55033,"HASTINGS COOP CREAMERY.1701 VERMILLION ST., HASTINGS MINNESOTA 55033 (DAKOTA)",0,C,,110057354116
5503WCMSTN31421,-92.84899999999999,44.724,False,27,037,061108,27,27037,27037061108,1400000US27037061108,CEMSTONE - HASTINGS,314 21ST ST S,HASTINGS,MN,55033,"CEMSTONE - HASTINGS.314 21ST ST S, HASTINGS MINNESOTA 55033 (DAKOTA)",0,C,,110061872656
55041JPTRN520N8,-92.27799999999999,44.446999999999996,False,27,157,490300,27,27157,27157490300,1400000US27157490300,FEDERAL-MOGUL POWERTRAIN SYSTEMS,520 N 8TH ST,LAKE CITY,MN,55041,"FEDERAL-MOGUL POWERTRAIN SYSTEMS.520 N 8TH ST, LAKE CITY MINNESOTA 55041 (WABASHA)",0,C,,110000423756
55041HTNGL800JE,-92.28,44.449,False,27,157,490300,27,27157,27157490300,1400000US27157490300,HEARTH & HOME TECHNOLOGIES INC LAKE CITY,800 W JEFFERSON ST,LAKE CITY,MN,55041,"HEARTH & HOME TECHNOLOGIES INC LAKE CITY.800 W JEFFERSON ST, LAKE CITY MINNESOTA 55041 (WABASHA)",0,C,,110000423747
55041VLLYC2001S,-92.249,44.427,False,27,157,490500,27,27157,27157490500,1400000US27157490500,VALLEY CRAFT INC,2001 S HWY 61,LAKE CITY,MN,550419555,"VALLEY CRAFT INC.2001 S HWY 61, LAKE CITY MINNESOTA 55041 (WABASHA)",0,C,,110000594376
55044CRWNC84152,-93.234,44.632,False,27,037,060821,27,27037,27037060821,1400000US27037060821,CROWN CORK & SEAL CO INC,8415 220TH ST W,LAKEVILLE,MN,55044,"CROWN CORK & SEAL CO INC.8415 220TH ST W, LAKEVILLE MINNESOTA 55044 (DAKOTA)",0,C,,
55044MNSHC80852,-93.23,44.631,False,27,037,060821,27,27037,27037060821,1400000US27037060821,MENASHA CORP,8085 220TH ST,LAKEVILLE,MN,55044,"MENASHA CORP.8085 220TH ST, LAKEVILLE MINNESOTA 55044 (DAKOTA)",0,C,,
55044HTCHC21850,-93.223,44.633,False,27,037,060821,27,27037,27037060821,1400000US27037060821,HITCHCOCK INDUSTRIES INC LAKEVILLE OPERATIONS,21850 GRANADA AVE,LAKEVILLE,MN,55044,"HITCHCOCK INDUSTRIES INC LAKEVILLE OPERATIONS.21850 GRANADA AVE, LAKEVILLE MINNESOTA 55044 (DAKOTA)",0,C,,
55044MDMRC77852,-93.223,44.63399999999999,False,27,037,060821,27,27037,27037060821,1400000US27037060821,ROTADYNE ROLL GROUP,7785 - 218TH ST,LAKEVILLE,MN,55044,"ROTADYNE ROLL GROUP.7785 - 218TH ST, LAKEVILLE MINNESOTA 55044 (DAKOTA)",0,C,,
55044CHMCN21675,-93.228,44.636,False,27,037,060821,27,27037,27037060821,1400000US27037060821,UNIVAR USA INC LAKEVILLE,21675 HAMBURG AVE,LAKEVILLE,MN,550449197,"UNIVAR USA INC LAKEVILLE.21675 HAMBURG AVE, LAKEVILLE MINNESOTA 55044 (DAKOTA)",0,C,,110000423765
55044HBNCX21365,-93.228,44.64,False,27,037,060821,27,27037,27037060821,1400000US27037060821,HOBO INC,21365 HAMBURG AVE,LAKEVILLE,MN,55044,"HOBO INC.21365 HAMBURG AVE, LAKEVILLE MINNESOTA 55044 (DAKOTA)",0,C,,110001446392
5504WBTDMN2135C,-93.21700000000001,44.641000000000005,False,27,037,060821,27,27037,27037060821,1400000US27037060821,BTD MANUFACTURING INC,21350 CEDAR AVENUE,LAKEVILLE,MN,55044,"BTD MANUFACTURING INC.21350 CEDAR AVENUE, LAKEVILLE MINNESOTA 55044 (DAKOTA)",0,C,,110060261675
55051BLWTR811EM,-93.285,45.879,False,27,065,480300,27,27065,27065480300,1400000US27065480300,BWHC/BLUEWATER,811 E MAPLE AVE,MORA,MN,550511224,"BWHC/BLUEWATER.811 E MAPLE AVE, MORA MINNESOTA 55051 (KANABEC)",0,C,,
55051SHLLR1020E,-93.281,45.879,False,27,065,480300,27,27065,27065480300,1400000US27065480300,ENGINEERED POLYMERS CORP,1020 E MAPLE AVE,MORA,MN,55051,"ENGINEERED POLYMERS CORP.1020 E MAPLE AVE, MORA MINNESOTA 55051 (KANABEC)",0,C,,
55051FRRST124NW,-93.287,45.879,False,27,065,480300,27,27065,27065480300,1400000US27065480300,FORRESTER BOX CO INC,124 N WALNUT,MORA,MN,55051,"FORRESTER BOX CO INC.124 N WALNUT, MORA MINNESOTA 55051 (KANABEC)",0,C,,
55057SHLDHHIGHW,-93.15899999999999,44.473,False,27,037,061502,27,27037,27037061502,1400000US27037061502,SHELDAHL FLEXIBLE TECHNOLOGIES INC,1150 SHELDAHL RD,NORTHFIELD,MN,55057,"SHELDAHL FLEXIBLE TECHNOLOGIES INC.1150 SHELDAHL RD, NORTHFIELD MINNESOTA 55057 (DAKOTA)",0,C,,110003819789
55060JSTNS1900H,-93.221,44.06399999999999,False,27,147,960600,27,27147,27147960600,1400000US27147960600,JOSTENS INC - SOUTHTOWN,1900 HARTLE AVE,OWATONNA,MN,55060,"JOSTENS INC - SOUTHTOWN.1900 HARTLE AVE, OWATONNA MINNESOTA 55060 (STEELE)",0,C,,110000497427
55060MSTNGCOUNT,-93.242,44.1,False,27,147,960400,27,27147,27147960400,1400000US27147960400,MUSTANG MFG CO INC,1605 COUNTY RD 45 N,OWATONNA,MN,55060,"MUSTANG MFG CO INC.1605 COUNTY RD 45 N, OWATONNA MINNESOTA 55060 (STEELE)",0,C,,
55060NTNLC21254,-93.251,44.088,False,27,147,960400,27,27147,27147960400,1400000US27147960400,NATIONAL COMPUTER SYSTEMS INC,2125 4TH ST NW,OWATONNA,MN,55060,"NATIONAL COMPUTER SYSTEMS INC.2125 4TH ST NW, OWATONNA MINNESOTA 55060 (STEELE)",0,C,,
55060SPXCR655EI,-93.23899999999999,44.093999999999994,False,27,147,960400,27,27147,27147960400,1400000US27147960400,BOSCH AUTOMOTIVE SERVICE SOLUTIONS LLC,655 EISENHOWER DR,OWATONNA,MN,55060,"BOSCH AUTOMOTIVE SERVICE SOLUTIONS LLC.655 EISENHOWER DR, OWATONNA MINNESOTA 55060 (STEELE)",0,C,,110001442653
55060TRTHH700WB,-93.244,44.083999999999996,False,27,147,960400,27,27147,27147960400,1400000US27147960400,TRUTH HARDWARE CORP-OWATONNA,700 W BRIDGE ST,OWATONNA,MN,55060,"TRUTH HARDWARE CORP-OWATONNA.700 W BRIDGE ST, OWATONNA MINNESOTA 55060 (STEELE)",0,C,,110000742803
55060VRCNN800PA,-93.249,44.09,False,27,147,960400,27,27147,27147960400,1400000US27147960400,VIRACON INC,800 PARK DR,OWATONNA,MN,55060,"VIRACON INC.800 PARK DR, OWATONNA MINNESOTA 55060 (STEELE)",0,C,,110000423836
55060TCPNT20524,-93.257,44.08,False,27,147,960400,27,27147,27147960400,1400000US27147960400,TRUTH HARDWARE PAINT PLANT,205 24TH AVE SW,OWATONNA,MN,55060,"TRUTH HARDWARE PAINT PLANT.205 24TH AVE SW, OWATONNA MINNESOTA 55060 (STEELE)",0,C,,
55060MCQYN10012,-93.25299999999999,44.093999999999994,False,27,147,960400,27,27147,27147960400,1400000US27147960400,DAIKIN APPLIED OWATONNA MN,1001 21ST AVE NW,OWATONNA,MN,55060,"DAIKIN APPLIED OWATONNA MN.1001 21ST AVE NW, OWATONNA MINNESOTA 55060 (STEELE)",0,C,,110001131025
55060CRWNC2929W,-93.26100000000001,44.083999999999996,False,27,147,960400,27,27147,27147960400,1400000US27147960400,CROWN FOOD PACKAGING,2929 W BRIDGE ST,OWATONNA,MN,55060,"CROWN FOOD PACKAGING.2929 W BRIDGE ST, OWATONNA MINNESOTA 55060 (STEELE)",0,C,,110000423809
55060SLDLL2355L,-93.255,44.07,False,27,147,960400,27,27147,27147960400,1400000US27147960400,SLIDELL INC,2355 LEMOND RD,OWATONNA,MN,55060,"SLIDELL INC.2355 LEMOND RD, OWATONNA MINNESOTA 55060 (STEELE)",0,C,,
55060LNDLK80024,-93.257,44.09,False,27,147,960400,27,27147,27147960400,1400000US27147960400,LAND O'LAKES FARMLAND FEED,800 24TH AVE NW,OWATONNA,MN,55060,"LAND O'LAKES FARMLAND FEED.800 24TH AVE NW, OWATONNA MINNESOTA 55060 (STEELE)",0,C,,
55060SPXSR23PAR,-93.255,44.092,False,27,147,960400,27,27147,27147960400,1400000US27147960400,LEE HOLDINGS,2300 PARK DR,OWATONNA,MN,55060,"LEE HOLDINGS.2300 PARK DR, OWATONNA MINNESOTA 55060 (STEELE)",0,C,,110008688777
55060WNGRC555PA,-93.249,44.089,False,27,147,960400,27,27147,27147960400,1400000US27147960400,WENGER CORP,555 PARK DR,OWATONNA,MN,55060,"WENGER CORP.555 PARK DR, OWATONNA MINNESOTA 55060 (STEELE)",0,C,,110003745485
55060CYBXN15124,-93.257,44.085,False,27,147,960400,27,27147,27147960400,1400000US27147960400,CYBEX INTERNATIONAL,151 24TH AVE NW,OWATONNA,MN,55060,"CYBEX INTERNATIONAL.151 24TH AVE NW, OWATONNA MINNESOTA 55060 (STEELE)",0,C,,110003797017
5506WMCQYN169ST,-93.236,44.096000000000004,False,27,147,960400,27,27147,27147960400,1400000US27147960400,DAIKIN APPLIED,1609 STATE AVENUE N.W.,OWATONNA,MN,55060,"DAIKIN APPLIED.1609 STATE AVENUE N.W., OWATONNA MINNESOTA 55060 (STEELE)",0,C,,110038119880
5506WCCMWT639RI,-93.23200000000001,44.091,False,27,147,960400,27,27147,27147960400,1400000US27147960400,CCM - OWATONNA,639 RIVERSIDE AVE,OWATONNA,MN,55060,"CCM - OWATONNA.639 RIVERSIDE AVE, OWATONNA MINNESOTA 55060 (STEELE)",0,C,,110060261577
55063MCMPN4002N,-92.96600000000001,45.826,False,27,115,950700,27,27115,27115950700,1400000US27115950700,3M CO PINE CITY PLANT,400 2ND ST,PINE CITY,MN,550630089,"3M CO PINE CITY PLANT.400 2ND ST, PINE CITY MINNESOTA 55063 (PINE)",0,C,,
55066RCHRD118MA,-92.53200000000001,44.568000000000005,False,27,049,080200,27,27049,27049080200,1400000US27049080200,409 - RED WING OILSEEDS PLANT,118 MAIN ST,RED WING,MN,55066,"409 - RED WING OILSEEDS PLANT.118 MAIN ST, RED WING MINNESOTA 55066 (GOODHUE)",0,C,,110000497436
55066RDWNG129MA,-92.53200000000001,44.568000000000005,False,27,049,080200,27,27049,27049080200,1400000US27049080200,RED WING SHOE CO INC PLANT 1,129 MAIN ST,RED WING,MN,55066,"RED WING SHOE CO INC PLANT 1.129 MAIN ST, RED WING MINNESOTA 55066 (GOODHUE)",0,C,,
55066RDWNG135CA,-92.59700000000001,44.576,False,27,049,080200,27,27049,27049080200,1400000US27049080200,RED WING SHOE PLANT 2,135 CANNON RIVER DR,RED WING,MN,55066,"RED WING SHOE PLANT 2.135 CANNON RIVER DR, RED WING MINNESOTA 55066 (GOODHUE)",0,C,,110000423854
55066RVRCB3680V,-92.601,44.575,False,27,049,080200,27,27049,27049080200,1400000US27049080200,RIVERA CABINETS,3860 VERMILLION ST,RED WING,MN,55066,"RIVERA CABINETS.3860 VERMILLION ST, RED WING MINNESOTA 55066 (GOODHUE)",0,C,,
55066SBFTTBENCH,-92.566,44.559,False,27,049,080200,27,27049,27049080200,1400000US27049080200,S B FOOT TANNING CO,805 BENCH ST,RED WING,MN,55066,"S B FOOT TANNING CO.805 BENCH ST, RED WING MINNESOTA 55066 (GOODHUE)",0,C,,110013867592
55066DRKTW4079P,-92.605,44.57899999999999,False,27,049,080200,27,27049,27049080200,1400000US27049080200,CARLISLE POWER TRANSMISSION PRODUCTS,4079 PEPIN AVE,RED WING,MN,55066,"CARLISLE POWER TRANSMISSION PRODUCTS.4079 PEPIN AVE, RED WING MINNESOTA 55066 (GOODHUE)",0,C,,
55066SGNTR27384,-92.484,44.556999999999995,False,27,049,080200,27,27049,27049080200,1400000US27049080200,USG INTERIORS LLC,27384 HIGHWAY 61 BLVD,RED WING,MN,55066,"USG INTERIORS LLC.27384 HIGHWAY 61 BLVD, RED WING MINNESOTA 55066 (GOODHUE)",0,C,,110000594401
55066CNTRL3965P,-92.604,44.578,False,27,049,080200,27,27049,27049080200,1400000US27049080200,CENTRAL RESEARCH LABORATORIES,3965 PEPIN AVE,RED WING,MN,55066,"CENTRAL RESEARCH LABORATORIES.3965 PEPIN AVE, RED WING MINNESOTA 55066 (GOODHUE)",0,C,,110003916889
5506WCMSTN27592,-92.48,44.556000000000004,False,27,049,080200,27,27049,27049080200,1400000US27049080200,CCM - RED WING,27592 HIGHWAY 61 BLVD,RED WING,MN,55066,"CCM - RED WING.27592 HIGHWAY 61 BLVD, RED WING MINNESOTA 55066 (GOODHUE)",0,C,,110069277464
55068CNTNN12995,-93.025,44.762,False,27,037,061003,27,27037,27037061003,1400000US27037061003,CONTINENTAL NITROGEN & RESOURCES CORP,12955 COURTHOUSE BLVD,ROSEMOUNT,MN,550682613,"CONTINENTAL NITROGEN & RESOURCES CORP.12955 COURTHOUSE BLVD, ROSEMOUNT MINNESOTA 55068 (DAKOTA)",0,C,,
55068SPCTL13220,-93.01299999999999,44.758,False,27,037,061003,27,27037,27037061003,1400000US27037061003,SPECTRO ALLOYS CORP,13220 DOYLE PATH,ROSEMOUNT,MN,55068,"SPECTRO ALLOYS CORP.13220 DOYLE PATH, ROSEMOUNT MINNESOTA 55068 (DAKOTA)",0,C,,110000423907
55164KCHRFPOBOA,-93.021,44.76,False,27,037,061003,27,27037,27037061003,1400000US27037061003,FLINT HILLS RESOURCES LP,13155 COURTHOUSE BLVD,ROSEMOUNT,MN,55068,"FLINT HILLS RESOURCES LP.13155 COURTHOUSE BLVD, ROSEMOUNT MINNESOTA 55068 (DAKOTA)",0,C,,
55164KCHRFPOBOX,-93.041,44.768,False,27,037,061003,27,27037,27037061003,1400000US27037061003,FLINT HILLS RESOURCES PINE BEND LLC,13775 CLARK RD,ROSEMOUNT,MN,55068,"FLINT HILLS RESOURCES PINE BEND LLC.13775 CLARK RD, ROSEMOUNT MINNESOTA 55068 (DAKOTA)",0,C,,110000424611
55068DPCND12800,-93.03299999999999,44.763000000000005,False,27,037,061003,27,27037,27037061003,1400000US27037061003,DPC INDUSTRIES INC,12800 PINE BEND TRAIL,ROSEMOUNT,MN,55068,"DPC INDUSTRIES INC.12800 PINE BEND TRAIL, ROSEMOUNT MINNESOTA 55068 (DAKOTA)",0,C,,110000423881
5506WHKWNS135CU,-93.025,44.762,False,27,037,061003,27,27037,27037061003,1400000US27037061003,HAWKINS INC - ROSEMOUNT,13005 COURTHOUSE BOULEVARD,ROSEMOUNT,MN,55068,"HAWKINS INC - ROSEMOUNT.13005 COURTHOUSE BOULEVARD, ROSEMOUNT MINNESOTA 55068 (DAKOTA)",0,C,,110060258661
55069LNDLK404EA,-92.979,45.55,False,27,025,110301,27,27025,27025110301,1400000US27025110301,ZINPRO CORP,6375 415TH ST,NORTH BRANCH,MN,55056,"ZINPRO CORP.6375 415TH ST, NORTH BRANCH MINNESOTA 55056 (CHISAGO)",0,C,,110003843903
55056PRDCTINDUS,-92.97,45.516999999999996,False,27,025,110301,27,27025,27025110301,1400000US27025110301,PRODUCT FABRICATORS INC,"302 1ST AVE, INDUSTRIAL PARK",NORTH BRANCH,MN,55056,"PRODUCT FABRICATORS INC.302 1ST AVE, INDUSTRIAL PARK, NORTH BRANCH MINNESOTA 55056 (CHISAGO)",0,C,,
55056CHNKGCORD3,-92.978,45.549,False,27,025,110301,27,27025,27025110301,1400000US27025110301,CHINOOK GROUP INC,41420 FOREST BLVD AT CITY RD 415,NORTH BRANCH,MN,55056,"CHINOOK GROUP INC.41420 FOREST BLVD AT CITY RD 415, NORTH BRANCH MINNESOTA 55056 (CHISAGO)",0,C,,
55056NDRSN39811,-92.976,45.526,False,27,025,110301,27,27025,27025110301,1400000US27025110301,ANDERSEN EXTRUSION NORTH BRANCH,39811 GOLDEN AVE,NORTH BRANCH,MN,55056,"ANDERSEN EXTRUSION NORTH BRANCH.39811 GOLDEN AVE, NORTH BRANCH MINNESOTA 55056 (CHISAGO)",0,C,,110020468796
55071SHLND100WT,-93.00200000000001,44.851000000000006,False,27,163,071300,27,27163,27163071300,1400000US27163071300,ST PAUL PARK REFINING CO LLC,301 ST PAUL PARK RD,SAINT PAUL PARK,MN,55071,"ST PAUL PARK REFINING CO LLC.301 ST PAUL PARK RD, SAINT PAUL PARK MINNESOTA 55071 (WASHINGTON)",0,C,,110043813816
55075CNXFR11600,-93.03399999999999,44.781000000000006,False,27,037,060509,27,27037,27037060509,1400000US27037060509,CHS INC LUBRICANTS PLANT,11600 COURTHO US E BLVD,INVER GROVE HEIGHTS,MN,55076,"CHS INC LUBRICANTS PLANT.11600 COURTHO US E BLVD, INVER GROVE HEIGHTS MINNESOTA 55076 (DAKOTA)",0,C,,110009400380
55076LNDLK37631,-93.029,44.778999999999996,False,27,037,060509,27,27037,27037060509,1400000US27037060509,LAND O'LAKES PURINA FEED LLC - INVER GROVE HEIGHTS,3763 117TH ST E,INVER GROVE HEIGHTS,MN,55077,"LAND O'LAKES PURINA FEED LLC - INVER GROVE HEIGHTS.3763 117TH ST E, INVER GROVE HEIGHTS MINNESOTA 55077 (DAKOTA)",0,C,,110000423970
55075NNCRBHWY55,-93.039,44.782,False,27,037,060508,27,27037,27037060508,1400000US27037060508,UNION CARBIDE INDUSTRIAL GASES INC,HWY 55 & 117TH ST,INVER GROVE HEIGHTS,MN,55075,"UNION CARBIDE INDUSTRIAL GASES INC.HWY 55 & 117TH ST, INVER GROVE HEIGHTS MINNESOTA 55075 (DAKOTA)",0,C,,
55077NVRHL31851,-93.042,44.782,False,27,037,060508,27,27037,27037060508,1400000US27037060508,INVER HILLS GENERATING PLANT,3185 117TH ST E,INVER GROVE HEIGHTS,MN,55077,"INVER HILLS GENERATING PLANT.3185 117TH ST E, INVER GROVE HEIGHTS MINNESOTA 55077 (DAKOTA)",0,C,,110001829610
55075TWNCT501MA,-93.02600000000001,44.875,False,27,037,060402,27,27037,27037060402,1400000US27037060402,TWIN CITY TANNING CO LLP,501 MALDEN ST,SOUTH SAINT PAUL,MN,55075,"TWIN CITY TANNING CO LLP.501 MALDEN ST, SOUTH SAINT PAUL MINNESOTA 55075 (DAKOTA)",0,C,,110000423943
55075VNHVN505HA,-93.024,44.886,False,27,037,060301,27,27037,27037060301,1400000US27037060301,SANIMAX USA LLC,545 HARDMAN AVE SOUTH,SOUTH SAINT PAUL,MN,55075,"SANIMAX USA LLC.545 HARDMAN AVE SOUTH, SOUTH SAINT PAUL MINNESOTA 55075 (DAKOTA)",0,C,,110000423952
55075WTRSC300JO,-93.03,44.893,False,27,037,060301,27,27037,27037060301,1400000US27037060301,WATEROUS CO INC,125 HARDMAN AVE S,SOUTH SAINT PAUL,MN,55075,"WATEROUS CO INC.125 HARDMAN AVE S, SOUTH SAINT PAUL MINNESOTA 55075 (DAKOTA)",0,C,,110000423961
55075DKTPR425SC,-93.03200000000001,44.886,False,27,037,060301,27,27037,27037060301,1400000US27037060301,DAKOTA PREMIUM FOODS,425 CONCORD ST,SOUTH SAINT PAUL,MN,550752450,"DAKOTA PREMIUM FOODS.425 CONCORD ST, SOUTH SAINT PAUL MINNESOTA 55075 (DAKOTA)",0,C,,
55075NDRNC275BR,-93.029,44.89,False,27,037,060301,27,27037,27037060301,1400000US27037060301,ENDURANCE TECHNOLOGIES INC,275 BRIDGE POINT WAY,SOUTH SAINT PAUL,MN,55075,"ENDURANCE TECHNOLOGIES INC.275 BRIDGE POINT WAY, SOUTH SAINT PAUL MINNESOTA 55075 (DAKOTA)",0,C,,110003932291
5507WRGSSP458FA,-93.027,44.883,False,27,037,060301,27,27037,27037060301,1400000US27037060301,AIRGAS SPECIALTY PRODUCTS INC S ST PAUL MN,458 FARWELL AVE,SOUTH SAINT PAUL,MN,55075,"AIRGAS SPECIALTY PRODUCTS INC S ST PAUL MN.458 FARWELL AVE, SOUTH SAINT PAUL MINNESOTA 55075 (DAKOTA)",0,C,,110000544698
55080LNDLKHWY47,-93.396,45.659,False,27,059,130100,27,27059,27059130100,1400000US27059130100,LAND O'LAKES INC  DALBO,HWY 47,DALBO,MN,55080,"LAND O'LAKES INC  DALBO.HWY 47, DALBO MINNESOTA 55080 (ISANTI)",0,C,,
55092DVRSF25900,-93.0,45.325,False,27,025,110401,27,27025,27025110401,1400000US27025110401,DIVERSIFIED PRODUCTS INC,25900 FALLBROOK AVE,WYOMING,MN,55092,"DIVERSIFIED PRODUCTS INC.25900 FALLBROOK AVE, WYOMING MINNESOTA 55092 (CHISAGO)",0,C,,
55092SNRSF26467,-93.001,45.332,False,27,025,110401,27,27025,27025110401,1400000US27025110401,SUNRISE FIBERGLASS CORP,26467 FALLBROOK AVE S,WYOMING,MN,55092,"SUNRISE FIBERGLASS CORP.26467 FALLBROOK AVE S, WYOMING MINNESOTA 55092 (CHISAGO)",1,C,,
55092SNRSF51752,-93.00200000000001,45.326,False,27,025,110401,27,27025,27025110401,1400000US27025110401,SUNRISE FIBERGLASS LLC,5175 260TH ST,WYOMING,MN,55092,"SUNRISE FIBERGLASS LLC.5175 260TH ST, WYOMING MINNESOTA 55092 (CHISAGO)",0,C,,110007631580
55101BCKBM245E6,-93.087,44.951,False,27,123,034202,27,27123,27123034202,1400000US27123034202,BUCKBEE-MEARS ST PAUL,245 6TH ST E,SAINT PAUL,MN,551011918,"BUCKBEE-MEARS ST PAUL.245 6TH ST E, SAINT PAUL MINNESOTA 55101 (RAMSEY)",0,C,,
55101THGLL5THAT,-93.084,44.951,False,27,123,034201,27,27123,27123034201,1400000US27123034201,DIAMOND PRODUCTS CO,310 E FIFTH ST,SAINT PAUL,MN,55101,"DIAMOND PRODUCTS CO.310 E FIFTH ST, SAINT PAUL MINNESOTA 55101 (RAMSEY)",0,C,,110000424014
55102JCBSC882W7,-93.125,44.928999999999995,False,27,123,036900,27,27123,27123036900,1400000US27123036900,MBC HOLDING CO,882 W 7TH ST,SAINT PAUL,MN,55102,"MBC HOLDING CO.882 W 7TH ST, SAINT PAUL MINNESOTA 55102 (RAMSEY)",0,C,,
55102MTLCT560RA,-93.124,44.927,False,27,123,036900,27,27123,27123036900,1400000US27123036900,METALCOTE GREASE & OIL CO,560 RANDOLPH AVE,SAINT PAUL,MN,55102,"METALCOTE GREASE & OIL CO.560 RANDOLPH AVE, SAINT PAUL MINNESOTA 55102 (RAMSEY)",1,C,,
55102NCHRH224RY,-93.101,44.942,False,27,123,036000,27,27123,27123036000,1400000US27123036000,TAMOR CORP,224 RYAN AVE,SAINT PAUL,MN,551020830,"TAMOR CORP.224 RYAN AVE, SAINT PAUL MINNESOTA 55102 (RAMSEY)",1,C,,
55102SHLND395JA,-93.117,44.928000000000004,False,27,123,036000,27,27123,27123036000,1400000US27123036000,"NEXEO SOLUTIONS, LLC",395 JAMES AVE.,ST. PAUL,MN,55102,"NEXEO SOLUTIONS, LLC.395 JAMES AVE., ST. PAUL MINNESOTA 55102 (RAMSEY)",0,C,,110000424050
55102HGHBR501SH,-93.11200000000001,44.931999999999995,False,27,123,036000,27,27123,27123036000,1400000US27123036000,EXCEL ENERGY HIGH BRIDGE GENERATING PLANT,501 SHEPARD RD,SAINT PAUL,MN,55102,"EXCEL ENERGY HIGH BRIDGE GENERATING PLANT.501 SHEPARD RD, SAINT PAUL MINNESOTA 55102 (RAMSEY)",0,C,,110000424032
55104CPRTV1605I,-93.16799999999999,44.95,False,27,123,033400,27,27123,27123033400,1400000US27123033400,CO-OPERATIVE PLATING CO,1605 IGLEHART AVE,SAINT PAUL,MN,55104,"CO-OPERATIVE PLATING CO.1605 IGLEHART AVE, SAINT PAUL MINNESOTA 55104 (RAMSEY)",0,C,,110000424069
55104LSNTR1457I,-93.162,44.949,False,27,123,033400,27,27123,27123033400,1400000US27123033400,LOES ENTERPRISES INC,1457 IGLEHART AVE,SAINT PAUL,MN,55104,"LOES ENTERPRISES INC.1457 IGLEHART AVE, SAINT PAUL MINNESOTA 55104 (RAMSEY)",0,C,,110000424096
55104RYVNN431NG,-93.152,44.95399999999999,False,27,123,033400,27,27123,27123033400,1400000US27123033400,RAYVEN INC,431 N GRIGGS ST,SAINT PAUL,MN,55104,"RAYVEN INC.431 N GRIGGS ST, SAINT PAUL MINNESOTA 55104 (RAMSEY)",0,C,,
55104DLXCR530NW,-93.175,44.957,False,27,123,032000,27,27123,27123032000,1400000US27123032000,DELUXE BUSINESS SYSTEMS,530 N WHEELER ST,SAINT PAUL,MN,55104,"DELUXE BUSINESS SYSTEMS.530 N WHEELER ST, SAINT PAUL MINNESOTA 55104 (RAMSEY)",0,C,,
55104PLTNG888NO,-93.182,44.968,False,27,123,032000,27,27123,27123032000,1400000US27123032000,PLATING INC,888 PRIOR AVE N,SAINT PAUL,MN,55104,"PLATING INC.888 PRIOR AVE N, SAINT PAUL MINNESOTA 55104 (RAMSEY)",0,C,,110014341284
55104MCGLL655FA,-93.177,44.961000000000006,False,27,123,032000,27,27123,27123032000,1400000US27123032000,MCGILL JENSEN INC,655 FAIRVIEW AVE N,SAINT PAUL,MN,55104,"MCGILL JENSEN INC.655 FAIRVIEW AVE N, SAINT PAUL MINNESOTA 55104 (RAMSEY)",0,C,,
55104MRCNN755NO,-93.182,44.964,False,27,123,032000,27,27123,27123032000,1400000US27123032000,SILGAN CONTAINERS MANUFACTURIN G CORP,755 N PRIOR AVE,SAINT PAUL,MN,55104,"SILGAN CONTAINERS MANUFACTURIN G CORP.755 N PRIOR AVE, SAINT PAUL MINNESOTA 55104 (RAMSEY)",0,C,,110003769093
55104HRCRS584NF,-93.177,44.958999999999996,False,27,123,032000,27,27123,27123032000,1400000US27123032000,HARCROS CHEMICALS INC,584 N FAIRVIEW AVE,SAINT PAUL,MN,55104,"HARCROS CHEMICALS INC.584 N FAIRVIEW AVE, SAINT PAUL MINNESOTA 55104 (RAMSEY)",0,C,,110000424078
55104HTMFG550NW,-93.175,44.958,False,27,123,032000,27,27123,27123032000,1400000US27123032000,HUOT MANUFACTURING CO,550 NORTH WHEELER AVE,SAINT PAUL,MN,55104,"HUOT MANUFACTURING CO.550 NORTH WHEELER AVE, SAINT PAUL MINNESOTA 55104 (RAMSEY)",0,C,,
55104SPRTN630PI,-93.12799999999999,44.964,False,27,123,032400,27,27123,27123032400,1400000US27123032400,SPARTAN MFG CO INC,630 PIERCE BUTLER RTE,SAINT PAUL,MN,55104,"SPARTAN MFG CO INC.630 PIERCE BUTLER RTE, SAINT PAUL MINNESOTA 55104 (RAMSEY)",1,C,,
55104STPLB954WE,-93.141,44.963,False,27,123,032400,27,27123,27123032400,1400000US27123032400,ST PAUL BRASS FOUNDRY CO,954 W MINNEHAHA AVE,SAINT PAUL,MN,55104,"ST PAUL BRASS FOUNDRY CO.954 W MINNEHAHA AVE, SAINT PAUL MINNESOTA 55104 (RAMSEY)",0,C,,110003745403
55106GLBBL1120E,-93.053,44.967,False,27,123,031701,27,27123,27123031701,1400000US27123031701,GLOBE BUILDING MATERIALS INC,1120 E 7TH ST,SAINT PAUL,MN,55106,"GLOBE BUILDING MATERIALS INC.1120 E 7TH ST, SAINT PAUL MINNESOTA 55106 (RAMSEY)",0,C,,
55106KCHMT2209C,-93.046,44.93,False,27,123,980000,27,27123,27123980000,1400000US27123980000,FLINT HILLS RESOURCES PINE BEND LLC ST PAUL,2209 CHILDS RD,SAINT PAUL,MN,55106,"FLINT HILLS RESOURCES PINE BEND LLC ST PAUL.2209 CHILDS RD, SAINT PAUL MINNESOTA 55106 (RAMSEY)",0,C,,110001444884
55106PMGPR2225C,-93.046,44.93,False,27,123,980000,27,27123,27123980000,1400000US27123980000,PM AG PRODS INC,2225 CHILDS RD,SAINT PAUL,MN,551066796,"PM AG PRODS INC.2225 CHILDS RD, SAINT PAUL MINNESOTA 55106 (RAMSEY)",0,C,,
55106VLTXC1125C,-93.052,44.942,False,27,123,980000,27,27123,27123980000,1400000US27123980000,HAWKINS TERMINAL I,1125 CHILDS RD,SAINT PAUL,MN,551066072,"HAWKINS TERMINAL I.1125 CHILDS RD, SAINT PAUL MINNESOTA 55106 (RAMSEY)",0,C,,110000424149
55119NRTHS1678R,-93.01100000000001,44.891000000000005,False,27,123,980000,27,27123,27123980000,1400000US27123980000,GERDAU AMERISTEEL ST PAUL MILL,1678 RED ROCK RD,SAINT PAUL,MN,55119,"GERDAU AMERISTEEL ST PAUL MILL.1678 RED ROCK RD, SAINT PAUL MINNESOTA 55119 (RAMSEY)",0,C,,110000424452
55119HWKNS1425R,-93.01700000000001,44.898999999999994,False,27,123,980000,27,27123,27123980000,1400000US27123980000,HAWKINS WATER TREATMENT GROUP - RED ROCK,1425 RED ROCK RD,SAINT PAUL,MN,55119,"HAWKINS WATER TREATMENT GROUP - RED ROCK.1425 RED ROCK RD, SAINT PAUL MINNESOTA 55119 (RAMSEY)",0,C,,110002349245
55119MSDVT1678R,-93.01100000000001,44.891000000000005,False,27,123,980000,27,27123,27123980000,1400000US27123980000,TUBE CITY IMS,1678 RED ROCK RD,SAINT PAUL,MN,55119,"TUBE CITY IMS.1678 RED ROCK RD, SAINT PAUL MINNESOTA 55119 (RAMSEY)",0,C,,110008706114
55106CMSTN936CH,-93.055,44.943000000000005,False,27,123,980000,27,27123,27123980000,1400000US27123980000,CEMSTONE - CHILDS ROAD,936 CHILDS RD,SAINT PAUL,MN,55106,"CEMSTONE - CHILDS ROAD.936 CHILDS RD, SAINT PAUL MINNESOTA 55106 (RAMSEY)",0,C,,110008823498
5510WWSTWY2229C,-93.04700000000001,44.928999999999995,False,27,123,980000,27,27123,27123980000,1400000US27123980000,WESTWAY FEED PRODUCTS LLC,2229 CHILDS RD,ST. PAUL,MN,55106,"WESTWAY FEED PRODUCTS LLC.2229 CHILDS RD, ST. PAUL MINNESOTA 55106 (RAMSEY)",0,C,,110064374911
55106NBLSN645E7,-93.075,44.958,False,27,123,033100,27,27123,27123033100,1400000US27123033100,NOBLES MANUFACTURING INC,645 E 7TH ST,SAINT PAUL,MN,551065093,"NOBLES MANUFACTURING INC.645 E 7TH ST, SAINT PAUL MINNESOTA 55106 (RAMSEY)",0,C,,
55106THSTR707EM,-93.072,44.963,False,27,123,033100,27,27123,27123033100,1400000US27123033100,STROH BREWERY CO,707 E MINNEHAHA,SAINT PAUL,MN,55106,"STROH BREWERY CO.707 E MINNEHAHA, SAINT PAUL MINNESOTA 55106 (RAMSEY)",0,C,,
55144MSNTP900BU,-93.06299999999999,44.964,False,27,123,033100,27,27123,27123033100,1400000US27123033100,3M CO - ST. PAUL EASTSIDE SITE,751 MENDOTA ST,SAINT PAUL,MN,55106,"3M CO - ST. PAUL EASTSIDE SITE.751 MENDOTA ST, SAINT PAUL MINNESOTA 55106 (RAMSEY)",0,C,,110001850426
55107CHCHM222ST,-93.085,44.937,False,27,123,037100,27,27123,27123037100,1400000US27123037100,SEACOLE - C&H,222 STARKEY ST,SAINT PAUL,MN,55107,"SEACOLE - C&H.222 STARKEY ST, SAINT PAUL MINNESOTA 55107 (RAMSEY)",0,C,,110008824978
55107GRSSG75WES,-93.09100000000001,44.937,False,27,123,037100,27,27123,27123037100,1400000US27123037100,AUTOMATIC PRODUCTS INTERNATIONAL LTD,75 W PLATO BLVD,SAINT PAUL,MN,55107,"AUTOMATIC PRODUCTS INTERNATIONAL LTD.75 W PLATO BLVD, SAINT PAUL MINNESOTA 55107 (RAMSEY)",0,C,,110000424176
55107MDNNR252WE,-93.09700000000001,44.935,False,27,123,037100,27,27123,27123037100,1400000US27123037100,MODINE N CENTRAL INC,252 W WATER ST,SAINT PAUL,MN,55107,"MODINE N CENTRAL INC.252 W WATER ST, SAINT PAUL MINNESOTA 55107 (RAMSEY)",0,C,,
55107BRWNB345PL,-93.09700000000001,44.93600000000001,False,27,123,037100,27,27123,27123037100,1400000US27123037100,BROWN & BIGELOW INC,345 PLATO BLVD E,SAINT PAUL,MN,55107,"BROWN & BIGELOW INC.345 PLATO BLVD E, SAINT PAUL MINNESOTA 55107 (RAMSEY)",0,C,,
55107MXXXX42WES,-93.09100000000001,44.93899999999999,False,27,123,037100,27,27123,27123037100,1400000US27123037100,3M CO,42 W WATER ST,SAINT PAUL,MN,55107,"3M CO.42 W WATER ST, SAINT PAUL MINNESOTA 55107 (RAMSEY)",0,C,,
55107JLWRC268WA,-93.098,44.935,False,27,123,037100,27,27123,27123037100,1400000US27123037100,J & L WIRE CLOTH CO INC,268 W WATER ST,SAINT PAUL,MN,55107,"J & L WIRE CLOTH CO INC.268 W WATER ST, SAINT PAUL MINNESOTA 55107 (RAMSEY)",0,C,,110008058733
55101THDLC149SO,-93.085,44.941,True,27,123,037100,27,27123,27123037100,1400000US27123037100,DIAL CORP,149 S ROBERT ST,SAINT PAUL,MN,55101,"DIAL CORP 149 S ROBERT ST, SAINT PAUL, MN, 55101",0,C,,
55107CNTRY155EA,-93.07799999999999,44.935,False,27,123,036100,27,27123,27123036100,1400000US27123036100,MOLEX COPPER FLEX PRODUCTS,155 EATON ST,SAINT PAUL,MN,55107,"MOLEX COPPER FLEX PRODUCTS.155 EATON ST, SAINT PAUL MINNESOTA 55107 (RAMSEY)",0,C,,110000424167
55107MRCNN139EV,-93.081,44.941,False,27,123,036100,27,27123,27123036100,1400000US27123036100,REXAM BEVERAGE CAN CO,139 EVA ST,SAINT PAUL,MN,55107,"REXAM BEVERAGE CAN CO.139 EVA ST, SAINT PAUL MINNESOTA 55107 (RAMSEY)",0,C,,110000424185
55107KPLNP403FI,-93.075,44.943999999999996,False,27,123,036100,27,27123,27123036100,1400000US27123036100,AMERICRAFT CARTON INC,403 FILLMORE AVE E,SAINT PAUL,MN,55107,"AMERICRAFT CARTON INC.403 FILLMORE AVE E, SAINT PAUL MINNESOTA 55107 (RAMSEY)",0,C,,
55107VKNGD355ST,-93.07600000000001,44.935,False,27,123,036100,27,27123,27123036100,1400000US27123036100,VIKING DRILL & TOOL INC,355 STATE ST,SAINT PAUL,MN,55107,"VIKING DRILL & TOOL INC.355 STATE ST, SAINT PAUL MINNESOTA 55107 (RAMSEY)",0,C,,110000424194
5510WPRFND51STA,-93.081,44.943999999999996,False,27,123,036100,27,27123,27123036100,1400000US27123036100,PIER FOUNDRY & PATTERN SHOP INC,51 STATE ST,SAINT PAUL,MN,55107,"PIER FOUNDRY & PATTERN SHOP INC.51 STATE ST, SAINT PAUL MINNESOTA 55107 (RAMSEY)",0,C,,110001438668
55108GNRLF1800C,-93.177,44.977,False,27,123,030100,27,27123,27123030100,1400000US27123030100,GENERAL FOAM OF MINNESOTA INC,1800 COMO AVE,SAINT PAUL,MN,55108,"GENERAL FOAM OF MINNESOTA INC.1800 COMO AVE, SAINT PAUL MINNESOTA 55108 (RAMSEY)",0,C,,
55108HBFLL2400E,-93.198,44.976000000000006,False,27,123,030100,27,27123,27123030100,1400000US27123030100,H B FULLER CO,2400 ENERGY PARK DR,SAINT PAUL,MN,55108,"H B FULLER CO.2400 ENERGY PARK DR, SAINT PAUL MINNESOTA 55108 (RAMSEY)",0,C,,
55164HMSMY1085S,-93.167,44.974,False,27,123,030100,27,27123,27123030100,1400000US27123030100,H M SMYTH CO INC,1085 SNELLING AVE NORTH,SAINT PAUL,MN,55108,"H M SMYTH CO INC.1085 SNELLING AVE NORTH, SAINT PAUL MINNESOTA 55108 (RAMSEY)",0,C,,
55108TKRMT2492D,-93.204,44.981,False,27,123,030100,27,27123,27123030100,1400000US27123030100,IVC NORTH INC (DBA TI KROMATIC INDUSTRIAL),2492 DOSWELL AVE,SAINT PAUL,MN,55108,"IVC NORTH INC (DBA TI KROMATIC INDUSTRIAL).2492 DOSWELL AVE, SAINT PAUL MINNESOTA 55108 (RAMSEY)",0,C,,110000424210
55108LTHSP1280E,-93.15299999999999,44.971000000000004,False,27,123,030202,27,27123,27123030202,1400000US27123030202,LITHO SPECIALTIES INC,1280 ENERGY PARK DR,SAINT PAUL,MN,55108,"LITHO SPECIALTIES INC.1280 ENERGY PARK DR, SAINT PAUL MINNESOTA 55108 (RAMSEY)",0,C,,
55108TSYST1200E,-93.149,44.971000000000004,False,27,123,030202,27,27123,27123030202,1400000US27123030202,ETA SYS INC MFG,1200 ENERGY PARK DR,SAINT PAUL,MN,55108,"ETA SYS INC MFG.1200 ENERGY PARK DR, SAINT PAUL MINNESOTA 55108 (RAMSEY)",0,C,,
55110HBFLL3200L,-93.057,45.038999999999994,False,27,123,040604,27,27123,27123040604,1400000US27123040604,H B FULLER CO INDUSTRIAL COATINGS DIV,3200 LABORE RD,VADNAIS HEIGHTS,MN,55110,"H B FULLER CO INDUSTRIAL COATINGS DIV.3200 LABORE RD, VADNAIS HEIGHTS MINNESOTA 55110 (RAMSEY)",0,C,,110002373912
55110NTRPL1219W,-93.052,45.047,False,27,123,040604,27,27123,27123040604,1400000US27123040604,INTERPLASTIC CORP,1219 WILLOW LAKE BLVD,VADNAIS HEIGHTS,MN,55110,"INTERPLASTIC CORP.1219 WILLOW LAKE BLVD, VADNAIS HEIGHTS MINNESOTA 55110 (RAMSEY)",0,C,,110000424256
55110MPTCL1185W,-93.054,45.047,False,27,123,040604,27,27123,27123040604,1400000US27123040604,3M CO OPTICAL RECORDING DEPT,1185 WOLTERS BLVD,VADNAIS HEIGHTS,MN,55110,"3M CO OPTICAL RECORDING DEPT.1185 WOLTERS BLVD, VADNAIS HEIGHTS MINNESOTA 55110 (RAMSEY)",0,C,,
55110HBFLL3450L,-93.056,45.04600000000001,False,27,123,040604,27,27123,27123040604,1400000US27123040604,HB FULLER PILOT FACILITY,3450 LABORE RD,VADNAIS HEIGHTS,MN,55110,"HB FULLER PILOT FACILITY.3450 LABORE RD, VADNAIS HEIGHTS MINNESOTA 55110 (RAMSEY)",0,C,,110000424247
55110QLTYW4141H,-93.027,45.068999999999996,False,27,123,040503,27,27123,27123040503,1400000US27123040503,UFP WHITE BEAR LAKE LLC,4141 HOFFMAN RD,WHITE BEAR LAKE,MN,55110,"UFP WHITE BEAR LAKE LLC.4141 HOFFMAN RD, WHITE BEAR LAKE MINNESOTA 55110 (RAMSEY)",0,C,,110000424265
55110WTRGR1610W,-93.03200000000001,45.074,False,27,123,040503,27,27123,27123040503,1400000US27123040503,WATER GREMLIN CO,4400 OTTER LAKE RD,WHITE BEAR LAKE,MN,55110,"WATER GREMLIN CO.4400 OTTER LAKE RD, WHITE BEAR LAKE MINNESOTA 55110 (RAMSEY)",0,C,,110000424274
55110RHLRM4041H,-93.02600000000001,45.063,False,27,123,040503,27,27123,27123040503,1400000US27123040503,SAPUTO DAIRY FOODS USA,4041 HWY 61 N,WHITE BEAR LAKE,MN,55110,"SAPUTO DAIRY FOODS USA.4041 HWY 61 N, WHITE BEAR LAKE MINNESOTA 55110 (RAMSEY)",0,C,,110000594410
55110CRTCC4119W,-93.04799999999999,45.066,False,27,123,040503,27,27123,27123040503,1400000US27123040503,CORTEC CORP,4119 WHITE BEAR PKWY,WHITE BEAR LAKE,MN,55110,"CORTEC CORP.4119 WHITE BEAR PKWY, WHITE BEAR LAKE MINNESOTA 55110 (RAMSEY)",0,C,,110011466653
55110CCTRN4255W,-93.051,45.071000000000005,False,27,123,040503,27,27123,27123040503,1400000US27123040503,ACCU-TRONICS MANUFACTURING INC,4255 WHITE BEAR PKWY SUITE 2100,WHITE BEAR LAKE,MN,55110,"ACCU-TRONICS MANUFACTURING INC.4255 WHITE BEAR PKWY SUITE 2100, WHITE BEAR LAKE MINNESOTA 55110 (RAMSEY)",0,C,,110008708764
5511WSNSTT4467W,-93.05,45.077,False,27,123,040503,27,27123,27123040503,1400000US27123040503,SENSATA TECHNOLOGIES,4467 WHITE BEAR PKWY,SAINT PAUL,MN,55110,"SENSATA TECHNOLOGIES.4467 WHITE BEAR PKWY, SAINT PAUL MINNESOTA 55110 (RAMSEY)",1,C,,110003921533
55112BLLLM7781S,-93.197,45.051,False,27,123,041107,27,27123,27123041107,1400000US27123041107,BELL LUMBER & POLE CO,778 1ST ST NW,NEW BRIGHTON,MN,55112,"BELL LUMBER & POLE CO.778 1ST ST NW, NEW BRIGHTON MINNESOTA 55112 (RAMSEY)",0,C,,110000424292
55112WLKRS348FI,-93.191,45.048,False,27,123,041107,27,27123,27123041107,1400000US27123041107,WOLKERSTORFER CO INC,348 1ST ST SW,NEW BRIGHTON,MN,55112,"WOLKERSTORFER CO INC.348 1ST ST SW, NEW BRIGHTON MINNESOTA 55112 (RAMSEY)",0,C,,110000424318
55112RMMLP1LDHW,-93.2,45.05,False,27,123,041107,27,27123,27123041107,1400000US27123041107,RTI REMMELE ENGINEERING PLANT 10,10 OLD HWY 8 SW,NEW BRIGHTON,MN,55112,"RTI REMMELE ENGINEERING PLANT 10.10 OLD HWY 8 SW, NEW BRIGHTON MINNESOTA 55112 (RAMSEY)",0,C,,110008686779
55112TRNLC822ND,-93.185,45.049,False,27,123,041107,27,27123,27123041107,1400000US27123041107,TRAN ELECTRONICS CORP,82 2ND AVE SE,NEW BRIGHTON,MN,55112,"TRAN ELECTRONICS CORP.82 2ND AVE SE, NEW BRIGHTON MINNESOTA 55112 (RAMSEY)",0,C,,110003766265
55112CNTRL2299C,-93.21600000000001,45.05,False,27,123,041107,27,27123,27123041107,1400000US27123041107,CENTRAL SANDBLASTING,2299 COUNTY RD H,NEW BRIGHTON,MN,55112,"CENTRAL SANDBLASTING.2299 COUNTY RD H, NEW BRIGHTON MINNESOTA 55112 (RAMSEY)",0,C,,110039497880
55112BSCND1275O,-93.193,45.068000000000005,False,27,123,041105,27,27123,27123041105,1400000US27123041105,BASIC INDUSTRIES,1275 OLD HWY 8,NEW BRIGHTON,MN,55112,"BASIC INDUSTRIES.1275 OLD HWY 8, NEW BRIGHTON MINNESOTA 55112 (RAMSEY)",0,C,,
55112HNYWLTWINC,-93.198,45.07899999999999,False,27,123,041105,27,27123,27123041105,1400000US27123041105,US ARMY TCAAP ALLIANT AMMUNITION SYSTEMS CO LLC,TCAAP - BUILDING 104,ARDEN HILLS,MN,55112,"US ARMY TCAAP ALLIANT AMMUNITION SYSTEMS CO LLC.TCAAP - BUILDING 104, ARDEN HILLS MINNESOTA 55112 (RAMSEY)",1,G,,
55112KMMLL61914,-93.18799999999999,45.071999999999996,False,27,123,041105,27,27123,27123041105,1400000US27123041105,"DARLING & CO, KEM MILLING CO DIV",619 14TH ST NE,NEW BRIGHTON,MN,55112,"DARLING & CO, KEM MILLING CO DIV.619 14TH ST NE, NEW BRIGHTON MINNESOTA 55112 (RAMSEY)",1,C,,
55112TWNCTUSHWY,-93.198,45.07899999999999,False,27,123,041105,27,27123,27123041105,1400000US27123041105,TWIN CITIES ARMY AMMUNITION PLANT FEDERAL CARTRIDGE CO,US HWY 10 & HWY 96,ARDEN HILLS,MN,55112,"TWIN CITIES ARMY AMMUNITION PLANT FEDERAL CARTRIDGE CO.US HWY 10 & HWY 96, ARDEN HILLS MINNESOTA 55112 (RAMSEY)",1,C,,
55112WHLBR1950O,-93.18799999999999,45.082,False,27,123,041105,27,27123,27123041105,1400000US27123041105,AQSEPTENCE GROUP INC,1950 OLD HWY 8,NEW BRIGHTON,MN,55112,"AQSEPTENCE GROUP INC.1950 OLD HWY 8, NEW BRIGHTON MINNESOTA 55112 (RAMSEY)",0,C,,110000742821
55112MCRPX2172O,-93.18799999999999,45.086000000000006,False,27,123,041105,27,27123,27123041105,1400000US27123041105,E/M CORP,2172 OLD HWY 8,NEW BRIGHTON,MN,551121802,"E/M CORP.2172 OLD HWY 8, NEW BRIGHTON MINNESOTA 55112 (RAMSEY)",0,C,,
55112SRMYT4700H,-93.198,45.07899999999999,False,27,123,041105,27,27123,27123041105,1400000US27123041105,US ARMY TWIN CITIES ARMY AMMUNITION PLANT,4700 HIGHWAY 10,SAINT PAUL,MN,55112,"US ARMY TWIN CITIES ARMY AMMUNITION PLANT.4700 HIGHWAY 10, SAINT PAUL MINNESOTA 55112 (RAMSEY)",1,F,,
55112CRDCP4100H,-93.15700000000001,45.066,False,27,123,040801,27,27123,27123040801,1400000US27123040801,BOSTON SCIENTIFIC-CRM,4100 HAMLINE AVE N,SAINT PAUL,MN,55112,"BOSTON SCIENTIFIC-CRM.4100 HAMLINE AVE N, SAINT PAUL MINNESOTA 55112 (RAMSEY)",0,C,,110000424309
55112MNFCT4300W,-93.185,45.07,False,27,123,040801,27,27123,27123040801,1400000US27123040801,"CELESTICA, INC.",4300 W ROUND LAKE RD,ARDEN HILLS,MN,55112,"CELESTICA, INC..4300 W ROUND LAKE RD, ARDEN HILLS MINNESOTA 55112 (RAMSEY)",0,C,,110008732470
5511WHDPCK1887G,-93.181,45.07,False,27,123,040801,27,27123,27123040801,1400000US27123040801,HOOD PACKAGING CORP - ARDEN HILLS,1887 GATEWAY BOULEVARD,ARDEN HILLS,MN,55112,"HOOD PACKAGING CORP - ARDEN HILLS.1887 GATEWAY BOULEVARD, ARDEN HILLS MINNESOTA 55112 (RAMSEY)",0,C,,110007631697
55112MCMCR4758T,-93.198,45.056999999999995,False,27,123,041200,27,27123,27123041200,1400000US27123041200,MICOM CORP,475 OLD HWY 8 NW,NEW BRIGHTON,MN,55112,"MICOM CORP.475 OLD HWY 8 NW, NEW BRIGHTON MINNESOTA 55112 (RAMSEY)",0,C,,110008822435
55112THMCG440FI,-93.195,45.055,False,27,123,041200,27,27123,27123041200,1400000US27123041200,MACGILLIS & GIBBS CO,440 5TH AVE NW,NEW BRIGHTON,MN,55112,"MACGILLIS & GIBBS CO.440 5TH AVE NW, NEW BRIGHTON MINNESOTA 55112 (RAMSEY)",1,C,,
5511WPNTRN3755T,-93.193,45.056000000000004,False,27,123,041200,27,27123,27123041200,1400000US27123041200,PENTAIR INC,375 5TH AVENUE NORTHWEST,NEW BRIGHTON,MN,55112,"PENTAIR INC.375 5TH AVENUE NORTHWEST, NEW BRIGHTON MINNESOTA 55112 (RAMSEY)",0,C,,110046122888
55112NTRNT1300R,-93.155,45.056999999999995,False,27,123,040803,27,27123,27123040803,1400000US27123040803,INTERNATIONAL PAPER CO,1300 RED FOX RD,NEW BRIGHTON,MN,55112,"INTERNATIONAL PAPER CO.1300 RED FOX RD, NEW BRIGHTON MINNESOTA 55112 (RAMSEY)",0,C,,
55112PHRMC1265G,-93.154,45.053999999999995,False,27,123,040803,27,27123,27123040803,1400000US27123040803,PHARMACIA DELTEC INC,1265 GREY FOX RD,SAINT PAUL,MN,55112,"PHARMACIA DELTEC INC.1265 GREY FOX RD, SAINT PAUL MINNESOTA 55112 (RAMSEY)",0,C,,
55126SNTPL3737N,-93.148,45.053999999999995,False,27,123,040803,27,27123,27123040803,1400000US27123040803,PACE INDUSTRIES ST PAUL DIV,3737 LEXINGTON AVE N,SAINT PAUL,MN,55126,"PACE INDUSTRIES ST PAUL DIV.3737 LEXINGTON AVE N, SAINT PAUL MINNESOTA 55126 (RAMSEY)",0,C,,110000424577
55113DVNCC1633T,-93.17200000000001,45.026,False,27,123,041302,27,27123,27123041302,1400000US27123041302,HONEYWELL ELECTRONIC MATERIALS INC,1633 TERRACE DR,ROSEVILLE,MN,55113,"HONEYWELL ELECTRONIC MATERIALS INC.1633 TERRACE DR, ROSEVILLE MINNESOTA 55113 (RAMSEY)",0,C,,
55164PPRCLHIGHW,-93.205,45.021,False,27,123,041302,27,27123,27123041302,1400000US27123041302,PAPER CALMENSON & CO,2500 W COUNTY RD B,SAINT PAUL,MN,55164,"PAPER CALMENSON & CO.2500 W COUNTY RD B, SAINT PAUL MINNESOTA 55164 (RAMSEY)",0,C,,
55113PLXGR2269W,-93.197,45.021,False,27,123,041302,27,27123,27123041302,1400000US27123041302,DIMENSION IMAGING,2269 W COUNTY RD C,ROSEVILLE,MN,55113,"DIMENSION IMAGING.2269 W COUNTY RD C, ROSEVILLE MINNESOTA 55113 (RAMSEY)",0,C,,
55113RMSYT1853W,-93.179,45.021,False,27,123,041302,27,27123,27123041302,1400000US27123041302,RAMSEY TECHNOLOGY INC,1853 W COUNTY RD C,SAINT PAUL,MN,55113,"RAMSEY TECHNOLOGY INC.1853 W COUNTY RD C, SAINT PAUL MINNESOTA 55113 (RAMSEY)",1,C,,
55113RTSTC2224T,-93.196,45.013000000000005,False,27,123,041302,27,27123,27123041302,1400000US27123041302,ARTISTIC FINISHES INC,2224 TERMINAL RD,ROSEVILLE,MN,551132515,"ARTISTIC FINISHES INC.2224 TERMINAL RD, ROSEVILLE MINNESOTA 55113 (RAMSEY)",0,C,,
55113STNCN3075L,-93.196,45.033,False,27,123,041302,27,27123,27123041302,1400000US27123041302,STONE CONTAINER CORP,3075 LONG LAKE RD,SAINT PAUL,MN,55113,"STONE CONTAINER CORP.3075 LONG LAKE RD, SAINT PAUL MINNESOTA 55113 (RAMSEY)",0,C,,
55113DLXBS2341S,-93.2,45.012,False,27,123,041302,27,27123,27123041302,1400000US27123041302,DELUXE BUSINESS SYS,2341 ST CROIX ST,SAINT PAUL,MN,55113,"DELUXE BUSINESS SYS.2341 ST CROIX ST, SAINT PAUL MINNESOTA 55113 (RAMSEY)",1,C,,
55113MLTLY2520T,-93.205,45.013000000000005,False,27,123,041302,27,27123,27123041302,1400000US27123041302,UNICIRCUIT ROSEVILLE,2520 TERMINAL RD,ROSEVILLE,MN,55113,"UNICIRCUIT ROSEVILLE.2520 TERMINAL RD, ROSEVILLE MINNESOTA 55113 (RAMSEY)",0,C,,110008712214
55113WLLMT2425T,-93.20299999999999,45.013000000000005,False,27,123,041302,27,27123,27123041302,1400000US27123041302,WILLAMETTE INDUSTRIES INC,2425 TERMINAL RD,SAINT PAUL,MN,55113,"WILLAMETTE INDUSTRIES INC.2425 TERMINAL RD, SAINT PAUL MINNESOTA 55113 (RAMSEY)",0,C,,
55113MCLC02288W,-93.198,45.021,False,27,123,041302,27,27123,27123041302,1400000US27123041302,TESORO REFINING & MARKETING ROSEVILLE TERMINAL,2288 W COUNTY RD C,SAINT PAUL,MN,55113,"TESORO REFINING & MARKETING ROSEVILLE TERMINAL.2288 W COUNTY RD C, SAINT PAUL MINNESOTA 55113 (RAMSEY)",0,C,,
55113MLSLV2340R,-93.2,45.018,False,27,123,041302,27,27123,27123041302,1400000US27123041302,BRENNTAG GREAT LAKES LLC,2340 ROSE PL,ROSEVILLE,MN,55113,"BRENNTAG GREAT LAKES LLC.2340 ROSE PL, ROSEVILLE MINNESOTA 55113 (RAMSEY)",0,C,,
55113SFLTR2430R,-93.20299999999999,45.018,False,27,123,041302,27,27123,27123041302,1400000US27123041302,EVOQUA WATER TECHNOLOGIES LLC,2430 ROSE PL,ROSEVILLE,MN,55113,"EVOQUA WATER TECHNOLOGIES LLC.2430 ROSE PL, ROSEVILLE MINNESOTA 55113 (RAMSEY)",0,C,,110000424354
55113MRCRY2007W,-93.186,45.028,False,27,123,041302,27,27123,27123041302,1400000US27123041302,WM LAMPTRACKER INC,2007 W COUNTY RD C-2,ROSEVILLE,MN,55113,"WM LAMPTRACKER INC.2007 W COUNTY RD C-2, ROSEVILLE MINNESOTA 55113 (RAMSEY)",0,C,,110000912406
55113LBRCT2420W,-93.20299999999999,45.021,False,27,123,041302,27,27123,27123041302,1400000US27123041302,LUBRICATION TECHNOLOGIES INC,2420 W COUNTY RD C,ROSEVILLE,MN,55113,"LUBRICATION TECHNOLOGIES INC.2420 W COUNTY RD C, ROSEVILLE MINNESOTA 55113 (RAMSEY)",0,C,,110008711876
55113NSYSC2276H,-93.208,45.01,False,27,053,020102,27,27123,27053020102,1400000US27053020102,UNISYS CORP,2276 HIGHCREST RD,ROSEVILLE,MN,55113,"UNISYS CORP.2276 HIGHCREST RD, ROSEVILLE MINNESOTA 55113 (RAMSEY)",0,C,,
55114BTRCH2327W,-93.195,44.968999999999994,False,27,123,031900,27,27123,27123031900,1400000US27123031900,FISHER NUT CO,2327 WYCLIFF ST,SAINT PAUL,MN,55114,"FISHER NUT CO.2327 WYCLIFF ST, SAINT PAUL MINNESOTA 55114 (RAMSEY)",0,C,,
55114DXPTR976BR,-93.194,44.97,False,27,123,031900,27,27123,27123031900,1400000US27123031900,DIXIE PETRO-CHEM INC,976 BRADFORD,SAINT PAUL,MN,55114,"DIXIE PETRO-CHEM INC.976 BRADFORD, SAINT PAUL MINNESOTA 55114 (RAMSEY)",0,C,,
55114MXNNC2286C,-93.19200000000001,44.97,False,27,123,031900,27,27123,27123031900,1400000US27123031900,MIXON INC,2286 CAPP ROAD,SAINT PAUL,MN,55114,"MIXON INC.2286 CAPP ROAD, SAINT PAUL MINNESOTA 55114 (RAMSEY)",0,C,,
55114LQPKN2285U,-93.194,44.963,False,27,123,031900,27,27123,27123031900,1400000US27123031900,TETRA PAK EQUIPUS INC,2285 UNIVERSITY AVE,SAINT PAUL,MN,55114,"TETRA PAK EQUIPUS INC.2285 UNIVERSITY AVE, SAINT PAUL MINNESOTA 55114 (RAMSEY)",0,C,,
55108WRMCH2130E,-93.19200000000001,44.974,False,27,123,031900,27,27123,27123031900,1400000US27123031900,BRENNTAG GREAT LAKES LLC,2130 ENERGY PARK DR,SAINT PAUL,MN,55108,"BRENNTAG GREAT LAKES LLC.2130 ENERGY PARK DR, SAINT PAUL MINNESOTA 55108 (RAMSEY)",0,C,,110008823407
55114LBRCT858TR,-93.185,44.967,False,27,123,031900,27,27123,27123031900,1400000US27123031900,LUBE-TECH & PARTNERS LLC,858 TRANSFER RD,SAINT PAUL,MN,55114,"LUBE-TECH & PARTNERS LLC.858 TRANSFER RD, SAINT PAUL MINNESOTA 55114 (RAMSEY)",0,C,,110037144630
55108CMSTN258EN,-93.18799999999999,44.974,False,27,123,031900,27,27123,27123031900,1400000US27123031900,CEMSTONE - MIDWAY,2058 ENERGY PARK DR,SAINT PAUL,MN,55108,"CEMSTONE - MIDWAY.2058 ENERGY PARK DR, SAINT PAUL MINNESOTA 55108 (RAMSEY)",0,C,,110003810644
55114HRTZL2516W,-93.205,44.96,False,27,123,033200,27,27123,27123033200,1400000US27123033200,SAMINA SCI,2516 WABASH AVE,SAINT PAUL,MN,55114,"SAMINA SCI.2516 WABASH AVE, SAINT PAUL MINNESOTA 55114 (RAMSEY)",1,C,,
55114WLDRF2250W,-93.193,44.96,False,27,123,033200,27,27123,27123033200,1400000US27123033200,WESTROCK MN CORP,2250 WABASH AVE,SAINT PAUL,MN,55114,"WESTROCK MN CORP.2250 WABASH AVE, SAINT PAUL MINNESOTA 55114 (RAMSEY)",0,C,,110000424390
55114NRLKS606VA,-93.191,44.958999999999996,False,27,123,033200,27,27123,27123033200,1400000US27123033200,NOR-LAKES SERVICES MIDWEST INC,606 VANDALIA ST,SAINT PAUL,MN,55114,"NOR-LAKES SERVICES MIDWEST INC.606 VANDALIA ST, SAINT PAUL MINNESOTA 55114 (RAMSEY)",0,C,,
55114SWLLG705RA,-93.198,44.961999999999996,False,27,123,033200,27,27123,27123033200,1400000US27123033200,SEWALL GEAR MFG CO,705 RAYMOND AVE,SAINT PAUL,MN,55114,"SEWALL GEAR MFG CO.705 RAYMOND AVE, SAINT PAUL MINNESOTA 55114 (RAMSEY)",0,C,,
55116FRDMT966SM,-93.199,44.916000000000004,False,27,123,037601,27,27123,27123037601,1400000US27123037601,FORD MOTOR CO. TWIN CITIES ASSEMBLY PLANT,966 S MISSISSIPPI RIVER BLVD,SAINT PAUL,MN,55116,"FORD MOTOR CO. TWIN CITIES ASSEMBLY PLANT.966 S MISSISSIPPI RIVER BLVD, SAINT PAUL MINNESOTA 55116 (RAMSEY)",1,C,,110000424407
55116NSYSS2751S,-93.17299999999999,44.896,False,27,123,037602,27,27123,27123037602,1400000US27123037602,LORAL DEFENSE SYS-EAGAN,2751 SHEPARD RD,SAINT PAUL,MN,55116,"LORAL DEFENSE SYS-EAGAN.2751 SHEPARD RD, SAINT PAUL MINNESOTA 55116 (RAMSEY)",1,C,,
55116QBCRP1999S,-93.152,44.906000000000006,False,27,123,037602,27,27123,27123037602,1400000US27123037602,QUEBECOR PRINTING ST PAUL,1999 SHEPARD RD,SAINT PAUL,MN,55116,"QUEBECOR PRINTING ST PAUL.1999 SHEPARD RD, SAINT PAUL MINNESOTA 55116 (RAMSEY)",0,C,,
55117LCTRP45WES,-93.102,44.981,False,27,123,030500,27,27123,27123030500,1400000US27123030500,ELECTRO-PLATING ENG INC,45 W  IVY,SAINT PAUL,MN,551177249,"ELECTRO-PLATING ENG INC.45 W  IVY, SAINT PAUL MINNESOTA 55117 (RAMSEY)",1,C,,
55117FXPCK51EAS,-93.098,44.979,False,27,123,030500,27,27123,27123030500,1400000US27123030500,SPLASH PRODUCTS,51 E MARYLAND AVE,SAINT PAUL,MN,55117,"SPLASH PRODUCTS.51 E MARYLAND AVE, SAINT PAUL MINNESOTA 55117 (RAMSEY)",0,C,,110000424425
5511WTCCST1351T,-93.098,44.983000000000004,False,27,123,030500,27,27123,27123030500,1400000US27123030500,TCC - ST PAUL,1351 TROUT BROOK CIR,SAINT PAUL,MN,55117,"TCC - ST PAUL.1351 TROUT BROOK CIR, SAINT PAUL MINNESOTA 55117 (RAMSEY)",0,C,,110003720590
55118TPMRK220EM,-93.07600000000001,44.895,False,27,037,060105,27,27037,27037060105,1400000US27037060105,TAPEMARK CO,220 E MARIE AVE,WEST SAINT PAUL,MN,55118,"TAPEMARK CO.220 E MARIE AVE, WEST SAINT PAUL MINNESOTA 55118 (DAKOTA)",0,C,,
55118SNCLR245EM,-93.075,44.891999999999996,False,27,037,060105,27,27037,27037060105,1400000US27037060105,FLINT INK NA CORP,245 E MARIE,SAINT PAUL,MN,551188409,"FLINT INK NA CORP.245 E MARIE, SAINT PAUL MINNESOTA 55118 (DAKOTA)",0,C,,
55118MLTRC1990C,-93.068,44.887,False,27,037,060105,27,27037,27037060105,1400000US27037060105,MULTI-ARC SCIENTIFIC COATINGS INC,1990 CHRISTENSEN AVE,WEST SAINT PAUL,MN,55118,"MULTI-ARC SCIENTIFIC COATINGS INC.1990 CHRISTENSEN AVE, WEST SAINT PAUL MINNESOTA 55118 (DAKOTA)",0,C,,
55120FTMRK2411P,-93.167,44.867,False,27,037,060605,27,27037,27037060605,1400000US27037060605,APPLIED COATING TECHNOLGY INC PLANT 2,2411 PILOT KNOB RD,MENDOTA HEIGHTS,MN,55120,"APPLIED COATING TECHNOLGY INC PLANT 2.2411 PILOT KNOB RD, MENDOTA HEIGHTS MINNESOTA 55120 (DAKOTA)",0,C,,110000424461
55121CLBNG940LO,-93.13600000000001,44.848,False,27,037,060717,27,27037,27037060717,1400000US27037060717,ECOLAB ENGINEERING CENTER,940 LONE OAK RD,EAGAN,MN,55121,"ECOLAB ENGINEERING CENTER.940 LONE OAK RD, EAGAN MINNESOTA 55121 (DAKOTA)",0,C,,
55121PPSCL2755H,-93.14,44.856,False,27,037,060717,27,27037,27037060717,1400000US27037060717,PEPSI-COLA BOTTLING CO EAGAN,2755 HWY 55,EAGAN,MN,55121,"PEPSI-COLA BOTTLING CO EAGAN.2755 HWY 55, EAGAN MINNESOTA 55121 (DAKOTA)",1,C,,
55121BRWNM2875H,-93.131,44.853,False,27,037,060717,27,27037,27037060717,1400000US27037060717,BROWN MINNEAPOLIS TANK,2875 HWY 55,EAGAN,MN,55121,"BROWN MINNEAPOLIS TANK.2875 HWY 55, EAGAN MINNESOTA 55121 (DAKOTA)",0,C,,
55121CRYRSCRAYR,-93.117,44.85,False,27,037,060717,27,27037,27037060717,1400000US27037060717,CRAY RESEARCH INC,655E LONE OAK DR,EAGAN,MN,55121,"CRAY RESEARCH INC.655E LONE OAK DR, EAGAN MINNESOTA 55121 (DAKOTA)",0,C,,
55121HLXCR990AP,-93.139,44.845,False,27,037,060717,27,27037,27037060717,1400000US27037060717,HILEX CORP (DBA KIK MINNESOTA INC),990 APOLLO RD,EAGAN,MN,55121,"HILEX CORP (DBA KIK MINNESOTA INC).990 APOLLO RD, EAGAN MINNESOTA 55121 (DAKOTA)",0,C,,110000424498
55121MTRLS2805W,-93.149,44.854,False,27,037,060717,27,27037,27037060717,1400000US27037060717,MATERIALS PROCESSING CORP,2805 W SERVICES RD,EAGAN,MN,55121,"MATERIALS PROCESSING CORP.2805 W SERVICES RD, EAGAN MINNESOTA 55121 (DAKOTA)",0,C,,110000424513
55121BDCRM3350M,-93.13,44.836000000000006,False,27,037,060717,27,27037,27037060717,1400000US27037060717,BO-DECOR METAL FINISHING INC,3350 MIKE COLLINS DR,EAGAN,MN,55121,"BO-DECOR METAL FINISHING INC.3350 MIKE COLLINS DR, EAGAN MINNESOTA 55121 (DAKOTA)",0,C,,110000424470
55121CNTNN1205E,-93.154,44.857,False,27,037,060726,27,27037,27037060726,1400000US27037060726,CROWN BEVERAGE PACKAGING INC,1205 EAGAN INDL RD,SAINT PAUL,MN,55121,"CROWN BEVERAGE PACKAGING INC.1205 EAGAN INDL RD, SAINT PAUL MINNESOTA 55121 (DAKOTA)",1,C,,
55121MDWST2750E,-93.15299999999999,44.858999999999995,False,27,037,060726,27,27037,27037060726,1400000US27037060726,MIDWEST COCA-COLA BOTTLING CO,2750 EAGANDALE BLVD,EAGAN,MN,55121,"MIDWEST COCA-COLA BOTTLING CO.2750 EAGANDALE BLVD, EAGAN MINNESOTA 55121 (DAKOTA)",0,C,,
55121NSYSN3333P,-93.167,44.836000000000006,False,27,037,060726,27,27037,27037060726,1400000US27037060726,PARAMAX SYSTEMS CORP UNISYS PARK CSD,3333 PILOT KNOB RD,EAGAN,MN,55121,"PARAMAX SYSTEMS CORP UNISYS PARK CSD.3333 PILOT KNOB RD, EAGAN MINNESOTA 55121 (DAKOTA)",0,C,,
55121MDWST2772E,-93.155,44.857,False,27,037,060726,27,27037,27037060726,1400000US27037060726,MIDWEST COCA-COLA BOTTLING CO,2772 EAGANDALE BLVD,SAINT PAUL,MN,55121,"MIDWEST COCA-COLA BOTTLING CO.2772 EAGANDALE BLVD, SAINT PAUL MINNESOTA 55121 (DAKOTA)",0,C,,
55122RSMNT1256T,-93.15799999999999,44.858999999999995,False,27,037,060726,27,27037,27037060726,1400000US27037060726,ROSEMOUNT INC,1256 TRAPP RD,EAGAN,MN,55122,"ROSEMOUNT INC.1256 TRAPP RD, EAGAN MINNESOTA 55122 (DAKOTA)",0,C,,
55121WRGRC1170E,-93.152,44.854,False,27,037,060726,27,27037,27037060726,1400000US27037060726,W.R. GRACE & CO. - CONN. GRACE CONSTRUCTION PRODUCTS,1170 EAGAN INDUSTRIAL RD,EAGAN,MN,55121,"W.R. GRACE & CO. - CONN. GRACE CONSTRUCTION PRODUCTS.1170 EAGAN INDUSTRIAL RD, EAGAN MINNESOTA 55121 (DAKOTA)",0,C,,110000424522
55121RGTRN1181T,-93.152,44.858999999999995,False,27,037,060726,27,27037,27037060726,1400000US27037060726,ERGOTRON INC.,1181 TRAPP RD,EAGAN,MN,55121,"ERGOTRON INC..1181 TRAPP RD, EAGAN MINNESOTA 55121 (DAKOTA)",0,C,,110012571298
5512WMPGNG2978C,-93.156,44.849,False,27,037,060726,27,27037,27037060726,1400000US27037060726,GENERAL RESOURCE TECHNOLOGY INC,2978 CENTER CT,EAGAN,MN,55121,"GENERAL RESOURCE TECHNOLOGY INC.2978 CENTER CT, EAGAN MINNESOTA 55121 (DAKOTA)",0,C,,110070058986
55121NSYSM1200T,-93.151,44.859,True,27,037,060726,27,27037,27037060726,1400000US27037060726,UNISYS MATERIALS MANAGEMENT CENTER CSD,1200 TRAPP RD,EAGAN,MN,55121,"UNISYS MATERIALS MANAGEMENT CENTER CSD 1200 TRAPP RD, EAGAN, MN, 55121",0,C,,
55121GPHRS3385S,-93.12,44.833,False,27,037,060728,27,27037,27037060728,1400000US27037060728,GOPHER RESOURCE LLC,685 YANKEE DOODLE RD,EAGAN,MN,55121,"GOPHER RESOURCE LLC.685 YANKEE DOODLE RD, EAGAN MINNESOTA 55121 (DAKOTA)",0,C,,110064107461
55123WSTPB3773H,-93.113,44.828,False,27,037,060728,27,27037,27037060728,1400000US27037060728,WEST PUBLISHING CO,610 OPPERMAN DR,EAGAN,MN,55123,"WEST PUBLISHING CO.610 OPPERMAN DR, EAGAN MINNESOTA 55123 (DAKOTA)",0,C,,
55123MCRPR3680D,-93.115,44.828,True,27,037,060728,27,27037,27037060728,1400000US27037060728,MICROPARTS INC,3680 DODD RD,EAGAN,MN,55123,"MICROPARTS INC 3680 DODD RD, EAGAN, MN, 55123",0,C,,
55121NSYSC1500T,-93.17200000000001,44.843999999999994,False,27,037,060725,27,27037,27037060725,1400000US27037060725,UNISYS CORP SEMICONDUCTOR OPERATIONS,1500 TOWER VIEW RD,EAGAN,MN,55121,"UNISYS CORP SEMICONDUCTOR OPERATIONS.1500 TOWER VIEW RD, EAGAN MINNESOTA 55121 (DAKOTA)",0,C,,
55121WTRHT3107S,-93.185,44.843,False,27,037,060725,27,27037,27037060725,1400000US27037060725,WATER HEATER INNOVATIONS INC.,3107 SIBLEY MEMORIAL HWY,EAGAN,MN,55121,"WATER HEATER INNOVATIONS INC..3107 SIBLEY MEMORIAL HWY, EAGAN MINNESOTA 55121 (DAKOTA)",1,C,,110000424531
55121LLLND3045H,-93.184,44.847,False,27,037,060725,27,27037,27037060725,1400000US27037060725,LULL INDUSTRIES,3045 HWY 13,EAGAN,MN,551211699,"LULL INDUSTRIES.3045 HWY 13, EAGAN MINNESOTA 55121 (DAKOTA)",0,C,,
55122FNSHN3640K,-93.205,44.827,False,27,037,060725,27,27123,27037060725,1400000US27037060725,FINISHING EQUIPMENT INC,3640 KENNEBEC DR,SAINT PAUL,MN,55122,"FINISHING EQUIPMENT INC.3640 KENNEBEC DR, SAINT PAUL MINNESOTA 55122 (RAMSEY)",0,C,,
55121SFTYK3227T,-93.19,44.84,False,27,037,060725,27,27037,27037060725,1400000US27037060725,SAFETY-KLEEN SYSTEMS EAGAN (EAB),3227 TERMINAL DR,EAGAN,MN,55121,"SAFETY-KLEEN SYSTEMS EAGAN (EAB).3227 TERMINAL DR, EAGAN MINNESOTA 55121 (DAKOTA)",0,C,,110000614684
55125CDYNC1890W,-92.96600000000001,44.922,False,27,163,071013,27,27163,27163071013,1400000US27163071013,ECOWATER SYSTEMS INC.,1890 WOODLANE DR,WOODBURY,MN,55125,"ECOWATER SYSTEMS INC..1890 WOODLANE DR, WOODBURY MINNESOTA 55125 (WASHINGTON)",0,C,,110000424540
55125NRRSC1930W,-92.97200000000001,44.92100000000001,False,27,163,071012,27,27163,27163071012,1400000US27163071012,DEAN FOODS NORTH CENTRAL LLC-WOODBURY,1930 WOODDALE DR,WOODBURY,MN,55125,"DEAN FOODS NORTH CENTRAL LLC-WOODBURY.1930 WOODDALE DR, WOODBURY MINNESOTA 55125 (WASHINGTON)",0,C,,110003748115
55126CNTRL4201N,-93.147,45.068000000000005,False,27,123,040703,27,27123,27123040703,1400000US27123040703,"CONTROL DATA CORP, ARDEN HILLS",4201 N LEXINGTON AVE,SAINT PAUL,MN,551266198,"CONTROL DATA CORP, ARDEN HILLS.4201 N LEXINGTON AVE, SAINT PAUL MINNESOTA 55126 (RAMSEY)",1,C,,
55126DLXCH1020W,-93.14399999999999,45.06399999999999,False,27,123,040703,27,27123,27123040703,1400000US27123040703,DELUXE CHECK PRINTERS INC,1020 W CR F,SHOREVIEW,MN,55126,"DELUXE CHECK PRINTERS INC.1020 W CR F, SHOREVIEW MINNESOTA 55126 (RAMSEY)",0,C,,
55144MCNTRI94AN,-92.999,44.956,False,27,123,042501,27,27123,27123042501,1400000US27123042501,3M CO CENTER PILOT PLANTS,I-94 & MCKNIGHT RD,SAINT PAUL,MN,551441000,"3M CO CENTER PILOT PLANTS.I-94 & MCKNIGHT RD, SAINT PAUL MINNESOTA 55144 (RAMSEY)",0,C,,
551443MC3M251CN,-92.99600000000001,44.951,False,27,123,042501,27,27123,27123042501,1400000US27123042501,3M CO 3M CENTER ST PAUL,3M CENTER BLDG 224-2S-25,ST. PAUL,MN,551441000,"3M CO 3M CENTER ST PAUL.3M CENTER BLDG 224-2S-25, ST. PAUL MINNESOTA 55144 (RAMSEY)",0,C,,110035810799
55303FDRLH900EH,-93.374,45.2,False,27,003,050504,27,27003,27003050504,1400000US27003050504,FEDERAL CARTRIDGE CO,900 EHLEN DR,ANOKA,MN,55303,"FEDERAL CARTRIDGE CO.900 EHLEN DR, ANOKA MINNESOTA 55303 (ANOKA)",0,C,,110056963727
55303HFFMN900EH,-93.37299999999999,45.199,False,27,003,050504,27,27003,27003050504,1400000US27003050504,NVENT HOFFMAN,2100 HOFFMAN WAY,ANOKA,MN,55303,"NVENT HOFFMAN.2100 HOFFMAN WAY, ANOKA MINNESOTA 55303 (ANOKA)",0,C,,110002151439
55303LTRNN6700I,-93.436,45.231,False,27,003,050228,27,27003,27003050228,1400000US27003050228,ALTRON INC,6700 BUNKER LAKE BLVD NW,RAMSEY,MN,55303,"ALTRON INC.6700 BUNKER LAKE BLVD NW, RAMSEY MINNESOTA 55303 (ANOKA)",0,C,,110002122587
55303NRTHR6650H,-93.435,45.222,False,27,003,050228,27,27003,27003050228,1400000US27003050228,AIRGAS NORTH CENTRAL INC,6650 HWY 10 NW,ANOKA,MN,553034599,"AIRGAS NORTH CENTRAL INC.6650 HWY 10 NW, ANOKA MINNESOTA 55303 (ANOKA)",0,C,,
55303VSNSL7000S,-93.444,45.232,False,27,003,050228,27,27003,27003050228,1400000US27003050228,VISION-EASE LENS INC,7000 SUNWOOD DR NW,RAMSEY,MN,55303,"VISION-EASE LENS INC.7000 SUNWOOD DR NW, RAMSEY MINNESOTA 55303 (ANOKA)",0,C,,
55303PRFSS2625N,-93.37299999999999,45.206,False,27,003,050505,27,27003,27003050505,1400000US27003050505,PROFESSIONAL PLATING INC,2625 9TH AVE N,ANOKA,MN,55303,"PROFESSIONAL PLATING INC.2625 9TH AVE N, ANOKA MINNESOTA 55303 (ANOKA)",0,C,,
55303LKLND2939S,-93.381,45.21,False,27,003,050505,27,27003,27003050505,1400000US27003050505,LAKELAND TOOL & ENGINEERING INC,2939 6TH AVE N,ANOKA,MN,55303,"LAKELAND TOOL & ENGINEERING INC.2939 6TH AVE N, ANOKA MINNESOTA 55303 (ANOKA)",0,C,,
55303HFFMN1000N,-93.37,45.205,False,27,003,050505,27,27003,27003050505,1400000US27003050505,NVENT HOFFMAN,1000 N ST,ANOKA,MN,55303,"NVENT HOFFMAN.1000 N ST, ANOKA MINNESOTA 55303 (ANOKA)",0,C,,110003916763
55303THCRNONECO,-93.411,45.213,False,27,003,050401,27,27003,27003050401,1400000US27003050401,IMI CORNELIUS INC,ONE CORNELIUS PL,ANOKA,MN,553031592,"IMI CORNELIUS INC.ONE CORNELIUS PL, ANOKA MINNESOTA 55303 (ANOKA)",0,C,,
55303MTPNC6400I,-93.417,45.222,False,27,003,050401,27,27003,27003050401,1400000US27003050401,MATE PRECISION TOOLING,1295 LUND BLVD,ANOKA,MN,55303,"MATE PRECISION TOOLING.1295 LUND BLVD, ANOKA MINNESOTA 55303 (ANOKA)",0,C,,110003931210
55303LNDND911LU,-93.41,45.221000000000004,False,27,003,050401,27,27003,27003050401,1400000US27003050401,LUND INDUSTRIES INC,911 LUND BLVD,ANOKA,MN,55303,"LUND INDUSTRIES INC.911 LUND BLVD, ANOKA MINNESOTA 55303 (ANOKA)",0,C,,
55303MNTRM800LU,-93.406,45.22,False,27,003,050401,27,27003,27003050401,1400000US27003050401,MENTOR CORP,800 LUND BLVD,ANOKA,MN,55303,"MENTOR CORP.800 LUND BLVD, ANOKA MINNESOTA 55303 (ANOKA)",0,C,,
55303BLLNT840MC,-93.40799999999999,45.217,False,27,003,050401,27,27003,27003050401,1400000US27003050401,BALLANTINE - DIV OF US TSUBAKI,840 MCKINLEY ST,ANOKA,MN,55303,"BALLANTINE - DIV OF US TSUBAKI.840 MCKINLEY ST, ANOKA MINNESOTA 55303 (ANOKA)",0,C,,110008743618
55303CPPRS11LUN,-93.41,45.222,False,27,003,050401,27,27003,27003050401,1400000US27003050401,FIRESTONE METAL PRODUCTS,1001 LUND BLVD,ANOKA,MN,55303,"FIRESTONE METAL PRODUCTS.1001 LUND BLVD, ANOKA MINNESOTA 55303 (ANOKA)",0,C,,110022904918
55303GRCNC121LU,-93.417,45.222,False,27,003,050401,27,27003,27003050401,1400000US27003050401,GRACO INC-ANOKA,1201 LUND BLVD,ANOKA,MN,55303,"GRACO INC-ANOKA.1201 LUND BLVD, ANOKA MINNESOTA 55303 (ANOKA)",0,C,,110031401622
55304KNPPW16430,-93.236,45.269,False,27,003,050235,27,27003,27003050235,1400000US27003050235,KNAPP WOODWORKING INC,16430 HWY 65 NE,HAM LAKE,MN,55304,"KNAPP WOODWORKING INC.16430 HWY 65 NE, HAM LAKE MINNESOTA 55304 (ANOKA)",0,C,,
55317PRSSN18780,-93.514,44.861999999999995,False,27,053,026014,27,27053,27053026014,1400000US27053026014,PRESS INC,18780 W 78TH ST,CHANHASSEN,MN,55317,"PRESS INC.18780 W 78TH ST, CHANHASSEN MINNESOTA 55317 (HENNEPIN)",0,C,,
55317TMTDB18800,-93.516,44.861999999999995,False,27,053,026014,27,27053,27053026014,1400000US27053026014,AUTOMATED BUILDING COMPONENTS,18800 WEST 78TH STREET,CHANHASSEN,MN,55317,"AUTOMATED BUILDING COMPONENTS.18800 WEST 78TH STREET, CHANHASSEN MINNESOTA 55317 (HENNEPIN)",0,C,,
5531WCRTSS184W7,-93.51299999999999,44.864,False,27,053,026014,27,27053,27053026014,1400000US27053026014,CURTISS WRIGHT,18400 W 77TH ST,CHANHASSEN,MN,55317,"CURTISS WRIGHT.18400 W 77TH ST, CHANHASSEN MINNESOTA 55317 (HENNEPIN)",0,C,,
55318CRCTB4300P,-93.595,44.854,False,27,019,090900,27,27019,27019090900,1400000US27019090900,PROTECH INTERCONNECT SOLUTIONS LLC,4300 PEAVEY RD,CHASKA,MN,55318,"PROTECH INTERCONNECT SOLUTIONS LLC.4300 PEAVEY RD, CHASKA MINNESOTA 55318 (CARVER)",0,C,,110000822888
55318LKRGN340LA,-93.581,44.841,False,27,019,090900,27,27019,27019090900,1400000US27019090900,LAKE REGION MANUFACTURING INC DBA LAKE REGION MEDICAL,340 LAKE HAZELTINE DR,CHASKA,MN,55318,"LAKE REGION MANUFACTURING INC DBA LAKE REGION MEDICAL.340 LAKE HAZELTINE DR, CHASKA MINNESOTA 55318 (CARVER)",0,C,,110000424773
55318MCLGH4001P,-93.595,44.851000000000006,False,27,019,090900,27,27019,27019090900,1400000US27019090900,MCLAUGHLIN GORMLEY KING,4001 PEAVEY RD,CHASKA,MN,55318,"MCLAUGHLIN GORMLEY KING.4001 PEAVEY RD, CHASKA MINNESOTA 55318 (CARVER)",0,C,,110000424782
55318MNNTN104PE,-93.594,44.845,False,27,019,090900,27,27019,27019090900,1400000US27019090900,SUPER RADIATOR COILS,104 PEAVEY RD,CHASKA,MN,55318,"SUPER RADIATOR COILS.104 PEAVEY RD, CHASKA MINNESOTA 55318 (CARVER)",0,C,,110000424808
55318QLTCH150JO,-93.59100000000001,44.847,False,27,019,090900,27,27019,27019090900,1400000US27019090900,QUALI TECH INC DIV 6,150 JONATHAN BLVD N,CHASKA,MN,55318,"QUALI TECH INC DIV 6.150 JONATHAN BLVD N, CHASKA MINNESOTA 55318 (CARVER)",0,C,,110002122621
55318QLTCH318LA,-93.584,44.842,False,27,019,090900,27,27019,27019090900,1400000US27019090900,QUALITECH INC,318 LAKE HAZELTINE DR,CHASKA,MN,55318,"QUALITECH INC.318 LAKE HAZELTINE DR, CHASKA MINNESOTA 55318 (CARVER)",0,C,,110000424826
55318SFTSP134CO,-93.59200000000001,44.847,False,27,019,090900,27,27019,27019090900,1400000US27019090900,APEX INTERNATIONAL,134 COLUMBIA CT,CHASKA,MN,55318,"APEX INTERNATIONAL.134 COLUMBIA CT, CHASKA MINNESOTA 55318 (CARVER)",0,C,,110008698392
55318FSNTR322LA,-93.584,44.842,False,27,019,090900,27,27019,27019090900,1400000US27019090900,FSI INTERNATIONAL,322 LAKE HAZELTINE DR,CHASKA,MN,553181096,"FSI INTERNATIONAL.322 LAKE HAZELTINE DR, CHASKA MINNESOTA 55318 (CARVER)",0,C,,
55318KLLST1000L,-93.58,44.841,False,27,019,090900,27,27019,27019090900,1400000US27019090900,BECKMAN COULTER INC,1000 LAKE HAZELTINE DR,CHASKA,MN,553181084,"BECKMAN COULTER INC.1000 LAKE HAZELTINE DR, CHASKA MINNESOTA 55318 (CARVER)",0,C,,
55318NRDCT141JO,-93.59100000000001,44.847,False,27,019,090900,27,27019,27019090900,1400000US27019090900,NORDIC TRACK,141 JONATHON BLVD N,CHASKA,MN,55318,"NORDIC TRACK.141 JONATHON BLVD N, CHASKA MINNESOTA 55318 (CARVER)",0,C,,
55318PRNDS4311P,-93.595,44.855,False,27,019,090900,27,27019,27019090900,1400000US27019090900,PR INDUSTRIES INC,4311 PEAVEY RD,CHASKA,MN,55318,"PR INDUSTRIES INC.4311 PEAVEY RD, CHASKA MINNESOTA 55318 (CARVER)",0,C,,
55318MMMTH101W8,-93.59700000000001,44.856,False,27,019,090900,27,27019,27019090900,1400000US27019090900,NORTHERN STAR CO,101 W 82ND ST,CHASKA,MN,55318,"NORTHERN STAR CO.101 W 82ND ST, CHASKA MINNESOTA 55318 (CARVER)",0,C,,110041624622
55318PMSTR426NR,-93.59,44.855,False,27,019,090900,27,27019,27019090900,1400000US27019090900,PEMSTAR INC.,4260 NOREX DR,CHASKA,MN,55318,"PEMSTAR INC..4260 NOREX DR, CHASKA MINNESOTA 55318 (CARVER)",0,C,,110003905588
55321CTSCR400CO,-94.195,45.08,False,27,171,101300,27,27171,27171101300,1400000US27171101300,CTS CORP CONNECTOR DIV,400 COKATO ST,COKATO,MN,55321,"CTS CORP CONNECTOR DIV.400 COKATO ST, COKATO MINNESOTA 55321 (WRIGHT)",0,C,,
5532WPNGTT13369,-94.162,45.065,False,27,171,101300,27,27171,27171101300,1400000US27171101300,PENGO ATTACHMENTS,13369 60TH ST SW,COKATO,MN,55321,"PENGO ATTACHMENTS.13369 60TH ST SW, COKATO MINNESOTA 55321 (WRIGHT)",0,C,,110070556465
55328LNDSC6017T,-93.779,45.033,False,27,171,101000,27,27171,27171101000,1400000US27171101000,LANDSCAPE STRUCTURES INC,601 7TH ST S,DELANO,MN,55328,"LANDSCAPE STRUCTURES INC.601 7TH ST S, DELANO MINNESOTA 55328 (WRIGHT)",0,C,,
55328SCLCR72S7T,-93.781,45.031000000000006,False,27,171,101000,27,27171,27171101000,1400000US27171101000,SEACOLE-CRC LLC,702 S 7TH ST,DELANO,MN,55328,"SEACOLE-CRC LLC.702 S 7TH ST, DELANO MINNESOTA 55328 (WRIGHT)",0,C,,110003839446
5532WSWYSY54SUT,-93.789,45.04600000000001,False,27,171,101000,27,27171,27171101000,1400000US27171101000,EASIWAY SYSTEMS INC,540 SOUTH RIVER STREET,DELANO,MN,55328,"EASIWAY SYSTEMS INC.540 SOUTH RIVER STREET, DELANO MINNESOTA 55328 (WRIGHT)",0,C,,110003899693
5532WCMSTN111BA,-93.775,45.036,False,27,171,101000,27,27171,27171101000,1400000US27171101000,CEMSTONE - DELANO,1011 BABCOCK BLVD.,DELANO,MN,55328,"CEMSTONE - DELANO.1011 BABCOCK BLVD., DELANO MINNESOTA 55328 (WRIGHT)",0,C,,110060261531
5532WSLRPL86JHN,-93.76899999999999,45.034,False,27,171,101000,27,27171,27171101000,1400000US27171101000,SOLAR PLASTICS,860 JOHNSON DR,DELANO,MN,55328,"SOLAR PLASTICS.860 JOHNSON DR, DELANO MINNESOTA 55328 (WRIGHT)",0,C,,110070244569
55330TSCMC12616,-93.588,45.318000000000005,False,27,141,030503,27,27141,27141030503,1400000US27141030503,TESCOM,12616 IND US TRIAL BLVD,ELK RIVER,MN,55330,"TESCOM.12616 IND US TRIAL BLVD, ELK RIVER MINNESOTA 55330 (SHERBURNE)",0,C,,110008808255
5533WFRTRR1346T,-93.581,45.308,False,27,141,030503,27,27141,27141030503,1400000US27141030503,FORTERRA CONCRETE PRODUCTS - ELK RIVER,1340 6TH ST NW,ELK RIVER,MN,55330,"FORTERRA CONCRETE PRODUCTS - ELK RIVER.1340 6TH ST NW, ELK RIVER MINNESOTA 55330 (SHERBURNE)",0,C,,110069313068
55336THPLL101W8,-94.164,44.766999999999996,False,27,085,950600,27,27085,27085950600,1400000US27085950600,SENECA FOODS,101 W 8TH ST,GLENCOE,MN,55336,"SENECA FOODS.101 W 8TH ST, GLENCOE MINNESOTA 55336 (MCLEOD)",0,C,,110000424862
55370PLTWD2003R,-94.044,44.77,False,27,085,950600,27,27085,27085950600,1400000US27085950600,PLATO WOODWORK INC,200 3RD ST SW,PLATO,MN,55370,"PLATO WOODWORK INC.200 3RD ST SW, PLATO MINNESOTA 55370 (MCLEOD)",0,C,,110014341300
55354PLYFM116PI,-94.038,44.88399999999999,False,27,085,950600,27,27085,27085950600,1400000US27085950600,POLY FOAM INC,116 PINE ST S,LESTER PRAIRIE,MN,553540218,"POLY FOAM INC.116 PINE ST S, LESTER PRAIRIE MINNESOTA 55354 (MCLEOD)",0,C,,
55354MRQPS129SP,-94.038,44.884,True,27,085,950600,27,27085,27085950600,1400000US27085950600,AMEREQUIP SCHWARTZ DIV,129 S PINE ST,LESTER PRAIRIE,MN,55354,"AMEREQUIP SCHWARTZ DIV 129 S PINE ST, LESTER PRAIRIE, MN, 55354",0,C,,
55337PPSCL1300E,-93.258,44.793,False,27,037,060748,27,27037,27037060748,1400000US27037060748,BOTTLING GROUP LLC D/B/A PEPSI BEVERAGES CO,11601 12TH AVE S,BURNSVILLE,MN,55337,"BOTTLING GROUP LLC D/B/A PEPSI BEVERAGES CO.11601 12TH AVE S, BURNSVILLE MINNESOTA 55337 (DAKOTA)",0,C,,110008819323
55337BLCKD1400E,-93.25,44.81100000000001,False,27,037,060748,27,27037,27037060748,1400000US27037060748,XCEL ENERGY BLACK DOG GENERATING PLANT,1400 E BLACK DOG RD,BURNSVILLE,MN,55337,"XCEL ENERGY BLACK DOG GENERATING PLANT.1400 E BLACK DOG RD, BURNSVILLE MINNESOTA 55337 (DAKOTA)",0,C,,110017409320
55337RSMNT14300,-93.31200000000001,44.745,False,27,037,060739,27,27037,27037060739,1400000US27037060739,ROSEMOUNT AEROSPACE INC,14300 JUDICIAL RD,BURNSVILLE,MN,55306,"ROSEMOUNT AEROSPACE INC.14300 JUDICIAL RD, BURNSVILLE MINNESOTA 55306 (DAKOTA)",0,C,,110000798450
55306RBCSS14255,-93.31700000000001,44.745,False,27,037,060739,27,27037,27037060739,1400000US27037060739,PRINCESS MARBLE ACQUISITION LLC,14255 SOUTHCROSS DR W,BURNSVILLE,MN,55306,"PRINCESS MARBLE ACQUISITION LLC.14255 SOUTHCROSS DR W, BURNSVILLE MINNESOTA 55306 (DAKOTA)",0,C,,110000424684
55306CHRTN3505C,-93.324,44.746,False,27,037,060739,27,27037,27037060739,1400000US27037060739,CHART INDUSTRIES INC,3505 COUNTY RD 42 W,BURNSVILLE,MN,55306,"CHART INDUSTRIES INC.3505 COUNTY RD 42 W, BURNSVILLE MINNESOTA 55306 (DAKOTA)",0,C,,
55340TMRCM4375W,-93.589,45.058,False,27,053,027101,27,27053,27053027101,1400000US27053027101,TEMROC METALS INC,4375 WILLOW DR,HAMEL,MN,55340,"TEMROC METALS INC.4375 WILLOW DR, HAMEL MINNESOTA 55340 (HENNEPIN)",0,C,,
55340LPNLM3800C,-93.542,45.047,False,27,053,027101,27,27053,27053027101,1400000US27053027101,ALPANA ALUMINUM PRODS,3800 C R 116,HAMEL,MN,55340,"ALPANA ALUMINUM PRODS.3800 C R 116, HAMEL MINNESOTA 55340 (HENNEPIN)",0,C,,
55340QXNCX2705W,-93.59299999999999,45.059,False,27,053,027101,27,27053,27053027101,1400000US27053027101,QX INC,2705 W HWY 55,HAMEL,MN,55340,"QX INC.2705 W HWY 55, HAMEL MINNESOTA 55340 (HENNEPIN)",0,C,,
55343CRWNF62012,-93.416,44.913999999999994,False,27,053,023400,27,27053,27053023400,1400000US27053023400,CROWN FIXTURES INC,620 12TH AVE SOUTH,HOPKINS,MN,55343,"CROWN FIXTURES INC.620 12TH AVE SOUTH, HOPKINS MINNESOTA 55343 (HENNEPIN)",0,C,,
55343DCPRD845EX,-93.39,44.925,False,27,053,023400,27,27053,27053023400,1400000US27053023400,EDCO PRODUCTS INC,8700 EXCELSIOR BLVD,HOPKINS,MN,55343,"EDCO PRODUCTS INC.8700 EXCELSIOR BLVD, HOPKINS MINNESOTA 55343 (HENNEPIN)",0,C,,110022448092
55343KNGSN60912,-93.416,44.913999999999994,False,27,053,023400,27,27053,27053023400,1400000US27053023400,KANGAS ENAMELING,609 12TH AVE S,HOPKINS,MN,55343,"KANGAS ENAMELING.609 12TH AVE S, HOPKINS MINNESOTA 55343 (HENNEPIN)",0,C,,
55343DVNCC56016,-93.421,44.916000000000004,False,27,053,023300,27,27053,27053023300,1400000US27053023300,HONEYWELL ADVANCED CIRCUITS INC,560 16TH AVE S,HOPKINS,MN,55343,"HONEYWELL ADVANCED CIRCUITS INC.560 16TH AVE S, HOPKINS MINNESOTA 55343 (HENNEPIN)",0,C,,
55343RTRNC41011,-93.414,44.918,False,27,053,023300,27,27053,27053023300,1400000US27053023300,REUTER MANUFACTURING INC,410 11TH AVE S,HOPKINS,MN,55343,"REUTER MANUFACTURING INC.410 11TH AVE S, HOPKINS MINNESOTA 55343 (HENNEPIN)",0,C,,
55343MCTCN53515,-93.419,44.917,False,27,053,023300,27,27053,27053023300,1400000US27053023300,MACTAC ENGINEERED PRODUCTS,535 15TH AVE S,HOPKINS,MN,55343,"MACTAC ENGINEERED PRODUCTS.535 15TH AVE S, HOPKINS MINNESOTA 55343 (HENNEPIN)",0,C,,
55343FNCXX5400O,-93.404,44.905,False,27,053,026104,27,27053,27053026104,1400000US27053026104,ADVANCED FLEX INC PLANT 3,5400 OPPORTUNITY CT,MINNETONKA,MN,55343,"ADVANCED FLEX INC PLANT 3.5400 OPPORTUNITY CT, MINNETONKA MINNESOTA 55343 (HENNEPIN)",0,C,,
55343HLDYC11126,-93.42,44.901,False,27,053,026104,27,27053,27053026104,1400000US27053026104,HOLADAY CIRCUITS INC,11126 BREN RD W,MINNETONKA,MN,55343,"HOLADAY CIRCUITS INC.11126 BREN RD W, MINNETONKA MINNESOTA 55343 (HENNEPIN)",0,C,,110000424906
55343MRCNM11001,-93.416,44.898999999999994,False,27,053,026104,27,27053,27053026104,1400000US27053026104,AMERICAN MEDICAL SYSTEMS INC,11001 BREN RD E,MINNETONKA,MN,55343,"AMERICAN MEDICAL SYSTEMS INC.11001 BREN RD E, MINNETONKA MINNESOTA 55343 (HENNEPIN)",0,C,,
55343NRTHR9701D,-93.404,44.895,False,27,053,026104,27,27053,27053026104,1400000US27053026104,NORTHERN TELECOM,9701 DATA PARK,MINNETONKA,MN,55343,"NORTHERN TELECOM.9701 DATA PARK, MINNETONKA MINNESOTA 55343 (HENNEPIN)",0,C,,
55343SMNCS5951C,-93.44,44.895,False,27,053,026104,27,27053,27053026104,1400000US27053026104,SUEZ WTS SOLUTIONS USA INC,5951 CLEARWATER DR,MINNETONKA,MN,55343,"SUEZ WTS SOLUTIONS USA INC.5951 CLEARWATER DR, MINNETONKA MINNESOTA 55343 (HENNEPIN)",0,C,,110000424924
55343MRCNM10700,-93.416,44.9,False,27,053,026104,27,27053,27053026104,1400000US27053026104,AMERICAN MEDICAL SYSTEMS,10700 BREN RD W,MINNETONKA,MN,55343,"AMERICAN MEDICAL SYSTEMS.10700 BREN RD W, MINNETONKA MINNESOTA 55343 (HENNEPIN)",0,C,,
55343HNYWL600SE,-93.39299999999999,44.928000000000004,False,27,053,023200,27,27053,27053023200,1400000US27053023200,ALLIANT TECHSYSTEMS INC HOPKINS FACILITY,600 2ND ST NE,HOPKINS,MN,553438384,"ALLIANT TECHSYSTEMS INC HOPKINS FACILITY.600 2ND ST NE, HOPKINS MINNESOTA 55343 (HENNEPIN)",0,C,,
55343SHNNN11301,-93.425,44.918,False,27,053,026103,27,27053,27053026103,1400000US27053026103,SHANNON GROUP INC TONKA DIV,11301 W 47TH ST,HOPKINS,MN,55343,"SHANNON GROUP INC TONKA DIV.11301 W 47TH ST, HOPKINS MINNESOTA 55343 (HENNEPIN)",0,C,,
55343SRRCR11401,-93.426,44.918,False,27,053,026103,27,27053,27053026103,1400000US27053026103,SIERRA CORP,11400 W 47TH ST,MINNETONKA,MN,55343,"SIERRA CORP.11400 W 47TH ST, MINNETONKA MINNESOTA 55343 (HENNEPIN)",0,C,,110000424933
55343MTRMR11574,-93.426,44.913999999999994,False,27,053,026103,27,27053,27053026103,1400000US27053026103,METRO MARK INC,11574 ENCORE CIRCLE,MINNETONKA,MN,55343,"METRO MARK INC.11574 ENCORE CIRCLE, MINNETONKA MINNESOTA 55343 (HENNEPIN)",0,C,,
55344BRCHW7900F,-93.48100000000001,44.858999999999995,False,27,053,026015,27,27053,27053026015,1400000US27053026015,BIRCHWOOD LABORATORIES INC,7900 FULLER RD,EDEN PRAIRIE,MN,553442195,"BIRCHWOOD LABORATORIES INC.7900 FULLER RD, EDEN PRAIRIE MINNESOTA 55344 (HENNEPIN)",0,C,,
55344TNCRP15151,-93.46700000000001,44.857,False,27,053,026015,27,27053,27053026015,1400000US27053026015,EATON MDH INC,14900 TECHNOLOGY DR,EDEN PRAIRIE,MN,55344,"EATON MDH INC.14900 TECHNOLOGY DR, EDEN PRAIRIE MINNESOTA 55344 (HENNEPIN)",0,C,,110064106765
55344TTSCH8081W,-93.47399999999999,44.857,False,27,053,026015,27,27053,27053026015,1400000US27053026015,ITT SCHADOW,8081 WALLACE RD,EDEN PRAIRIE,MN,55344,"ITT SCHADOW.8081 WALLACE RD, EDEN PRAIRIE MINNESOTA 55344 (HENNEPIN)",0,C,,
55344CNTRL6740S,-93.40899999999999,44.881,False,27,053,026007,27,27053,27053026007,1400000US27053026007,CONTROL DATA CORP,6740 SHADY OAK RD,EDEN PRAIRIE,MN,55344,"CONTROL DATA CORP.6740 SHADY OAK RD, EDEN PRAIRIE MINNESOTA 55344 (HENNEPIN)",1,C,,
55344CRCTS9805H,-93.40299999999999,44.881,False,27,053,026007,27,27053,27053026007,1400000US27053026007,MACDERMID INC EDEN PRAIRIE,9805 HAMILTON AVENUE,EDEN PRAIRIE,MN,55344,"MACDERMID INC EDEN PRAIRIE.9805 HAMILTON AVENUE, EDEN PRAIRIE MINNESOTA 55344 (HENNEPIN)",0,C,,
55344MGNTC6754S,-93.40799999999999,44.881,False,27,053,026007,27,27053,27053026007,1400000US27053026007,MAGNETIC DATA INC,6754 SHADY OAK RD,EDEN PRAIRIE,MN,55344,"MAGNETIC DATA INC.6754 SHADY OAK RD, EDEN PRAIRIE MINNESOTA 55344 (HENNEPIN)",0,C,,
55344PRKNL6509F,-93.406,44.885,False,27,053,026007,27,27053,27053026007,1400000US27053026007,PHYSICAL ELECTRONICS PHYSICAL ELECTRONICS DIV,6509 FLYING CLOUD DR,EDEN PRAIRIE,MN,55344,"PHYSICAL ELECTRONICS PHYSICAL ELECTRONICS DIV.6509 FLYING CLOUD DR, EDEN PRAIRIE MINNESOTA 55344 (HENNEPIN)",0,C,,
55344VKNGP7000W,-93.399,44.876000000000005,False,27,053,026007,27,27053,27053026007,1400000US27053026007,VIKING PRESS INC,7000 WASHINGTON AVE S,MINNEAPOLIS,MN,55344,"VIKING PRESS INC.7000 WASHINGTON AVE S, MINNEAPOLIS MINNESOTA 55344 (HENNEPIN)",0,C,,
55435DSNCX7665W,-93.399,44.864,False,27,053,026007,27,27053,27053026007,1400000US27053026007,IDEUS INC,7665 WASHINGTON AVES,EDINA,MN,55435,"IDEUS INC.7665 WASHINGTON AVES, EDINA MINNESOTA 55435 (HENNEPIN)",1,C,,
55344RSMNT7676E,-93.45,44.864,False,27,053,026007,27,27053,27053026007,1400000US27053026007,ROSEMOUNT INC,7676 EXECUTIVE DR,EDEN PRAIRIE,MN,55344,"ROSEMOUNT INC.7676 EXECUTIVE DR, EDEN PRAIRIE MINNESOTA 55344 (HENNEPIN)",1,C,,
55344GSTFS7490G,-93.40700000000001,44.869,False,27,053,026007,27,27053,27053026007,1400000US27053026007,GUSTAFSON LLC,7490 GOLDEN TRIANGLE DR,EDEN PRAIRIE,MN,55344,"GUSTAFSON LLC.7490 GOLDEN TRIANGLE DR, EDEN PRAIRIE MINNESOTA 55344 (HENNEPIN)",0,C,,
55344DGLSC9650V,-93.40100000000001,44.873000000000005,False,27,053,026007,27,27053,27053026007,1400000US27053026007,DOUGLAS CORP,9650 VALLEYVIEW RD,EDEN PRAIRIE,MN,55344,"DOUGLAS CORP.9650 VALLEYVIEW RD, EDEN PRAIRIE MINNESOTA 55344 (HENNEPIN)",0,C,,
55344RLNCM6950W,-93.4,44.878,False,27,053,026007,27,27053,27053026007,1400000US27053026007,RELIANCE MOTION CONTROL,6950 WASHINGTON AVE S,EDEN PRAIRIE,MN,55344,"RELIANCE MOTION CONTROL.6950 WASHINGTON AVE S, EDEN PRAIRIE MINNESOTA 55344 (HENNEPIN)",0,C,,
55344LNDBR10150,-93.406,44.887,False,27,053,026007,27,27053,27053026007,1400000US27053026007,BODYCOTE THERMAL PROCESSING,10150 CROSSTOWN CIR,EDEN PRAIRIE,MN,55344,"BODYCOTE THERMAL PROCESSING.10150 CROSSTOWN CIR, EDEN PRAIRIE MINNESOTA 55344 (HENNEPIN)",0,C,,110008820687
5534WCNTRL778SH,-93.405,44.876000000000005,False,27,053,026007,27,27053,27053026007,1400000US27053026007,CONTROL TECHNIQUES AMERICAS,7078 SHADY OAK RD,EDEN PRAIRIE,MN,55344,"CONTROL TECHNIQUES AMERICAS.7078 SHADY OAK RD, EDEN PRAIRIE MINNESOTA 55344 (HENNEPIN)",0,C,,110046034714
5534WCMLBS1VALL,-93.40299999999999,44.872,False,27,053,026007,27,27053,27053026007,1400000US27053026007,APEX INTERNATIONAL MFG,10000 VALLEY VIEW RD,EDEN PRAIRIE,MN,55344,"APEX INTERNATIONAL MFG.10000 VALLEY VIEW RD, EDEN PRAIRIE MINNESOTA 55344 (HENNEPIN)",0,C,,110003742059
55344FTMRK12150,-93.43299999999999,44.861999999999995,False,27,053,026019,27,27053,27053026019,1400000US27053026019,APPLIED COATING TECHNOLOGY INC PLANT 1,12150 TECHNOLOGY DRIVE,EDEN PRAIRIE,MN,55344,"APPLIED COATING TECHNOLOGY INC PLANT 1.12150 TECHNOLOGY DRIVE, EDEN PRAIRIE MINNESOTA 55344 (HENNEPIN)",0,C,,
55344RSMNT12001,-93.431,44.861999999999995,False,27,053,026019,27,27053,27053026019,1400000US27053026019,EMERSON AUTOMATION SOLUTIONS ROSEMOUNT INC,12001 TECHNOLOGY DR,EDEN PRAIRIE,MN,55344,"EMERSON AUTOMATION SOLUTIONS ROSEMOUNT INC.12001 TECHNOLOGY DR, EDEN PRAIRIE MINNESOTA 55344 (HENNEPIN)",0,C,,110001443956
55344MRSNC12005,-93.43299999999999,44.861999999999995,False,27,053,026019,27,27053,27053026019,1400000US27053026019,EMERSON CONTROL TECHNIQUES,12005 TECHNOLOGY DR,EDEN PRAIRIE,MN,55344,"EMERSON CONTROL TECHNIQUES.12005 TECHNOLOGY DR, EDEN PRAIRIE MINNESOTA 55344 (HENNEPIN)",0,C,,
55344HNYWL8840E,-93.275,45.131,False,27,003,050710,27,27003,27003050710,1400000US27003050710,HONEYWELL AEROSPACE COON RAPIDS,8840 EVERGREEN BLVD,COON RAPIDS,MN,55433,"HONEYWELL AEROSPACE COON RAPIDS.8840 EVERGREEN BLVD, COON RAPIDS MINNESOTA 55433 (ANOKA)",0,C,,110000890885
55433LNDND9055E,-93.27799999999999,45.13399999999999,False,27,003,050710,27,27003,27003050710,1400000US27003050710,LUND INDUSTRIES INC,9055 EVERGREEN BLVD,COON RAPIDS,MN,55433,"LUND INDUSTRIES INC.9055 EVERGREEN BLVD, COON RAPIDS MINNESOTA 55433 (ANOKA)",1,C,,
55433MDWST9289E,-93.28,45.137,False,27,003,050710,27,27003,27003050710,1400000US27003050710,MIDWEST FINISHING INC,9289 EVERGREEN BLVD,COON RAPIDS,MN,55433,"MIDWEST FINISHING INC.9289 EVERGREEN BLVD, COON RAPIDS MINNESOTA 55433 (ANOKA)",0,C,,
55433RMSYT50190,-93.279,45.132,False,27,003,050710,27,27003,27003050710,1400000US27003050710,RAMSEY TECHNOLOGY INC,501 90TH AVE NW,MINNEAPOLIS,MN,55433,"RAMSEY TECHNOLOGY INC.501 90TH AVE NW, MINNEAPOLIS MINNESOTA 55433 (ANOKA)",0,C,,
55433QLTYS38090,-93.27600000000001,45.135,False,27,003,050710,27,27003,27003050710,1400000US27003050710,STERIS INC,380 90TH AVE NW,COON RAPIDS,MN,55433,"STERIS INC.380 90TH AVE NW, COON RAPIDS MINNESOTA 55433 (ANOKA)",0,C,,110008821677
55433RMSXX8600E,-93.275,45.126000000000005,False,27,003,050710,27,27053,27003050710,1400000US27003050710,RMS,8600 EVERGREEN BLVD,MINNEAPOLIS,MN,554336036,"RMS.8600 EVERGREEN BLVD, MINNEAPOLIS MINNESOTA 55433 (HENNEPIN)",0,C,,
55433LMPLT896SP,-93.273,45.13399999999999,False,27,003,050710,27,27003,27003050710,1400000US27003050710,ALUMIPLATE INC,8960 SPRINGBROOK DR SUITE 105,COON RAPIDS,MN,55433,"ALUMIPLATE INC.8960 SPRINGBROOK DR SUITE 105, COON RAPIDS MINNESOTA 55433 (ANOKA)",0,C,,110003731329
55345DGCRP14901,-93.47,44.93600000000001,False,27,053,026202,27,27053,27053026202,1400000US27053026202,ST JUDE MEDICAL DAIG DIV,14901 MINNETONKA INDL RD,MINNETONKA,MN,553452126,"ST JUDE MEDICAL DAIG DIV.14901 MINNETONKA INDL RD, MINNETONKA MINNESOTA 55345 (HENNEPIN)",0,C,,
55345DVNCC15102,-93.47,44.93600000000001,False,27,053,026202,27,27053,27053026202,1400000US27053026202,HONEYWELL ADVANCED CIRCUITS INC,15102 MINNETONKA INDL RD,MINNETONKA,MN,55345,"HONEYWELL ADVANCED CIRCUITS INC.15102 MINNETONKA INDL RD, MINNETONKA MINNESOTA 55345 (HENNEPIN)",0,C,,
55345DVNCD15115,-93.47200000000001,44.93600000000001,False,27,053,026202,27,27053,27053026202,1400000US27053026202,IFLEX INC,15101 MINNETONKA IND RD,MINNETONKA,MN,55345,"IFLEX INC.15101 MINNETONKA IND RD, MINNETONKA MINNESOTA 55345 (HENNEPIN)",0,C,,
55345PRCSN15285,-93.47200000000001,44.938,False,27,053,026302,27,27053,27053026302,1400000US27053026302,"PRECISION DIVERSIFIED, IND INC",15285 MINNETONKA BLVD,MINNETONKA,MN,55345,"PRECISION DIVERSIFIED, IND INC.15285 MINNETONKA BLVD, MINNETONKA MINNESOTA 55345 (HENNEPIN)",1,C,,
55350GBLFX528DA,-94.383,44.886,False,27,085,950400,27,27085,27085950400,1400000US27085950400,GOEBEL FIXTURE CO INC,528 DALE ST,HUTCHINSON,MN,55350,"GOEBEL FIXTURE CO INC.528 DALE ST, HUTCHINSON MINNESOTA 55350 (MCLEOD)",0,C,,
55350HRCLS35ADA,-94.36399999999999,44.893,False,27,085,950400,27,27085,27085950400,1400000US27085950400,MINNESOTA SPECIALTY YEAST LLC,35 ADAMS ST NE,HUTCHINSON,MN,55350,"MINNESOTA SPECIALTY YEAST LLC.35 ADAMS ST NE, HUTCHINSON MINNESOTA 55350 (MCLEOD)",0,C,,110000425031
55350HTCHN40WES,-94.355,44.898999999999994,False,27,085,950400,27,27085,27085950400,1400000US27085950400,HUTCHINSON TECHNOLOGY INC,40 W HIGHLAND PARK,HUTCHINSON,MN,55350,"HUTCHINSON TECHNOLOGY INC.40 W HIGHLAND PARK, HUTCHINSON MINNESOTA 55350 (MCLEOD)",0,C,,110000425040
55350NWDMN5403R,-94.381,44.896,False,27,085,950400,27,27085,27085950400,1400000US27085950400,NEW DIMENSION PLATING INC,540 3RD AVE NW,HUTCHINSON,MN,55350,"NEW DIMENSION PLATING INC.540 3RD AVE NW, HUTCHINSON MINNESOTA 55350 (MCLEOD)",0,C,,
55350HTCHNHWY22,-94.383,44.896,False,27,085,950400,27,27085,27085950400,1400000US27085950400,HUTCHINSON MANUFACTURING INC,720 HWY 7 W,HUTCHINSON,MN,55350,"HUTCHINSON MANUFACTURING INC.720 HWY 7 W, HUTCHINSON MINNESOTA 55350 (MCLEOD)",0,C,,110002321443
55350HGNFR25MIC,-94.354,44.894,False,27,085,950400,27,27085,27085950400,1400000US27085950400,HAUGEN FURNITURE CO,25 MICHIGAN AVE,HUTCHINSON,MN,55350,"HAUGEN FURNITURE CO.25 MICHIGAN AVE, HUTCHINSON MINNESOTA 55350 (MCLEOD)",0,C,,
55350MMGMDHIGHW,-94.36,44.88,False,27,085,950300,27,27085,27085950300,1400000US27085950300,3M CO-HUTCHINSON,905/915 ADAMS ST SE,HUTCHINSON,MN,55350,"3M CO-HUTCHINSON.905/915 ADAMS ST SE, HUTCHINSON MINNESOTA 55350 (MCLEOD)",0,C,,110000425059
55355LTCHFONEPR,-94.509,45.126000000000005,False,27,093,560300,27,27093,27093560300,1400000US27093560300,"INNOVEX, INC",44 PRECISION DR,LITCHFIELD,MN,55355,"INNOVEX, INC.44 PRECISION DR, LITCHFIELD MINNESOTA 55355 (MEEKER)",0,C,,110002122818
55355NDRSN405SO,-94.515,45.13,False,27,093,560300,27,27093,27093560300,1400000US27093560300,ANDERSON CHEMICAL CO,405 S HUBBARD,LITCHFIELD,MN,55355,"ANDERSON CHEMICAL CO.405 S HUBBARD, LITCHFIELD MINNESOTA 55355 (MEEKER)",0,C,,110000425095
5535WTCHTC1PREC,-94.509,45.126000000000005,False,27,093,560300,27,27093,27093560300,1400000US27093560300,TECH-ETCH INC,1 PRECISION DR,LITCHFIELD,MN,55355,"TECH-ETCH INC.1 PRECISION DR, LITCHFIELD MINNESOTA 55355 (MEEKER)",0,C,,110031294882
55355PLMNDBOX56,-94.539,45.147,False,27,093,560400,27,27093,27093560400,1400000US27093560400,PALM INDUSTRIES INC,61385 US HWY 12,LITCHFIELD,MN,55355,"PALM INDUSTRIES INC.61385 US HWY 12, LITCHFIELD MINNESOTA 55355 (MEEKER)",0,C,,
55355CSTMPSOUTH,-94.52799999999999,45.111999999999995,False,27,093,560400,27,27093,27093560400,1400000US27093560400,CUSTOM PRODUCTS OF LITCHFIELD INC,1715 SIBLEY AVE  SOUTH,LITCHFIELD,MN,55355,"CUSTOM PRODUCTS OF LITCHFIELD INC.1715 SIBLEY AVE  SOUTH, LITCHFIELD MINNESOTA 55355 (MEEKER)",0,C,,
55355FRSTD216WC,-94.531,45.125,False,27,093,560400,27,27093,27093560400,1400000US27093560400,FIRST DISTRICT ASSOC,101 S SWIFT AVE,LITCHFIELD,MN,55355,"FIRST DISTRICT ASSOC.101 S SWIFT AVE, LITCHFIELD MINNESOTA 55355 (MEEKER)",0,C,,110000425086
55355TWMST61318,-94.537,45.147,False,27,093,560400,27,27093,27093560400,1400000US27093560400,TOWMASTER INC,61318 W HWY 12,LITCHFIELD,MN,55355,"TOWMASTER INC.61318 W HWY 12, LITCHFIELD MINNESOTA 55355 (MEEKER)",0,C,,
55356VNDLN2725W,-93.59200000000001,44.989,False,27,053,027201,27,27053,27053027201,1400000US27053027201,WEST TECH INC,2725 WAYZATA BLVD,LONG LAKE,MN,55356,"WEST TECH INC.2725 WAYZATA BLVD, LONG LAKE MINNESOTA 55356 (HENNEPIN)",1,C,,
55356WSHNG2605W,-93.59,44.989,False,27,053,027201,27,27053,27053027201,1400000US27053027201,WASHINGTON SCIENTIFIC IND LONG LAKE PLANT,2605 W WAYZATA BLVD,LONG LAKE,MN,55356,"WASHINGTON SCIENTIFIC IND LONG LAKE PLANT.2605 W WAYZATA BLVD, LONG LAKE MINNESOTA 55356 (HENNEPIN)",0,C,,
55359CRCTC5129I,-93.654,45.004,False,27,053,027002,27,27053,27053027002,1400000US27053027002,ELECTROCHEMICALS INC,5129 INDUSTRIAL ST,MAPLE PLAIN,MN,55359,"ELECTROCHEMICALS INC.5129 INDUSTRIAL ST, MAPLE PLAIN MINNESOTA 55359 (HENNEPIN)",0,C,,
55359LCTRC5630P,-93.666,45.012,False,27,053,027002,27,27053,27053027002,1400000US27053027002,MACDERMID ENTHONE AMERICA LLC,5630 PIONEER CREEK DR,MAPLE PLAIN,MN,55359,"MACDERMID ENTHONE AMERICA LLC.5630 PIONEER CREEK DR, MAPLE PLAIN MINNESOTA 55359 (HENNEPIN)",0,C,,110000425102
55359NNVXN5540P,-93.664,45.012,False,27,053,027002,27,27053,27053027002,1400000US27053027002,INNOVEX INC.,5540 PIONEER CREEK DR,MAPLE PLAIN,MN,55359,"INNOVEX INC..5540 PIONEER CREEK DR, MAPLE PLAIN MINNESOTA 55359 (HENNEPIN)",0,C,,110008663160
55362SNNYF207W4,-93.79899999999999,45.303999999999995,False,27,171,100203,27,27171,27171100203,1400000US27171100203,CARGILL KITCHEN SOLUTIONS INC,206 W 4TH ST,MONTICELLO,MN,55362,"CARGILL KITCHEN SOLUTIONS INC.206 W 4TH ST, MONTICELLO MINNESOTA 55362 (WRIGHT)",0,C,,110000425111
55364CRMFG5338S,-93.65899999999999,44.93600000000001,False,27,053,027602,27,27053,27053027602,1400000US27053027602,CR MANUFACTURING CO,5338 SHORELINE BLVD,MOUND,MN,55364,"CR MANUFACTURING CO.5338 SHORELINE BLVD, MOUND MINNESOTA 55364 (HENNEPIN)",0,C,,
55364ZNTHP9177Z,-93.42200000000001,45.121,False,27,053,026710,27,27053,27053026710,1400000US27053026710,ZENITH PRODUCTS CO,9177 ZACHARY LN N,MAPLE GROVE,MN,553694002,"ZENITH PRODUCTS CO.9177 ZACHARY LN N, MAPLE GROVE MINNESOTA 55369 (HENNEPIN)",0,C,,110000425120
55369CKPNT8976Z,-93.42200000000001,45.117,False,27,053,026710,27,27053,27053026710,1400000US27053026710,COOK COMPOSITES & POLYMERS CO,8976 ZACHARY LN N  BOX 1415,MAPLE GROVE,MN,55369,"COOK COMPOSITES & POLYMERS CO.8976 ZACHARY LN N  BOX 1415, MAPLE GROVE MINNESOTA 55369 (HENNEPIN)",0,C,,
55369NVRSL8860Z,-93.42200000000001,45.11600000000001,False,27,053,026710,27,27053,27053026710,1400000US27053026710,ADVANCED CIRCUITS MINNESOTA,8860 ZACHARYLANE,MAPLE GROVE,MN,55369,"ADVANCED CIRCUITS MINNESOTA.8860 ZACHARYLANE, MAPLE GROVE MINNESOTA 55369 (HENNEPIN)",0,C,,110000425148
55369THPRN7401K,-93.40299999999999,45.089,False,27,053,026710,27,27053,27053026710,1400000US27053026710,LSC COMMUNICATIONS / MAPLE GROVE,7401 KILMER LN,MAPLE GROVE,MN,55369,"LSC COMMUNICATIONS / MAPLE GROVE.7401 KILMER LN, MAPLE GROVE MINNESOTA 55369 (HENNEPIN)",0,C,,110008817628
55369NVRSL10751,-93.41799999999999,45.11600000000001,False,27,053,026710,27,27053,27053026710,1400000US27053026710,UNIVERSAL PLASTICS INC,10751 89TH AVE N,MAPLE GROVE,MN,55369,"UNIVERSAL PLASTICS INC.10751 89TH AVE N, MAPLE GROVE MINNESOTA 55369 (HENNEPIN)",1,C,,110000425139
55369SLNTK7550M,-93.405,45.092,False,27,053,026710,27,27053,27053026710,1400000US27053026710,SILENT KNIGHT,7550 MERIDIAN CIR,MAPLE GROVE,MN,55369,"SILENT KNIGHT.7550 MERIDIAN CIR, MAPLE GROVE MINNESOTA 55369 (HENNEPIN)",0,C,,110003845135
55369GNNTT8775Z,-93.42200000000001,45.114,False,27,053,026710,27,27053,27053026710,1400000US27053026710,GANNETT OFFSET MINNEAPOLIS,8775 ZACHARY LN N,MAPLE GROVE,MN,55369,"GANNETT OFFSET MINNEAPOLIS.8775 ZACHARY LN N, MAPLE GROVE MINNESOTA 55369 (HENNEPIN)",0,C,,110003922792
55369GGRGT11177,-93.428,45.095,False,27,053,026710,27,27053,27053026710,1400000US27053026710,AGGREGATE INDUSTRIES MAPLE GROVE READY MIX,11701 77TH AVE NO,MAPLE GROVE,MN,55369,"AGGREGATE INDUSTRIES MAPLE GROVE READY MIX.11701 77TH AVE NO, MAPLE GROVE MINNESOTA 55369 (HENNEPIN)",0,C,,110037144792
5536WSPNRS841BU,-93.406,45.106,False,27,053,026710,27,27053,27053026710,1400000US27053026710,ASPEN RESEARCH CORP,8401 JEFFERSON HWY,MAPLE GROVE,MN,55369,"ASPEN RESEARCH CORP.8401 JEFFERSON HWY, MAPLE GROVE MINNESOTA 55369 (HENNEPIN)",0,C,,110044315666
55369CRMTR325HW,-93.397,45.111999999999995,False,27,053,026702,27,27053,27053026702,1400000US27053026702,CERAM-TRAZ CORP CERAMIC INDL COATINGS,325 HWY 81,OSSEO,MN,55369,"CERAM-TRAZ CORP CERAMIC INDL COATINGS.325 HWY 81, OSSEO MINNESOTA 55369 (HENNEPIN)",0,C,,110000605970
55371CRYST1100C,-93.59,45.553000000000004,False,27,141,030102,27,27141,27141030102,1400000US27141030102,CRYSTAL CABINET WORKS INC -- PRINCETON,1100 CRYSTAL DR,PRINCETON,MN,55371,"CRYSTAL CABINET WORKS INC -- PRINCETON.1100 CRYSTAL DR, PRINCETON MINNESOTA 55371 (SHERBURNE)",0,C,,110000425157
55371SDSTL16071,-93.59700000000001,45.555,False,27,141,030102,27,27141,27141030102,1400000US27141030102,US DISTILLED PRODS CO,1607 S 12TH ST,PRINCETON,MN,55371,"US DISTILLED PRODS CO.1607 S 12TH ST, PRINCETON MINNESOTA 55371 (SHERBURNE)",0,C,,
55371CRYST16081,-93.596,45.555,False,27,141,030102,27,27141,27141030102,1400000US27141030102,CRYSTAL COMMERCIAL DIV,1608 12TH ST N,PRINCETON,MN,55371,"CRYSTAL COMMERCIAL DIV.1608 12TH ST N, PRINCETON MINNESOTA 55371 (SHERBURNE)",0,C,,
55371SMTHS1100S,-93.587,45.563,False,27,095,170700,27,27095,27095170700,1400000US27095170700,SMITH SYSTEM MFG CO,1100 S 10TH ST,PRINCETON,MN,55371,"SMITH SYSTEM MFG CO.1100 S 10TH ST, PRINCETON MINNESOTA 55371 (MILLE LACS)",0,C,,
55371WSTLN705HY,-93.59100000000001,45.562,False,27,095,170700,27,27095,27095170700,1400000US27095170700,WESTLING MFG,705 OLD HWY 18 S,PRINCETON,MN,55371,"WESTLING MFG.705 OLD HWY 18 S, PRINCETON MINNESOTA 55371 (MILLE LACS)",0,C,,
55373DVRSF9091C,-93.73299999999999,45.083,False,27,053,027001,27,27053,27053027001,1400000US27053027001,DIVERSIFOAM PRODUCTS,9091 COUNTY RD 50,ROCKFORD,MN,55373,"DIVERSIFOAM PRODUCTS.9091 COUNTY RD 50, ROCKFORD MINNESOTA 55373 (HENNEPIN)",0,C,,110000605998
55378CHSKC12502,-93.352,44.775,False,27,139,080201,27,27139,27139080201,1400000US27139080201,PROCHASKA LLC,12502 XENWOOD AVE S,SAVAGE,MN,55378,"PROCHASKA LLC.12502 XENWOOD AVE S, SAVAGE MINNESOTA 55378 (SCOTT)",0,C,,110000425184
55378FBCNN6111W,-93.35799999999999,44.778,False,27,139,080201,27,27139,27139080201,1400000US27139080201,FABCON INC,6111 WEST HWY 13,SAVAGE,MN,553781298,"FABCON INC.6111 WEST HWY 13, SAVAGE MINNESOTA 55378 (SCOTT)",0,C,,
55378HTNGL6665W,-93.36399999999999,44.777,False,27,139,080201,27,27139,27139080201,1400000US27139080201,HEAT-N-GLO,6665 W HWY 13,SAVAGE,MN,55378,"HEAT-N-GLO.6665 W HWY 13, SAVAGE MINNESOTA 55378 (SCOTT)",0,C,,
55378KCHMT12101,-93.353,44.78,False,27,139,080201,27,27139,27139080201,1400000US27139080201,FLINT HILLS RESOURCES PINE BEND LLC SAVAGE,12101 YOSEMITE AVE S,SAVAGE,MN,55378,"FLINT HILLS RESOURCES PINE BEND LLC SAVAGE.12101 YOSEMITE AVE S, SAVAGE MINNESOTA 55378 (SCOTT)",0,C,,110008820099
55378MRCNN12130,-93.336,44.78,False,27,139,080100,27,27139,27139080100,1400000US27139080100,SILGAN CONTAINERS MANUFACTURING CORP,12130 LYNN AVE S,SAVAGE,MN,55378,"SILGAN CONTAINERS MANUFACTURING CORP.12130 LYNN AVE S, SAVAGE MINNESOTA 55378 (SCOTT)",0,C,,110000425200
55378PLLSB12130,-93.336,44.78,False,27,139,080100,27,27139,27139080100,1400000US27139080100,PILLSBURY GREEN GIANT FILM CONVERTING,12130 LYNN AVE S,SAVAGE,MN,55378,"PILLSBURY GREEN GIANT FILM CONVERTING.12130 LYNN AVE S, SAVAGE MINNESOTA 55378 (SCOTT)",0,C,,
55378CNTNN5505W,-93.348,44.778,False,27,139,080100,27,27139,27139080100,1400000US27139080100,CONTINENTAL MACHINES INC.,5505 W 123RD ST,SAVAGE,MN,553781299,"CONTINENTAL MACHINES INC..5505 W 123RD ST, SAVAGE MINNESOTA 55378 (SCOTT)",0,C,,110000425193
55379CNKLN551VA,-93.449,44.795,False,27,139,080301,27,27139,27139080301,1400000US27139080301,CONKLIN CO INC,551 VALLEY PARK DR,SHAKOPEE,MN,55379,"CONKLIN CO INC.551 VALLEY PARK DR, SHAKOPEE MINNESOTA 55379 (SCOTT)",0,C,,110000425219
55379FRMNT4400V,-93.463,44.798,False,27,139,080301,27,27139,27139080301,1400000US27139080301,FREMONT INDUSTRIES LLC,4400 VALLEY INDUSTRIAL BLVD N,SHAKOPEE,MN,55379,"FREMONT INDUSTRIES LLC.4400 VALLEY INDUSTRIAL BLVD N, SHAKOPEE MINNESOTA 55379 (SCOTT)",0,C,,110000425237
55379NCHRG4108V,-93.46700000000001,44.799,False,27,139,080301,27,27139,27139080301,1400000US27139080301,ANCHOR GLASS CONTAINER CORP-SHAKOPEE,4108 VALLEY IND US TRIAL BLVD N,SHAKOPEE,MN,55379,"ANCHOR GLASS CONTAINER CORP-SHAKOPEE.4108 VALLEY IND US TRIAL BLVD N, SHAKOPEE MINNESOTA 55379 (SCOTT)",0,C,,110001442458
55379NLNDC3900S,-93.47200000000001,44.799,False,27,139,080301,27,27139,27139080301,1400000US27139080301,INLAND CONTAINER CORP,3900 STATE HWY 101,SHAKOPEE,MN,55379,"INLAND CONTAINER CORP.3900 STATE HWY 101, SHAKOPEE MINNESOTA 55379 (SCOTT)",0,C,,
55379TSMRN1000V,-93.45100000000001,44.788000000000004,False,27,139,080301,27,27139,27139080301,1400000US27139080301,TSUMURA INTL,1000 VALLEY PARK DR,SHAKOPEE,MN,55379,"TSUMURA INTL.1000 VALLEY PARK DR, SHAKOPEE MINNESOTA 55379 (SCOTT)",0,C,,
55379CRTNT3303E,-93.478,44.798,False,27,139,080301,27,27139,27139080301,1400000US27139080301,CERTAINTEED SHAKOPEE,3303 E 4TH AVE,SHAKOPEE,MN,55379,"CERTAINTEED SHAKOPEE.3303 E 4TH AVE, SHAKOPEE MINNESOTA 55379 (SCOTT)",0,C,,110000768312
55379DCTLC1187P,-93.458,44.787,False,27,139,080301,27,27139,27139080301,1400000US27139080301,TYCO ELECTRONICS,1187 PARK PL,SHAKOPEE,MN,55379,"TYCO ELECTRONICS.1187 PARK PL, SHAKOPEE MINNESOTA 55379 (SCOTT)",1,C,,110000425228
55379SHLND4401V,-93.464,44.798,False,27,139,080301,27,27139,27139080301,1400000US27139080301,ASHLAND DISTRIBUTION CO,4401 VALLEY INDUSTRIAL BLVD,SHAKOPEE,MN,55379,"ASHLAND DISTRIBUTION CO.4401 VALLEY INDUSTRIAL BLVD, SHAKOPEE MINNESOTA 55379 (SCOTT)",0,C,,
55379DCTLC1000V,-93.45100000000001,44.788000000000004,False,27,139,080301,27,27139,27139080301,1400000US27139080301,ADC TELECOMMUNICATIONS INC,1000 VALLEY PARK DR,SHAKOPEE,MN,55379,"ADC TELECOMMUNICATIONS INC.1000 VALLEY PARK DR, SHAKOPEE MINNESOTA 55379 (SCOTT)",0,C,,
55379GGRGT681HI,-93.40700000000001,44.788999999999994,False,27,139,080301,27,27139,27139080301,1400000US27139080301,AGGREGATE INDUSTRIES - SHAKOPEE READY MIX,6801 HWY 101,SHAKOPEE,MN,55379,"AGGREGATE INDUSTRIES - SHAKOPEE READY MIX.6801 HWY 101, SHAKOPEE MINNESOTA 55379 (SCOTT)",0,C,,110008820357
55379SHKPV511SV,-93.454,44.792,False,27,139,080301,27,27139,27139080301,1400000US27139080301,QG PRINTING II CORP,5101 S VALLEY INDUSTRIAL BLVD,SHAKOPEE,MN,55379,"QG PRINTING II CORP.5101 S VALLEY INDUSTRIAL BLVD, SHAKOPEE MINNESOTA 55379 (SCOTT)",0,C,,110020519134
55379BLLKG127TH,-93.432,44.786,False,27,139,080301,27,27139,27139080301,1400000US27139080301,BLUE LAKE GENERATING PLANT,1200 70TH ST S,SHAKOPEE,MN,55379,"BLUE LAKE GENERATING PLANT.1200 70TH ST S, SHAKOPEE MINNESOTA 55379 (SCOTT)",0,C,,110009397535
55379CRPMT7632H,-93.42,44.79,False,27,139,080301,27,27139,27139080301,1400000US27139080301,MICROSOURCE LLC,7632 HWY 101,SHAKOPEE,MN,55379,"MICROSOURCE LLC.7632 HWY 101, SHAKOPEE MINNESOTA 55379 (SCOTT)",0,C,,110056971736
5537WMDLLN4571V,-93.461,44.793,False,27,139,080301,27,27139,27139080301,1400000US27139080301,MEDALLION CABINETRY INC,4571 VALLEY INDUSTRIAL RD,SHAKOPEE,MN,55379,"MEDALLION CABINETRY INC.4571 VALLEY INDUSTRIAL RD, SHAKOPEE MINNESOTA 55379 (SCOTT)",0,C,,110003767424
5537WFRTRR77CRE,-93.428,44.794,False,27,139,080301,27,27139,27139080301,1400000US27139080301,FORTERRA CONCRETE PRODUCTS - SHAKOPEE,7070 CRETEX AVE S,SHAKOPEE,MN,55379,"FORTERRA CONCRETE PRODUCTS - SHAKOPEE.7070 CRETEX AVE S, SHAKOPEE MINNESOTA 55379 (SCOTT)",1,C,,110069319473
5337WRCVRY6528C,-93.434,44.794,False,27,139,080301,27,27139,27139080301,1400000US27139080301,RECOVERY TECHNOLOGY SOLUTIONS LLC,6528 COUNTY RD 101E,SHAKOPEE,MN,55379,"RECOVERY TECHNOLOGY SOLUTIONS LLC.6528 COUNTY RD 101E, SHAKOPEE MINNESOTA 55379 (SCOTT)",0,C,,110064351856
5537WMRSNP621IN,-93.443,44.791000000000004,False,27,139,080301,27,27139,27139080301,1400000US27139080301,EMERSON PROCESS MANAGEMENT ROSEMOUNT INC,6021 INNOVATION BLVD,SHAKOPEE,MN,55379,"EMERSON PROCESS MANAGEMENT ROSEMOUNT INC.6021 INNOVATION BLVD, SHAKOPEE MINNESOTA 55379 (SCOTT)",0,C,,110067396277
55387MDLLN180IN,-93.789,44.838,False,27,019,090302,27,27019,27019090302,1400000US27019090302,ELKAY WOOD PRODUCTS CO,180 INDUSTRIAL BLVD,WACONIA,MN,55387,"ELKAY WOOD PRODUCTS CO.180 INDUSTRIAL BLVD, WACONIA MINNESOTA 55387 (CARVER)",0,C,,110000425255
