TRIFID,LONGITUDE,LATITUDE,ESTIMATE,STATEFP,COUNTYFP,TRACTCE,STATEGEOID,COUNTYGEOID,TRACTGEOID,AFFGEOID,FACILITY_NAME,STREET,CITY,STUSPS,ZIP_CODE,FACILITY,FAC_CLOSED_IND,ASGN_FEDERAL_IND,BIA_CODE,EPA_REGISTRY_ID
07001CLBNC255BL,-74.257,40.577,False,34,023,009000,34,34023,34023009000,1400000US34023009000,ECOLAB INC,255 BLAIR RD,AVENEL,NJ,7001,"ECOLAB INC.255 BLAIR RD, AVENEL NEW JERSEY 07001 (MIDDLESEX)",0,C,,
07001PLTLB267HO,-74.257,40.578,False,34,023,009000,34,34023,34023009000,1400000US34023009000,PILOT LABORATORIES,267 HOMESTEAD AVE,AVENEL,NJ,7001,"PILOT LABORATORIES.267 HOMESTEAD AVE, AVENEL NEW JERSEY 07001 (MIDDLESEX)",0,C,,110000317773
07001PQCRP1PADD,-74.273,40.586,False,34,023,009000,34,34023,34023009000,1400000US34023009000,PQ CORP RAHWAY,2 PADDOCK ST,AVENEL,NJ,70011898,"PQ CORP RAHWAY.2 PADDOCK ST, AVENEL NEW JERSEY 07001 (MIDDLESEX)",0,C,,
07001THGRY130ES,-74.262,40.576,False,34,023,009000,34,34023,34023009000,1400000US34023009000,GRAY ENVELOPE MANUFACTURING CO INC,130 ESSEX AVE E,AVENEL,NJ,7001,"GRAY ENVELOPE MANUFACTURING CO INC.130 ESSEX AVE E, AVENEL NEW JERSEY 07001 (MIDDLESEX)",0,C,,
07001THPRC100ES,-74.262,40.577,False,34,023,009000,34,34023,34023009000,1400000US34023009000,THE PROCTER & GAMBLE CO,100 ESSEX AVE E,AVENEL,NJ,7001,"THE PROCTER & GAMBLE CO.100 ESSEX AVE E, AVENEL NEW JERSEY 07001 (MIDDLESEX)",1,C,,110000317782
07095LCNBL11CRA,-74.255,40.595,False,34,023,009000,34,34023,34023009000,1400000US34023009000,GENTEK BUILDING PRODUCTS,11 CRAGWOOD RD,AVENEL,NJ,7001,"GENTEK BUILDING PRODUCTS.11 CRAGWOOD RD, AVENEL NEW JERSEY 07001 (MIDDLESEX)",0,C,,110000319236
07001PRDSL211RA,-74.258,40.597,False,34,023,009000,34,34023,34023009000,1400000US34023009000,PRIDE SOLVENTS & CHEMICAL CO OF NEW JERSEY,211 RANDOLPH AVE,AVENEL,NJ,7001,"PRIDE SOLVENTS & CHEMICAL CO OF NEW JERSEY.211 RANDOLPH AVE, AVENEL NEW JERSEY 07001 (MIDDLESEX)",0,C,,110000322561
07001TRMTR36MIL,-74.252,40.599000000000004,False,34,023,009000,34,34023,34023009000,1400000US34023009000,PRIDE SOLVENTS & CHEMICAL CO OF NJ,36 MILEED WAY,AVENEL,NJ,7001,"PRIDE SOLVENTS & CHEMICAL CO OF NJ.36 MILEED WAY, AVENEL NEW JERSEY 07001 (MIDDLESEX)",1,C,,110000317791
07001VNWTR160ES,-74.26100000000001,40.575,False,34,023,009000,34,34023,34023009000,1400000US34023009000,VAN WATERS & ROGERS INC,160 ESSEX AVE,AVENEL,NJ,70012020,"VAN WATERS & ROGERS INC.160 ESSEX AVE, AVENEL NEW JERSEY 07001 (MIDDLESEX)",0,C,,
07001CNTNN10PRO,-74.272,40.583,True,34,023,009000,34,34023,34023009000,1400000US34023009000,CONTINENTAL PLASTICS CO CHEMICALS INC,10 PRODUCTION WAY,AVENEL,NJ,7001,"CONTINENTAL PLASTICS CO CHEMICALS INC 10 PRODUCTION WAY, AVENEL, NJ, 7001",1,C,,
07001CPCHMTERMI,-74.265,40.595,True,34,023,009000,34,34023,34023009000,1400000US34023009000,CP CHEMICALS INC AVENEL WAREHOUSE,TERMINAL WAY OFF RANDOLF AVE,AVENEL,NJ,70010021,"CP CHEMICALS INC AVENEL WAREHOUSE TERMINAL WAY OFF RANDOLF AVE, AVENEL, NJ, 70010021",1,C,,
07001GNRLD150AV,-74.274,40.579,False,34,023,002703,34,34023,34023002703,1400000US34023002703,GENERAL DYNAMICS ELECTRO DYNAMIC,150 AVENEL ST,AVENEL,NJ,7001,"GENERAL DYNAMICS ELECTRO DYNAMIC.150 AVENEL ST, AVENEL NEW JERSEY 07001 (MIDDLESEX)",0,C,,
07002BSTFD99AVE,-74.141,40.650999999999996,False,34,017,011500,34,34017,34017011500,1400000US34017011500,CPC INTL  INC  BEST FOODS,99 AVE  A,BAYONNE,NJ,70020307,"CPC INTL  INC  BEST FOODS.99 AVE  A, BAYONNE NEW JERSEY 07002 (HUDSON)",0,C,,
07002CSCHM40AVE,-74.141,40.649,False,34,017,011500,34,34017,34017011500,1400000US34017011500,VERTELLUS PERFORMANCE MATERIALS INC,40 AVE A,BAYONNE,NJ,7002,"VERTELLUS PERFORMANCE MATERIALS INC.40 AVE A, BAYONNE NEW JERSEY 07002 (HUDSON)",0,C,,110000317844
07002CMRCS229EA,-74.10600000000001,40.659,False,34,017,010800,34,34017,34017010800,1400000US34017010800,AGC CHEMICALS AMERICAS INC,229 E 22ND ST,BAYONNE,NJ,7002,"AGC CHEMICALS AMERICAS INC.229 E 22ND ST, BAYONNE NEW JERSEY 07002 (HUDSON)",0,C,,110000317835
07002KNRCH140E2,-74.107,40.656,False,34,017,010800,34,34017,34017010800,1400000US34017010800,"KENRICH PETROCHEMICALS, INC.",140 EAST 22ND STREET,BAYONNE,NJ,7002,"KENRICH PETROCHEMICALS, INC..140 EAST 22ND STREET, BAYONNE NEW JERSEY 07002 (HUDSON)",1,C,,110000317853
07002RNPRL4HOOK,-74.09899999999999,40.652,False,34,017,010800,34,34017,34017010800,1400000US34017010800,RONA,4 HOOK RD,BAYONNE,NJ,7002,"RONA.4 HOOK RD, BAYONNE NEW JERSEY 07002 (HUDSON)",1,C,,
07002XXNCH250EA,-74.096,40.654,False,34,017,010800,34,34017,34017010800,1400000US34017010800,EXXON CHEMICAL CO BAYONNE CHEMICAL PLANT,250 E 22ND ST,BAYONNE,NJ,7002,"EXXON CHEMICAL CO BAYONNE CHEMICAL PLANT.250 E 22ND ST, BAYONNE NEW JERSEY 07002 (HUDSON)",0,C,,
07002BYNNL1AVEJ,-74.10300000000001,40.658,False,34,017,010800,34,34017,34017010800,1400000US34017010800,EXXONMOBIL BAYONNE LUBRICANTS PLANT,1 AVE J,BAYONNE,NJ,7002,"EXXONMOBIL BAYONNE LUBRICANTS PLANT.1 AVE J, BAYONNE NEW JERSEY 07002 (HUDSON)",0,C,,110000317817
07002CGNTC10HOO,-74.112,40.655,False,34,017,010800,34,34017,34017010800,1400000US34017010800,BAYONNE PLANT HOLDING LLC,10 HOOK RD,BAYONNE,NJ,7002,"BAYONNE PLANT HOLDING LLC.10 HOOK RD, BAYONNE NEW JERSEY 07002 (HUDSON)",0,C,,110000317826
07002CSTLLFOOTO,-74.096,40.650999999999996,False,34,017,010800,34,34017,34017010800,1400000US34017010800,COASTAL OIL OF NEW YORK,FOOT OF E 5TH ST,BAYONNE,NJ,7002,"COASTAL OIL OF NEW YORK.FOOT OF E 5TH ST, BAYONNE NEW JERSEY 07002 (HUDSON)",0,C,,
07002MRDHS420HO,-74.093,40.65,False,34,017,010800,34,34017,34017010800,1400000US34017010800,BUCKEYE BAYONNE TERMINAL,420 HOOK RD,BAYONNE,NJ,7002,"BUCKEYE BAYONNE TERMINAL.420 HOOK RD, BAYONNE NEW JERSEY 07002 (HUDSON)",0,C,,110000317862
07002BYNNN141HD,-74.092,40.653,False,34,017,010800,34,34017,34017010800,1400000US34017010800,BAYONNE ENERGY CENTER,401 HOOK RD,BAYONNE,NJ,7002,"BAYONNE ENERGY CENTER.401 HOOK RD, BAYONNE NEW JERSEY 07002 (HUDSON)",0,C,,110043803685
07002PLMRS196WE,-74.111,40.665,True,34,017,010800,34,34017,34017010800,1400000US34017010800,PALMER ASPHALT CO,196 WEST 5TH ST,BAYONNE,NJ,7002,"PALMER ASPHALT CO 196 WEST 5TH ST, BAYONNE, NJ, 7002",0,C,,
07002NRTNS148EA,-74.122,40.65,False,34,017,011400,34,34017,34017011400,1400000US34017011400,MURALO CO INC NORTON & SON DIV,148 EAST FIFTH ST,BAYONNE,NJ,70020455,"MURALO CO INC NORTON & SON DIV.148 EAST FIFTH ST, BAYONNE NEW JERSEY 07002 (HUDSON)",0,C,,110000317871
0700WHNRYR59E1S,-74.125,40.646,False,34,017,011400,34,34017,34017011400,1400000US34017011400,HENRY REPEATING ARMS CORP,59 E 1ST ST,BAYONNE,NJ,7002,"HENRY REPEATING ARMS CORP.59 E 1ST ST, BAYONNE NEW JERSEY 07002 (HUDSON)",0,C,,110067543064
07003BNKSB24FED,-74.195,40.779,False,34,013,015900,34,34013,34013015900,1400000US34013015900,BANKS BROTHERS CORP,24  FEDERAL  PLAZA,BLOOMFIELD,NJ,7003,"BANKS BROTHERS CORP.24  FEDERAL  PLAZA, BLOOMFIELD NEW JERSEY 07003 (ESSEX)",0,C,,110000317880
07003GNRLP55LAF,-74.192,40.778,False,34,013,015900,34,34013,34013015900,1400000US34013015900,GENERAL PLASTICS INC,55 LA FRANCE AVE,BLOOMFIELD,NJ,7003,"GENERAL PLASTICS INC.55 LA FRANCE AVE, BLOOMFIELD NEW JERSEY 07003 (ESSEX)",0,C,,110000317899
07003HRTZM192BL,-74.191,40.781,False,34,013,015700,34,34013,34013015700,1400000US34013015700,HARTZ MOUNTAIN CORP,192 BLOOMFIELD AVE,BLOOMFIELD,NJ,7003,"HARTZ MOUNTAIN CORP.192 BLOOMFIELD AVE, BLOOMFIELD NEW JERSEY 07003 (ESSEX)",0,C,,110000317906
07003NTNLS225BE,-74.189,40.802,False,34,013,015200,34,34013,34013015200,1400000US34013015200,NATIONAL STARCH & CHEMICAL CO,225 BELLEVILLE AVE,BLOOMFIELD,NJ,7003,"NATIONAL STARCH & CHEMICAL CO.225 BELLEVILLE AVE, BLOOMFIELD NEW JERSEY 07003 (ESSEX)",0,C,,
07003PRLSS5871L,-74.20100000000001,40.786,False,34,013,015600,34,34013,34013015600,1400000US34013015600,PEERLESS TUBE CO,58 LOCUST AVE,BLOOMFIELD,NJ,7003,"PEERLESS TUBE CO.58 LOCUST AVE, BLOOMFIELD NEW JERSEY 07003 (ESSEX)",0,C,,
07004FRFLD55PAS,-74.281,40.869,False,34,013,021601,34,34013,34013021601,1400000US34013021601,FAIRFIELD TEXTILES CORP,55 PASSAIC AVE,FAIRFIELD,NJ,7004,"FAIRFIELD TEXTILES CORP.55 PASSAIC AVE, FAIRFIELD NEW JERSEY 07004 (ESSEX)",0,C,,
07004RFLYW125NE,-74.282,40.882,False,34,013,021601,34,34013,34013021601,1400000US34013021601,RF WIRE TECHNOLOGIES LLC.,125 NEW DUTCH LN,FAIRFIELD,NJ,7004,"RF WIRE TECHNOLOGIES LLC..125 NEW DUTCH LN, FAIRFIELD NEW JERSEY 07004 (ESSEX)",0,C,,110000317942
07006CNSTN17COM,-74.319,40.872,False,34,013,021601,34,34013,34013021601,1400000US34013021601,CONSTANT SERVICES INC,17 COMMERCE RD,FAIRFIELD,NJ,7004,"CONSTANT SERVICES INC.17 COMMERCE RD, FAIRFIELD NEW JERSEY 07004 (ESSEX)",0,C,,110000317979
07006CRTSS300FA,-74.286,40.879,False,34,013,021601,34,34013,34013021601,1400000US34013021601,CURTISS-WRIGHT FLIGHT SYSTEMS INC,300 FAIRFIELD RD,FAIRFIELD,NJ,70041962,"CURTISS-WRIGHT FLIGHT SYSTEMS INC.300 FAIRFIELD RD, FAIRFIELD NEW JERSEY 07004 (ESSEX)",0,C,,
07006GNRLH30SHE,-74.26899999999999,40.878,False,34,013,021601,34,34013,34013021601,1400000US34013021601,GENERAL HOSE PRODUCTS INC,30 SHERWOOD LN,FAIRFIELD,NJ,7004,"GENERAL HOSE PRODUCTS INC.30 SHERWOOD LN, FAIRFIELD NEW JERSEY 07004 (ESSEX)",0,C,,
07006HCHST111LE,-74.309,40.864000000000004,False,34,013,021601,34,34013,34013021601,1400000US34013021601,HOECHST-CELANESE CORP NORTHEAST REGION DISTRIBUTION CENTER,111 LEHIGH DR,FAIRFIELD,NJ,7004,"HOECHST-CELANESE CORP NORTHEAST REGION DISTRIBUTION CENTER.111 LEHIGH DR, FAIRFIELD NEW JERSEY 07004 (ESSEX)",1,C,,
07006LFRDP227FA,-74.288,40.881,False,34,013,021601,34,34013,34013021601,1400000US34013021601,ILFORD PHOTO CORP,277 FAIRFIELD RD,FAIRFIELD,NJ,7006,"ILFORD PHOTO CORP.277 FAIRFIELD RD, FAIRFIELD NEW JERSEY 07006 (ESSEX)",0,C,,
07006WSTSS24SHE,-74.26899999999999,40.878,False,34,013,021601,34,34013,34013021601,1400000US34013021601,WEST ESSEX GRAPHICS INC,24 SHERWOOD LN,FAIRFIELD,NJ,7006,"WEST ESSEX GRAPHICS INC.24 SHERWOOD LN, FAIRFIELD NEW JERSEY 07006 (ESSEX)",1,C,,
07006WVLNN160PA,-74.27600000000001,40.875,False,34,013,021601,34,34013,34013021601,1400000US34013021601,WAVELINE INC,160 PASSAIC AVE,FAIRFIELD,NJ,7004,"WAVELINE INC.160 PASSAIC AVE, FAIRFIELD NEW JERSEY 07004 (ESSEX)",0,C,,
07960NSRLL80LIT,-74.271,40.889,False,34,013,021601,34,34013,34013021601,1400000US34013021601,PHELPS DODGE HIGH PERFORMANCE CONDUCTORS OF NJ INC,80 LITTLE FALLS RD,FAIRFIELD,NJ,7004,"PHELPS DODGE HIGH PERFORMANCE CONDUCTORS OF NJ INC.80 LITTLE FALLS RD, FAIRFIELD NEW JERSEY 07004 (ESSEX)",0,C,,
07004MRCNF17STE,-74.316,40.87,False,34,013,021601,34,34013,34013021601,1400000US34013021601,AMERICAN FUJI SEAL INC,17 STEWART PL,FAIRFIELD,NJ,7004,"AMERICAN FUJI SEAL INC.17 STEWART PL, FAIRFIELD NEW JERSEY 07004 (ESSEX)",0,C,,
07004CRMCM206RT,-74.30199999999999,40.871,False,34,013,021601,34,34013,34013021601,1400000US34013021601,CERAMIC MAGNETICS INC,16 LAW DR,FAIRFIELD,NJ,70043207,"CERAMIC MAGNETICS INC.16 LAW DR, FAIRFIELD NEW JERSEY 07004 (ESSEX)",0,C,,110000317924
07004RDCRC9AUDR,-74.29,40.876,False,34,013,021601,34,34013,34013021601,1400000US34013021601,ACTEGA RADCURE INC,9 AUDREY PL,FAIRFIELD,NJ,7004,"ACTEGA RADCURE INC.9 AUDREY PL, FAIRFIELD NEW JERSEY 07004 (ESSEX)",0,C,,110004122958
07004HTTMR20NEW,-74.274,40.879,False,34,013,021601,34,34013,34013021601,1400000US34013021601,HEAT-TIMER CORP,20 NEW DUTCH LN,FAIRFIELD,NJ,7004,"HEAT-TIMER CORP.20 NEW DUTCH LN, FAIRFIELD NEW JERSEY 07004 (ESSEX)",0,C,,110012708917
0700WGPRCM22DAN,-74.277,40.884,False,34,013,021601,34,34013,34013021601,1400000US34013021601,"GPR COMPANY, INC.",22 DANIEL ROAD EAST,FAIRFIELD,NJ,7004,"GPR COMPANY, INC..22 DANIEL ROAD EAST, FAIRFIELD NEW JERSEY 07004 (ESSEX)",0,C,,110004243382
0700WPPTMZ11MAD,-74.308,40.872,False,34,013,021601,34,34013,34013021601,1400000US34013021601,PPI-TIME ZERO INC,11 MADISON ROAD,FAIRFIELD,NJ,7004,"PPI-TIME ZERO INC.11 MADISON ROAD, FAIRFIELD NEW JERSEY 07004 (ESSEX)",0,C,,110063918961
0700WGSFLP19IND,-74.31,40.863,False,34,013,021601,34,34013,34013021601,1400000US34013021601,GASFLO PRODUCTS,19 IND US TRIAL RD,FAIRFIELD,NJ,7004,"GASFLO PRODUCTS.19 IND US TRIAL RD, FAIRFIELD NEW JERSEY 07004 (ESSEX)",0,C,,110029040115
0700WHNRYC23CMM,-74.32,40.872,False,34,013,021601,34,34013,34013021601,1400000US34013021601,HENRY CO,23 COMMERCE RD,FAIRFIELD,NJ,7004,"HENRY CO.23 COMMERCE RD, FAIRFIELD NEW JERSEY 07004 (ESSEX)",0,C,,110070244578
07005JHNSN400RO,-74.42399999999999,40.938,False,34,027,040900,34,34027,34027040900,1400000US34027040900,JOHANSON MANUFACTURING CORP,301 ROCKAWAY VALLEY RD,BOONTON,NJ,7005,"JOHANSON MANUFACTURING CORP.301 ROCKAWAY VALLEY RD, BOONTON NEW JERSEY 07005 (MORRIS)",0,C,,110000317960
07005RFLLC353PO,-74.426,40.931999999999995,False,34,027,040900,34,34027,34027040900,1400000US34027040900,HUBBELL POWER SYSTEMS INC,353 POWERVILLE RD,BOONTON,NJ,7005,"HUBBELL POWER SYSTEMS INC.353 POWERVILLE RD, BOONTON NEW JERSEY 07005 (MORRIS)",0,C,,110000615674
07005RPNLC661MY,-74.393,40.91,False,34,027,041000,34,34027,34027041000,1400000US34027041000,AEROPANEL CORP,661 MYRTLE AVE,BOONTON,NJ,70051916,"AEROPANEL CORP.661 MYRTLE AVE, BOONTON NEW JERSEY 07005 (MORRIS)",0,C,,
07005CRBNF4MYRT,-74.4,40.907,False,34,027,041000,34,34027,34027041000,1400000US34027041000,CARBONE OF AMERICA,400 MYRTLE AVE,BOONTON,NJ,7005,"CARBONE OF AMERICA.400 MYRTLE AVE, BOONTON NEW JERSEY 07005 (MORRIS)",0,C,,110000870647
07006GFGVR8HEND,-74.304,40.859,False,34,013,021802,34,34013,34013021802,1400000US34013021802,AGFA CORP AGFA PHOTO DIV,8 HENDERSON DR,WEST CALDWELL,NJ,70066684,"AGFA CORP AGFA PHOTO DIV.8 HENDERSON DR, WEST CALDWELL NEW JERSEY 07006 (ESSEX)",0,C,,
07006NSRLL666PA,-74.292,40.855,False,34,013,021802,34,34013,34013021802,1400000US34013021802,PHELPS DODGE HIGH PERFORMANCE,666 PASSAIC AVE,WEST CALDWELL,NJ,7006,"PHELPS DODGE HIGH PERFORMANCE.666 PASSAIC AVE, WEST CALDWELL NEW JERSEY 07006 (ESSEX)",0,C,,
07007DLXCH5HEND,-74.305,40.859,False,34,013,021802,34,34013,34013021802,1400000US34013021802,DELUXE CHECK PRINTERS INC,5 HENDERSON DR,WEST CALDWELL,NJ,7006,"DELUXE CHECK PRINTERS INC.5 HENDERSON DR, WEST CALDWELL NEW JERSEY 07006 (ESSEX)",1,C,,
07006RCKLN686PA,-74.29,40.857,False,34,013,021802,34,34013,34013021802,1400000US34013021802,ROCKLAND CORP,686 PASSAIC AVE,WEST CALDWELL,NJ,7006,"ROCKLAND CORP.686 PASSAIC AVE, WEST CALDWELL NEW JERSEY 07006 (ESSEX)",0,C,,
0700WLTSLH21HEN,-74.295,40.856,False,34,013,021802,34,34013,34013021802,1400000US34013021802,LTS LOHMANN THERAPY SYSTEMS CORP,21 HENDERSON DRIVE,WEST CALDWELL,NJ,7006,"LTS LOHMANN THERAPY SYSTEMS CORP.21 HENDERSON DRIVE, WEST CALDWELL NEW JERSEY 07006 (ESSEX)",0,C,,110000867642
0700WFNCRT31FAI,-74.291,40.866,False,34,013,021802,34,34013,34013021802,1400000US34013021802,FANCORT INDUSTRIES INC,31 FAIRFIELD PL,WEST CALDWELL,NJ,7006,"FANCORT INDUSTRIES INC.31 FAIRFIELD PL, WEST CALDWELL NEW JERSEY 07006 (ESSEX)",0,C,,110059194811
07006CNTRL14IND,-74.294,40.869,True,34,013,021802,34,34013,34013021802,1400000US34013021802,CONTROL TRANSACTION CORP,14 INDUSTRIAL RD,FAIRFIELD,NJ,7006,"CONTROL TRANSACTION CORP 14 INDUSTRIAL RD, FAIRFIELD, NJ, 7006",0,C,,
07006WSGGT24MAD,-74.294,40.869,True,34,013,021802,34,34013,34013021802,1400000US34013021802,WESGO-GTE TECHNICAL CERAMIC & METALS,24 MADISON RD,FAIRFIELD,NJ,7006,"WESGO-GTE TECHNICAL CERAMIC & METALS 24 MADISON RD, FAIRFIELD, NJ, 7006",0,C,,
07007MCRTR4HEND,-74.309,40.859,True,34,013,021802,34,34013,34013021802,1400000US34013021802,MICROTRONICS OF NEW JERSEY,4 HENDERSON DR,WEST CALDWELL,NJ,7007,"MICROTRONICS OF NEW JERSEY 4 HENDERSON DR, WEST CALDWELL, NJ, 7007",1,C,,
07008BGCRF10MIN,-74.241,40.586999999999996,False,34,023,003500,34,34023,34023003500,1400000US34023003500,BAGCRAFT CORP OF AMERICA,100 MINUE ST,CARTERET,NJ,7008,"BAGCRAFT CORP OF AMERICA.100 MINUE ST, CARTERET NEW JERSEY 07008 (MIDDLESEX)",0,C,,
07008NGLHR700BL,-74.251,40.586,False,34,023,003500,34,34023,34023003500,1400000US34023003500,ENGELHARD CORP,700 BLAIR RD,CARTERET,NJ,7008,"ENGELHARD CORP.700 BLAIR RD, CARTERET NEW JERSEY 07008 (MIDDLESEX)",0,C,,
07008XFRDS600MI,-74.247,40.59,False,34,023,003500,34,34023,34023003500,1400000US34023003500,BRUKER OST LLC,600 MILIK ST,CARTERET,NJ,7008,"BRUKER OST LLC.600 MILIK ST, CARTERET NEW JERSEY 07008 (MIDDLESEX)",0,C,,110000318059
07008BLLGLONEMI,-74.243,40.588,False,34,023,003500,34,34023,34023003500,1400000US34023003500,SAINT-GOBAIN CONTAINERS,50 BRYLA ST,CARTERET,NJ,7008,"SAINT-GOBAIN CONTAINERS.50 BRYLA ST, CARTERET NEW JERSEY 07008 (MIDDLESEX)",1,C,,110000836677
07008FMCCR500RO,-74.214,40.583,False,34,023,009100,34,34023,34023009100,1400000US34023009100,ICL PERFORMANCE PRODUCTS LP,500 ROOSEVELT AVE,CARTERET,NJ,70083504,"ICL PERFORMANCE PRODUCTS LP.500 ROOSEVELT AVE, CARTERET NEW JERSEY 07008 (MIDDLESEX)",0,C,,110000318004
07008MXRLT400MI,-74.22,40.568000000000005,False,34,023,009100,34,34023,34023009100,1400000US34023009100,AMAX SPECIALTY COPPERS CORP,400 MIDDLESEX AVE,CARTERET,NJ,7008,"AMAX SPECIALTY COPPERS CORP.400 MIDDLESEX AVE, CARTERET NEW JERSEY 07008 (MIDDLESEX)",1,C,,
07008SHLND350RO,-74.214,40.578,False,34,023,009100,34,34023,34023009100,1400000US34023009100,NEXEO SOLUTIONS LLC-CARTERET,350 ROOSEVELT AVE,CARTERET,NJ,7008,"NEXEO SOLUTIONS LLC-CARTERET.350 ROOSEVELT AVE, CARTERET NEW JERSEY 07008 (MIDDLESEX)",0,C,,110000318031
07008NDLCLFOOTO,-74.21600000000001,40.585,False,34,023,003600,34,34023,34023003600,1400000US34023003600,INDOL COLOR CO,48 LEFFERT STREET,CARTERET,NJ,70083114,"INDOL COLOR CO.48 LEFFERT STREET, CARTERET NEW JERSEY 07008 (MIDDLESEX)",0,C,,
07008BSFXX66GRA,-74.223,40.586,False,34,023,003600,34,34023,34023003600,1400000US34023003600,BASF CORP,66 GRANT AVE,CARTERET,NJ,7008,"BASF CORP.66 GRANT AVE, CARTERET NEW JERSEY 07008 (MIDDLESEX)",1,C,,
07008MCLC0760RO,-74.226,40.586999999999996,False,34,023,003600,34,34023,34023003600,1400000US34023003600,BP PRODUCTS NA INC CARTERET TERMINAL,760 ROOSEVELT AVE,CARTERET,NJ,7008,"BP PRODUCTS NA INC CARTERET TERMINAL.760 ROOSEVELT AVE, CARTERET NEW JERSEY 07008 (MIDDLESEX)",0,C,,110000318013
07008STFLXMIDDL,-74.22399999999999,40.565,False,34,023,003800,34,34023,34023003800,1400000US34023003800,STAFLEX PRODS,50 MIDDLESEX AVENUE,CARTERET,NJ,7008,"STAFLEX PRODS.50 MIDDLESEX AVENUE, CARTERET NEW JERSEY 07008 (MIDDLESEX)",0,C,,
07009LDDRF134SA,-74.229,40.866,False,34,013,021300,34,34013,34013021300,1400000US34013021300,OLD DEERFIELD FABRIC INC,134 SAND PARK RD,CEDAR GROVE,NJ,7009,"OLD DEERFIELD FABRIC INC.134 SAND PARK RD, CEDAR GROVE NEW JERSEY 07009 (ESSEX)",0,C,,
07009RVYCR20SAN,-74.227,40.867,False,34,013,021300,34,34013,34013021300,1400000US34013021300,HARGRO INDL PACKAGING,20 SAND PARK RD,CEDAR GROVE,NJ,7009,"HARGRO INDL PACKAGING.20 SAND PARK RD, CEDAR GROVE NEW JERSEY 07009 (ESSEX)",0,C,,
07009SRVMT501LI,-74.223,40.87,False,34,013,021300,34,34013,34013021300,1400000US34013021300,SERVOMETER CORP,501 LITTLE FALLS RD,CEDAR GROVE,NJ,70091291,"SERVOMETER CORP.501 LITTLE FALLS RD, CEDAR GROVE NEW JERSEY 07009 (ESSEX)",0,C,,
07009HRMNN12CLI,-74.221,40.865,False,34,013,021300,34,34013,34013021300,1400000US34013021300,"HARCROS CHEMICALS INC, HARDMAN DIV",12 CLIFFSIDE DR,CEDAR GROVE,NJ,7009,"HARCROS CHEMICALS INC, HARDMAN DIV.12 CLIFFSIDE DR, CEDAR GROVE NEW JERSEY 07009 (ESSEX)",1,C,,
07009MGPRC1384P,-74.228,40.856,True,34,013,021300,34,34013,34013021300,1400000US34013021300,OMEGA PRECISION CORP,1384 POMPTON AVE,CEDAR GROVE,NJ,7009,"OMEGA PRECISION CORP 1384 POMPTON AVE, CEDAR GROVE, NJ, 7009",0,C,,
07011CNTNN270CL,-74.152,40.867,False,34,031,124500,34,34031,34031124500,1400000US34031124500,CONTINENTAL CHEMICAL CO,270 CLIFTON BLVD,CLIFTON,NJ,70113686,"CONTINENTAL CHEMICAL CO.270 CLIFTON BLVD, CLIFTON NEW JERSEY 07011 (PASSAIC)",0,C,,
07011FRTZS85THI,-74.146,40.871,False,34,031,124500,34,34031,34031124500,1400000US34031124500,GIVAUDAN-ROURE CORP,85 3TH ST,CLIFTON,NJ,7011,"GIVAUDAN-ROURE CORP.85 3TH ST, CLIFTON NEW JERSEY 07011 (PASSAIC)",0,C,,
07013DKMNL181SA,-74.156,40.865,False,34,031,124500,34,34031,34031124500,1400000US34031124500,DIKEMAN LAMINATING INC,181 SARGENT AVE,CLIFTON,NJ,7013,"DIKEMAN LAMINATING INC.181 SARGENT AVE, CLIFTON NEW JERSEY 07013 (PASSAIC)",0,C,,110000318139
07015PCQTN10CLI,-74.143,40.861999999999995,False,34,031,124500,34,34031,34031124500,1400000US34031124500,PACQUET ONEIDA INC,10 CLIFTON BLVD,CLIFTON,NJ,7015,"PACQUET ONEIDA INC.10 CLIFTON BLVD, CLIFTON NEW JERSEY 07015 (PASSAIC)",0,C,,
07015SWPCT1CLIF,-74.143,40.861999999999995,False,34,031,124500,34,34031,34031124500,1400000US34031124500,SWEPCO TUBE LLC,1 CLIFTON BLVD,CLIFTON,NJ,7011,"SWEPCO TUBE LLC.1 CLIFTON BLVD, CLIFTON NEW JERSEY 07011 (PASSAIC)",0,C,,110000318193
07011CGHLN210CL,-74.15,40.866,False,34,031,124500,34,34031,34031124500,1400000US34031124500,COUGHLAN PRODUCTS CORP,210 CLIFTON BLVD,CLIFTON,NJ,7011,"COUGHLAN PRODUCTS CORP.210 CLIFTON BLVD, CLIFTON NEW JERSEY 07011 (PASSAIC)",0,C,,
07011MYKRY125CL,-74.14699999999999,40.864000000000004,False,34,031,124500,34,34031,34031124500,1400000US34031124500,CRYSTEX COMPOSITES,125 CLIFTON BLVD,CLIFTON,NJ,7011,"CRYSTEX COMPOSITES.125 CLIFTON BLVD, CLIFTON NEW JERSEY 07011 (PASSAIC)",0,C,,110000868268
07015PRGNH233CL,-74.15100000000001,40.867,False,34,031,124500,34,34031,34031124500,1400000US34031124500,PARAGON HOUSEHOLD PRODUCTS INC.,233 CLIFTON BLVD,CLIFTON,NJ,7015,"PARAGON HOUSEHOLD PRODUCTS INC..233 CLIFTON BLVD, CLIFTON NEW JERSEY 07015 (PASSAIC)",0,C,,110006703273
07012GRGVN95IND,-74.156,40.866,True,34,031,124500,34,34031,34031124500,1400000US34031124500,GEORGE VINCENT INC,95 INDUSTRIAL AVE E,CLIFTON,NJ,7012,"GEORGE VINCENT INC 95 INDUSTRIAL AVE E, CLIFTON, NJ, 7012",0,C,,
07011LFRDH5WELL,-74.145,40.884,False,34,031,124800,34,34031,34031124800,1400000US34031124800,ALFRED HELLER HEAT TREATING CO .,5 WELLINGTON ST,CLIFTON,NJ,7011,"ALFRED HELLER HEAT TREATING CO ..5 WELLINGTON ST, CLIFTON NEW JERSEY 07011 (PASSAIC)",0,C,,110000318068
07011MNRPT1SHER,-74.144,40.879,True,34,031,124800,34,34039,34031124800,1400000US34031124800,MONROE PATTERN & MOLD,1 SHERIDAN AVE,ROSELLE,NJ,7011,"MONROE PATTERN & MOLD 1 SHERIDAN AVE, ROSELLE, NJ, 7011",0,C,,
07011MSTRS359LE,-74.144,40.879,True,34,031,124800,34,34031,34031124800,1400000US34031124800,MASTER SCREENS INC,359 LEXINGTON AVE,CLIFTON,NJ,7011,"MASTER SCREENS INC 359 LEXINGTON AVE, CLIFTON, NJ, 7011",0,C,,
07011TMZRC103CE,-74.144,40.879,True,34,031,124800,34,34031,34031124800,1400000US34031124800,TIME ZERO CORP,103 CENTRAL AVE,CLIFTON,NJ,7011,"TIME ZERO CORP 103 CENTRAL AVE, CLIFTON, NJ, 7011",1,C,,
07011LMRTC16RIC,-74.161,40.889,False,34,031,124601,34,34031,34031124601,1400000US34031124601,LAMART CORP,16 RICHMOND ST,CLIFTON,NJ,7011,"LAMART CORP.16 RICHMOND ST, CLIFTON NEW JERSEY 07011 (PASSAIC)",0,C,,110000318077
07011NTRNT244HA,-74.16,40.885999999999996,False,34,031,124601,34,34031,34031124601,1400000US34031124601,INTERNATIONAL VEILING CORP,244 HAZEL ST,CLIFTON,NJ,7011,"INTERNATIONAL VEILING CORP.244 HAZEL ST, CLIFTON NEW JERSEY 07011 (PASSAIC)",0,C,,
07012DLXCH1155B,-74.163,40.838,False,34,031,124322,34,34031,34031124322,1400000US34031124322,DELUXE CHECK PRINTERS INC,1155 BLOOMFIELD AVE,CLIFTON,NJ,7012,"DELUXE CHECK PRINTERS INC.1155 BLOOMFIELD AVE, CLIFTON NEW JERSEY 07012 (PASSAIC)",0,C,,
07015NTRNT50PAG,-74.158,40.85,False,34,031,124322,34,34031,34031124322,1400000US34031124322,RITE INDUSTRIES INC IDC DIV,50 PAGE RD,CLIFTON,NJ,7012,"RITE INDUSTRIES INC IDC DIV.50 PAGE RD, CLIFTON NEW JERSEY 07012 (PASSAIC)",0,C,,
0701WDRTCF6WEBR,-74.157,40.851,False,34,031,124322,34,34031,34031124322,1400000US34031124322,DRITAC FLOORING PRODUCTS LLC,60 WEBRO ROAD,CLIFTON,NJ,7012,"DRITAC FLOORING PRODUCTS LLC.60 WEBRO ROAD, CLIFTON NEW JERSEY 07012 (PASSAIC)",0,C,,110041625765
07012DRTST185SC,-74.156,40.851,False,34,031,124401,34,34031,34031124401,1400000US34031124401,DURO-TEST CORP,185 SCOLES AVE,CLIFTON,NJ,7012,"DURO-TEST CORP.185 SCOLES AVE, CLIFTON NEW JERSEY 07012 (PASSAIC)",0,C,,
07012NNCMP800ST,-74.155,40.838,False,34,031,124401,34,34031,34031124401,1400000US34031124401,UNION CAMP CORP FOLDING CARTON DIV,800 STATE HWY #3,CLIFTON,NJ,7012,"UNION CAMP CORP FOLDING CARTON DIV.800 STATE HWY #3, CLIFTON NEW JERSEY 07012 (PASSAIC)",0,C,,
07012SCHRCONEST,-74.155,40.845,False,34,031,124401,34,34031,34031124401,1400000US34031124401,LUBRIZOL ADVANCED MATERIALS INC,1 IND US TRIAL W,CLIFTON,NJ,7012,"LUBRIZOL ADVANCED MATERIALS INC.1 IND US TRIAL W, CLIFTON NEW JERSEY 07012 (PASSAIC)",0,C,,110014504811
07012SMTHK65IND,-74.154,40.845,False,34,031,124401,34,34031,34031124401,1400000US34031124401,GLAXOSMITHKLINE CONSUMER BRANDS LP,65 INDUSTRIAL S,CLIFTON,NJ,7012,"GLAXOSMITHKLINE CONSUMER BRANDS LP.65 INDUSTRIAL S, CLIFTON NEW JERSEY 07012 (PASSAIC)",0,C,,110000318111
07012TLDYN350AL,-74.153,40.84,False,34,031,124401,34,34031,34031124401,1400000US34031124401,TELEDYNE TUNGSTEN PRODS,350 ALLWOOD RD,CLIFTON,NJ,7012,"TELEDYNE TUNGSTEN PRODS.350 ALLWOOD RD, CLIFTON NEW JERSEY 07012 (PASSAIC)",0,C,,
07012TLNTC810BL,-74.154,40.848,False,34,031,124401,34,34031,34031124401,1400000US34031124401,ATLANTIC CASTING & ENGINEERING CORP,810 BLOOMFIELD AVE,CLIFTON,NJ,7012,"ATLANTIC CASTING & ENGINEERING CORP.810 BLOOMFIELD AVE, CLIFTON NEW JERSEY 07012 (PASSAIC)",0,C,,
07012CMSNT454AL,-74.157,40.841,False,34,031,124401,34,34031,34031124401,1400000US34031124401,COMUS INTERNATIONAL INC,454 ALWOOD RD,CLIFTON,NJ,7012,"COMUS INTERNATIONAL INC.454 ALWOOD RD, CLIFTON NEW JERSEY 07012 (PASSAIC)",0,C,,110006818603
07013MSSBR211MO,-74.158,40.861,False,34,031,124321,34,34031,34031124321,1400000US34031124321,MISS BRENNER MANUFACTURING INC,211 MOUNT PROSPECT AVE,CLIFTON,NJ,70131587,"MISS BRENNER MANUFACTURING INC.211 MOUNT PROSPECT AVE, CLIFTON NEW JERSEY 07013 (PASSAIC)",0,C,,
07013SLTRN320CO,-74.16199999999999,40.871,False,34,031,124321,34,34031,34031124321,1400000US34031124321,"SEALTRONICS INC, PLATRONICS-SEALS",320 COLFAX AVE,CLIFTON,NJ,7013,"SEALTRONICS INC, PLATRONICS-SEALS.320 COLFAX AVE, CLIFTON NEW JERSEY 07013 (PASSAIC)",0,C,,
07015CPTLS310CO,-74.16199999999999,40.871,False,34,031,124321,34,34031,34031124321,1400000US34031124321,CAPITOL SOAP CORP,310 COLFAX AVE,CLIFTON,NJ,7015,"CAPITOL SOAP CORP.310 COLFAX AVE, CLIFTON NEW JERSEY 07015 (PASSAIC)",0,C,,
07015NTNLS71471,-74.155,40.87,False,34,031,124321,34,34031,34031124321,1400000US34031124321,NATIONAL STANDARD CO,714-716 CLIFTON AVE,CLIFTON,NJ,7015,"NATIONAL STANDARD CO.714-716 CLIFTON AVE, CLIFTON NEW JERSEY 07015 (PASSAIC)",1,C,,
07013RTRDS700RT,-74.165,40.878,False,34,031,124200,34,34031,34031124200,1400000US34031124200,AIR TREADS INC NY DIV,700 RT 46,CLIFTON,NJ,7013,"AIR TREADS INC NY DIV.700 RT 46, CLIFTON NEW JERSEY 07013 (PASSAIC)",0,C,,
07015RMPCF61KIL,-74.166,40.893,False,34,031,124200,34,34031,34031124200,1400000US34031124200,REMPAC FOAM CORP,61 KULLER RD,CLIFTON,NJ,7015,"REMPAC FOAM CORP.61 KULLER RD, CLIFTON NEW JERSEY 07015 (PASSAIC)",0,C,,
07011XCLLP400KU,-74.164,40.882,False,34,031,124200,34,34031,34031124200,1400000US34031124200,EXCELL PRODS CORP,400 KULLER RD,CLIFTON,NJ,7011,"EXCELL PRODS CORP.400 KULLER RD, CLIFTON NEW JERSEY 07011 (PASSAIC)",0,C,,
07014FLXCT610RI,-74.125,40.835,False,34,031,124402,34,34031,34031124402,1400000US34031124402,FLEXICOTE INC,610 RIVER RD,CLIFTON,NJ,7014,"FLEXICOTE INC.610 RIVER RD, CLIFTON NEW JERSEY 07014 (PASSAIC)",0,C,,
07014LPHPR210DE,-74.131,40.832,False,34,031,124402,34,34031,34031124402,1400000US34031124402,ALPHA PROCESSING CO INC,210 DELAWANNA AVE,CLIFTON,NJ,7014,"ALPHA PROCESSING CO INC.210 DELAWANNA AVE, CLIFTON NEW JERSEY 07014 (PASSAIC)",0,C,,
07014RYCLN10ROB,-74.14399999999999,40.828,False,34,031,124402,34,34031,34031124402,1400000US34031124402,RYCOLINE PRODUCTS LLC,10 ROBERT ST,CLIFTON,NJ,7014,"RYCOLINE PRODUCTS LLC.10 ROBERT ST, CLIFTON NEW JERSEY 07014 (PASSAIC)",0,C,,110000318157
07014TTHYR24PAR,-74.132,40.838,False,34,031,124402,34,34031,34031124402,1400000US34031124402,"OTTO H YORK, WIRE DIV",24 PARK AVE,CLIFTON,NJ,7014,"OTTO H YORK, WIRE DIV.24 PARK AVE, CLIFTON NEW JERSEY 07014 (PASSAIC)",1,C,,
07014TTVNC100KI,-74.137,40.827,False,34,031,124402,34,34031,34031124402,1400000US34031124402,HARRIS CORP ELECTRONIC WARFARE SYSTEMS,77 RIVER RD,CLIFTON,NJ,7014,"HARRIS CORP ELECTRONIC WARFARE SYSTEMS.77 RIVER RD, CLIFTON NEW JERSEY 07014 (PASSAIC)",0,C,,110000804372
07015GVDNC125DE,-74.128,40.83,False,34,031,124402,34,34031,34031124402,1400000US34031124402,GIVAUDAN-ROURE CORP,125 DELAWANNA AVE,CLIFTON,NJ,7015,"GIVAUDAN-ROURE CORP.125 DELAWANNA AVE, CLIFTON NEW JERSEY 07015 (PASSAIC)",0,C,,
07014MDLND481RI,-74.122,40.829,False,34,031,124402,34,34031,34031124402,1400000US34031124402,INX INTERNATIONAL INK CO,481 RIVER RD,CLIFTON,NJ,7014,"INX INTERNATIONAL INK CO.481 RIVER RD, CLIFTON NEW JERSEY 07014 (PASSAIC)",0,C,,
07014SCPNK2BRID,-74.135,40.830999999999996,False,34,031,124402,34,34031,34031124402,1400000US34031124402,SICPA INK SYS CORP,2 BRIDEWELL PL,CLIFTON,NJ,7014,"SICPA INK SYS CORP.2 BRIDEWELL PL, CLIFTON NEW JERSEY 07014 (PASSAIC)",0,C,,
07014DLTXP210DE,-74.131,40.832,False,34,031,124402,34,34031,34031124402,1400000US34031124402,DELATEX CORPORATION,210 DELAWANNA AVE,CLIFTON,NJ,7014,"DELATEX CORPORATION.210 DELAWANNA AVE, CLIFTON NEW JERSEY 07014 (PASSAIC)",0,C,,
07015BRGHT600GE,-74.152,40.889,False,34,031,124700,34,34031,34031124700,1400000US34031124700,BRIGHT STAR INDUSTRIES,600 GETTY AVE,CLIFTON,NJ,7015,"BRIGHT STAR INDUSTRIES.600 GETTY AVE, CLIFTON NEW JERSEY 07015 (PASSAIC)",0,C,,
07016CNSTR55WIN,-74.294,40.65,False,34,039,037200,34,34039,34039037200,1400000US34039037200,CONSTRUCTION SPECIALTIES INC,55 WINANS AVE,CRANFORD,NJ,70163198,"CONSTRUCTION SPECIALTIES INC.55 WINANS AVE, CRANFORD NEW JERSEY 07016 (UNION)",1,C,,
07016FBRTT22SOU,-74.308,40.654,False,34,039,037200,34,34039,34039037200,1400000US34039037200,E F BRITTEN & CO INC,22 SOUTH AVE,CRANFORD,NJ,7016,"E F BRITTEN & CO INC.22 SOUTH AVE, CRANFORD NEW JERSEY 07016 (UNION)",0,C,,
07016MDNPL370NO,-74.292,40.658,False,34,039,037200,34,34039,34039037200,1400000US34039037200,MADAN PLASTICS INC,370 N AVE,CRANFORD,NJ,7016,"MADAN PLASTICS INC.370 N AVE, CRANFORD NEW JERSEY 07016 (UNION)",0,C,,
07016STRLN945LI,-74.304,40.657,True,34,039,037200,34,34039,34039037200,1400000US34039037200,STERLING INDUSTRIES,945 LINCOLN AVE,CRANFORD,NJ,7016,"STERLING INDUSTRIES 945 LINCOLN AVE, CRANFORD, NJ, 7016",0,C,,
07016TCKNT129DE,-74.28399999999999,40.653,False,34,039,037300,34,34039,34039037300,1400000US34039037300,TECHNICAL WIRE PRODUCTS INC (DBA TECHNIT),129 DERMODY ST,CRANFORD,NJ,7016,"TECHNICAL WIRE PRODUCTS INC (DBA TECHNIT).129 DERMODY ST, CRANFORD NEW JERSEY 07016 (UNION)",0,C,,
07016GBSNS90MYR,-74.287,40.652,True,34,039,037300,34,34039,34039037300,1400000US34039037300,GIBSON ASSOCIATES INC,90 MYRTLE ST,CRANFORD,NJ,7016,"GIBSON ASSOCIATES INC 90 MYRTLE ST, CRANFORD, NJ, 7016",1,C,,
07020CTGNP596RI,-73.98100000000001,40.817,False,34,003,013001,34,34003,34003013001,1400000US34003013001,OCTAGON PROCESS INC,596 RIVER RD,EDGEWATER,NJ,7020,"OCTAGON PROCESS INC.596 RIVER RD, EDGEWATER NEW JERSEY 07020 (BERGEN)",1,C,,110000318200
07620FSYBS143RI,-73.993,40.806,False,34,003,013001,34,34003,34003013001,1400000US34003013001,FAESY & BESTHOFF INC,143 RIVER RD,EDGEWATER,NJ,7620,"FAESY & BESTHOFF INC.143 RIVER RD, EDGEWATER NEW JERSEY 07620 (BERGEN)",0,C,,
07020MRDHS615RI,-73.98,40.818000000000005,False,34,003,013001,34,34003,34003013001,1400000US34003013001,HESS CORP EDGEWATER TERMINAL,615 RIVER RD,EDGEWATER,NJ,7020,"HESS CORP EDGEWATER TERMINAL.615 RIVER RD, EDGEWATER NEW JERSEY 07020 (BERGEN)",1,C,,110056255715
07020LSTRL1RIVE,-73.994,40.803000000000004,False,34,017,014101,34,34003,34017014101,1400000US34017014101,LUSTRELON INC,1 RIVER RD,EDGEWATER,NJ,7020,"LUSTRELON INC.1 RIVER RD, EDGEWATER NEW JERSEY 07020 (BERGEN)",1,C,,
07047VNTPR7700R,-73.997,40.795,False,34,017,014101,34,34017,34017014101,1400000US34017014101,AVANTE PRODUCTS CORP,7700 RIVER RD,NORTH BERGEN,NJ,7047,"AVANTE PRODUCTS CORP.7700 RIVER RD, NORTH BERGEN NEW JERSEY 07047 (HUDSON)",0,C,,
07022STCST101BR,-74.008,40.817,False,34,003,018200,34,34003,34003018200,1400000US34003018200,EAST COAST FINISHING CORP,101 BROAD AVE,FAIRVIEW,NJ,7022,"EAST COAST FINISHING CORP.101 BROAD AVE, FAIRVIEW NEW JERSEY 07022 (BERGEN)",0,C,,
07026GRDNS950RI,-74.12899999999999,40.885999999999996,False,34,003,021200,34,34003,34003021200,1400000US34003021200,GARDEN STATE PAPER CO LLC,950 RIVER DR,GARFIELD,NJ,70263580,"GARDEN STATE PAPER CO LLC.950 RIVER DR, GARFIELD NEW JERSEY 07026 (BERGEN)",0,C,,
07026LCTRS45OUT,-74.117,40.881,False,34,003,021200,34,34003,34003021200,1400000US34003021200,ELECTRO-SCAN INC,45 OUTWATER LN,GARFIELD,NJ,70260368,"ELECTRO-SCAN INC.45 OUTWATER LN, GARFIELD NEW JERSEY 07026 (BERGEN)",0,C,,
07026KLMCH290RI,-74.111,40.868,False,34,003,021600,34,34003,34003021600,1400000US34003021600,KALAMA CHEMICAL INC GARFIELD PLANT,290 RIVER DR,GARFIELD,NJ,7026,"KALAMA CHEMICAL INC GARFIELD PLANT.290 RIVER DR, GARFIELD NEW JERSEY 07026 (BERGEN)",0,C,,
07026LRLRB129GR,-74.10600000000001,40.871,False,34,003,021600,34,34003,34003021600,1400000US34003021600,STAR-GLO IND INC LAUREL RUBBER DIV,129 GRAND ST,GARFIELD,NJ,7026,"STAR-GLO IND INC LAUREL RUBBER DIV.129 GRAND ST, GARFIELD NEW JERSEY 07026 (BERGEN)",0,C,,
07026MRCNB44HEP,-74.107,40.868,False,34,003,021600,34,34003,34003021600,1400000US34003021600,AMERICAN BILTRITE INC,44 HEPWORTH PL,GARFIELD,NJ,7026,"AMERICAN BILTRITE INC.44 HEPWORTH PL, GARFIELD NEW JERSEY 07026 (BERGEN)",0,C,,
07027DMNDC500NO,-74.329,40.653,False,34,039,036900,34,34039,34039036900,1400000US34039036900,THOMAS & BETTS GARWOOD PLANT,500 NORTH  AVE,GARWOOD,NJ,7027,"THOMAS & BETTS GARWOOD PLANT.500 NORTH  AVE, GARWOOD NEW JERSEY 07027 (UNION)",0,C,,
07027LRMRP520SO,-74.329,40.650999999999996,False,34,039,036900,34,34039,34039036900,1400000US34039036900,LERMER PACKAGING CORP,520 SOUTH AVE,GARWOOD,NJ,7027,"LERMER PACKAGING CORP.520 SOUTH AVE, GARWOOD NEW JERSEY 07027 (UNION)",0,C,,
07029CPTLCSANFO,-74.12,40.753,False,34,017,012700,34,34017,34017012700,1400000US34017012700,KARLSHAMNS USA INC,FOOT OF SANFORD AVE,KEARNY,NJ,7032,"KARLSHAMNS USA INC.FOOT OF SANFORD AVE, KEARNY NEW JERSEY 07032 (HUDSON)",1,C,,
07029STNDR1215H,-74.138,40.748000000000005,False,34,017,012700,34,34017,34017012700,1400000US34017012700,STANDARD TALLOW CORP,1215 HARRISON AVE,KEARNY,NJ,7029,"STANDARD TALLOW CORP.1215 HARRISON AVE, KEARNY NEW JERSEY 07029 (HUDSON)",0,C,,
07032BSFCR50CEN,-74.116,40.72,False,34,017,012700,34,34017,34017012700,1400000US34017012700,BASF CORP,50 CENTRAL AVE,KEARNY,NJ,7032,"BASF CORP.50 CENTRAL AVE, KEARNY NEW JERSEY 07032 (HUDSON)",1,C,,
07032FRDRC538FO,-74.138,40.771,False,34,017,012700,34,34017,34017012700,1400000US34017012700,FREDERICK GUMM CHEMICAL CO,538 FOREST ST,KEARNY,NJ,7032,"FREDERICK GUMM CHEMICAL CO.538 FOREST ST, KEARNY NEW JERSEY 07032 (HUDSON)",0,C,,
07032GDYPR969NE,-74.094,40.746,False,34,017,012700,34,34017,34017012700,1400000US34017012700,GOODY PRODS INC,969 NEWARK TURNPIKE,KEARNY,NJ,7032,"GOODY PRODS INC.969 NEWARK TURNPIKE, KEARNY NEW JERSEY 07032 (HUDSON)",0,C,,
07032GRDNR80JAC,-74.112,40.736999999999995,False,34,017,012700,34,34017,34017012700,1400000US34017012700,"GAC KEARNY, INC.",80 JACOBUS AVE,KEARNY,NJ,7032,"GAC KEARNY, INC..80 JACOBUS AVE, KEARNY NEW JERSEY 07032 (HUDSON)",1,C,,110022538529
07032KHNCH86HAC,-74.1,40.733000000000004,False,34,017,012700,34,34017,34017012700,1400000US34017012700,KUEHNE CHEMICAL CO INC,84 N HACKENSACK AVE,SOUTH KEARNY,NJ,7032,"KUEHNE CHEMICAL CO INC.84 N HACKENSACK AVE, SOUTH KEARNY NEW JERSEY 07032 (HUDSON)",0,C,,110000318362
07032KLRKS450SC,-74.141,40.763000000000005,False,34,017,012700,34,34017,34017012700,1400000US34017012700,PMC INC KLEER KAST DIV,450 SCHUYLER AVE,KEARNY,NJ,7032,"PMC INC KLEER KAST DIV.450 SCHUYLER AVE, KEARNY NEW JERSEY 07032 (HUDSON)",0,C,,
07032MNSNTPENNS,-74.115,40.741,False,34,017,012700,34,34017,34017012700,1400000US34017012700,MONSANTO CO,PENNSYLVANIA AVE,KEARNY,NJ,7032,"MONSANTO CO.PENNSYLVANIA AVE, KEARNY NEW JERSEY 07032 (HUDSON)",0,C,,
07032PNTST85LIN,-74.108,40.73,False,34,017,012700,34,34017,34017012700,1400000US34017012700,PANTASOTE INC WALLCOVERING DIV,85 LINCOLN HWY,KEARNY,NJ,7032,"PANTASOTE INC WALLCOVERING DIV.85 LINCOLN HWY, KEARNY NEW JERSEY 07032 (HUDSON)",0,C,,
07032RDLCS70PEN,-74.111,40.741,False,34,017,012700,34,34017,34017012700,1400000US34017012700,RADIAL CASTING CORP,70 PENNSYLVANIA AVE,KEARNY,NJ,7032,"RADIAL CASTING CORP.70 PENNSYLVANIA AVE, KEARNY NEW JERSEY 07032 (HUDSON)",0,C,,
07032STNDR1035B,-74.097,40.75,False,34,017,012700,34,34017,34017012700,1400000US34017012700,"STANDARD CHLORINE CHEMICAL CO, INC",1035 BELLEVILLE TURNPIKE,KEARNY,NJ,70320602,"STANDARD CHLORINE CHEMICAL CO, INC.1035 BELLEVILLE TURNPIKE, KEARNY NEW JERSEY 07032 (HUDSON)",0,C,,
07032WNSCRNEWAR,-74.08800000000001,40.745,False,34,017,012700,34,34017,34017012700,1400000US34017012700,OWENS CORNING ROOFING & ASPHALT LLC,1249 NEWARK TURNPIKE,KEARNY,NJ,7032,"OWENS CORNING ROOFING & ASPHALT LLC.1249 NEWARK TURNPIKE, KEARNY NEW JERSEY 07032 (HUDSON)",0,C,,110000318380
07032LLDNV100HA,-74.1,40.736,False,34,017,012700,34,34017,34017012700,1400000US34017012700,ALLIED UNIVERSAL CORP,100 HACKENSACK AVE,KEARNY,NJ,70324620,"ALLIED UNIVERSAL CORP.100 HACKENSACK AVE, KEARNY NEW JERSEY 07032 (HUDSON)",0,C,,
07032LWTRN24JAC,-74.113,40.732,False,34,017,012700,34,34017,34017012700,1400000US34017012700,LAWTER INTERNATIONAL INC,24 JACOBUS AVE,SOUTH KEARNY,NJ,7032,"LAWTER INTERNATIONAL INC.24 JACOBUS AVE, SOUTH KEARNY NEW JERSEY 07032 (HUDSON)",0,C,,
07032STNSN2HACK,-74.104,40.729,False,34,017,012700,34,34017,34017012700,1400000US34017012700,POLLITT INC,2 N HACKENSACK AVE,SOUTH KEARNY,NJ,7032,"POLLITT INC.2 N HACKENSACK AVE, SOUTH KEARNY NEW JERSEY 07032 (HUDSON)",0,C,,
07032BCKMFHACKE,-74.108,40.725,False,34,017,012700,34,34017,34017012700,1400000US34017012700,BECK MANUFACTURING,HACKENSACK AVE BUILDING 82,SOUTH KEARNY,NJ,7032,"BECK MANUFACTURING.HACKENSACK AVE BUILDING 82, SOUTH KEARNY NEW JERSEY 07032 (HUDSON)",0,C,,
07032CLMBT49CEN,-74.113,40.72,False,34,017,012700,34,34017,34017012700,1400000US34017012700,COLUMBIA TERMINALS,49 CENTRAL AVE,KEARNY,NJ,7032,"COLUMBIA TERMINALS.49 CENTRAL AVE, KEARNY NEW JERSEY 07032 (HUDSON)",0,C,,
07032SPCTR25RIZ,-74.13600000000001,40.768,False,34,017,012700,34,34017,34017012700,1400000US34017012700,SPECTRA COLORS CORP,25 RIZZOLO RD,KEARNY,NJ,7032,"SPECTRA COLORS CORP.25 RIZZOLO RD, KEARNY NEW JERSEY 07032 (HUDSON)",0,C,,
07032SWWST115JA,-74.113,40.739000000000004,False,34,017,012700,34,34017,34017012700,1400000US34017012700,CLEAN EARTH OF NORTH JERSEY INC,105 JACOBUS AVE,KEARNY,NJ,7032,"CLEAN EARTH OF NORTH JERSEY INC.105 JACOBUS AVE, KEARNY NEW JERSEY 07032 (HUDSON)",0,C,,110000492002
07032KRNYGHACKE,-74.101,40.736999999999995,False,34,017,012700,34,34017,34017012700,1400000US34017012700,PSEG KEARNY GENERATING STATION,HACKENSACK AVE,KEARNY,NJ,7032,"PSEG KEARNY GENERATING STATION.HACKENSACK AVE, KEARNY NEW JERSEY 07032 (HUDSON)",0,C,,110006367528
07032VCKRD67CEN,-74.11399999999999,40.721,False,34,017,012700,34,34017,34017012700,1400000US34017012700,VECKRIDGE CHEMICAL,60-70 CENTRAL AVE,SOUTH KEARNY,NJ,7032,"VECKRIDGE CHEMICAL.60-70 CENTRAL AVE, SOUTH KEARNY NEW JERSEY 07032 (HUDSON)",0,C,,110024886881
07032THHWR100CE,-74.122,40.761,True,34,017,012700,34,34017,34017012700,1400000US34017012700,HOWARD MARLBORO GROUP,100 CENTRAL AVE BLDG #171,SOUTH KEARNY,NJ,7032,"HOWARD MARLBORO GROUP 100 CENTRAL AVE BLDG #171, SOUTH KEARNY, NJ, 7032",0,C,,
07029DRVRH308MI,-74.157,40.741,False,34,017,013800,34,34017,34017013800,1400000US34017013800,HARRISON ALLOYS INC,308 MIDDLESEX ST,HARRISON,NJ,7029,"HARRISON ALLOYS INC.308 MIDDLESEX ST, HARRISON NEW JERSEY 07029 (HUDSON)",0,C,,
07029HNKLHFIRST,-74.16199999999999,40.742,False,34,017,013800,34,34017,34017013800,1400000US34017013800,HENKEL HARRISON,FIRST & ESSEX STREETS,HARRISON,NJ,7029,"HENKEL HARRISON.FIRST & ESSEX STREETS, HARRISON NEW JERSEY 07029 (HUDSON)",0,C,,
07029NTRXF1000F,-74.16199999999999,40.738,False,34,017,013800,34,34017,34017013800,1400000US34017013800,INTREX FURNITURE DIV,1000 FIRST ST,HARRISON,NJ,7029,"INTREX FURNITURE DIV.1000 FIRST ST, HARRISON NEW JERSEY 07029 (HUDSON)",0,C,,
07029RCHMCSOUTH,-74.158,40.74,False,34,017,013800,34,34017,34017013800,1400000US34017013800,AURACHEM CORP,S 3RD & SOMERSET ST,HARRISON,NJ,7029,"AURACHEM CORP.S 3RD & SOMERSET ST, HARRISON NEW JERSEY 07029 (HUDSON)",0,C,,
07029TNGST306SU,-74.158,40.744,False,34,017,013800,34,34013,34017013800,1400000US34017013800,TUNGSTEN ALLOY INC,306 SUSSEX ST,HARRISON,NJ,7029,"TUNGSTEN ALLOY INC.306 SUSSEX ST, HARRISON NEW JERSEY 07029 (ESSEX)",0,C,,
07029KRNYS936HA,-74.143,40.749,False,34,017,012800,34,34017,34017012800,1400000US34017012800,KEARNY SMELTING & REFINING CORP,936 HARRISON AVE,KEARNY,NJ,7032,"KEARNY SMELTING & REFINING CORP.936 HARRISON AVE, KEARNY NEW JERSEY 07032 (HUDSON)",0,C,,110000858830
07032DRWCH1106H,-74.141,40.749,False,34,017,012800,34,34017,34017012800,1400000US34017012800,ASHLAND INC-KEARNY NJ,1106 HARRISON AVE,KEARNY,NJ,7032,"ASHLAND INC-KEARNY NJ.1106 HARRISON AVE, KEARNY NEW JERSEY 07032 (HUDSON)",0,C,,110000318317
07032DWRFN5361S,-74.142,40.758,False,34,017,012800,34,34017,34017012800,1400000US34017012800,DOWER FINISHING & RESEARCH CO INC,53-61 SECOND AVE,KEARNY,NJ,7032,"DOWER FINISHING & RESEARCH CO INC.53-61 SECOND AVE, KEARNY NEW JERSEY 07032 (HUDSON)",0,C,,
0703WWLDNS11HAR,-74.14,40.749,False,34,017,012800,34,34017,34017012800,1400000US34017012800,WELDON ASPHALT CO,1100 HARRISON AVENUE,KEARNY,NJ,7032,"WELDON ASPHALT CO.1100 HARRISON AVENUE, KEARNY NEW JERSEY 07032 (HUDSON)",0,C,,110006440388
07029LQDCR603BE,-74.152,40.743,False,34,017,013900,34,34017,34017013900,1400000US34017013900,LIQUID CARBONIC  SPECIALTY GAS CORP,603 BERGEN ST,HARRISON,NJ,7029,"LIQUID CARBONIC  SPECIALTY GAS CORP.603 BERGEN ST, HARRISON NEW JERSEY 07029 (HUDSON)",0,C,,
07029CMPBL800BE,-74.148,40.744,False,34,017,013900,34,34017,34017013900,1400000US34017013900,CAMPBELL FOUNDRY CO,800 BERGEN ST,HARRISON,NJ,7029,"CAMPBELL FOUNDRY CO.800 BERGEN ST, HARRISON NEW JERSEY 07029 (HUDSON)",0,C,,
07029SCRTY850HA,-74.155,40.744,True,34,017,013900,34,34017,34017013900,1400000US34017013900,SECURITY PACKAGING CO INC,850 HAMILTON ST,HARRISON,NJ,7029,"SECURITY PACKAGING CO INC 850 HAMILTON ST, HARRISON, NJ, 7029",0,C,,
07029NGLHR1WEST,-74.164,40.751999999999995,False,34,017,013400,34,34017,34017013400,1400000US34017013400,BASF CATALYSTS LLC,1 W CENTRAL AVE,EAST NEWARK,NJ,7029,"BASF CATALYSTS LLC.1 W CENTRAL AVE, EAST NEWARK NEW JERSEY 07029 (HUDSON)",0,C,,110039082015
07029STRNC8PASS,-74.163,40.751999999999995,False,34,017,013400,34,34017,34017013400,1400000US34017013400,EASTERN CONCRETE MATERIALS EAST NEWARK,800 PASSAIC AVE,EAST NEWARK,NJ,7029,"EASTERN CONCRETE MATERIALS EAST NEWARK.800 PASSAIC AVE, EAST NEWARK NEW JERSEY 07029 (HUDSON)",0,C,,110041625774
07030HNKLC1301J,-74.03399999999999,40.753,False,34,017,018400,34,34017,34017018400,1400000US34017018400,COGNIS CORP,1301 JEFFERSON ST,HOBOKEN,NJ,70302210,"COGNIS CORP.1301 JEFFERSON ST, HOBOKEN NEW JERSEY 07030 (HUDSON)",0,C,,
07030STHLS1413W,-74.029,40.755,False,34,017,018400,34,34017,34017018400,1400000US34017018400,STAHL SOAP CORP,1413 WILLOW AVE,HOBOKEN,NJ,7030,"STAHL SOAP CORP.1413 WILLOW AVE, HOBOKEN NEW JERSEY 07030 (HUDSON)",0,C,,
07030MXWLL1125H,-74.02600000000001,40.749,False,34,017,018701,34,34017,34017018701,1400000US34017018701,MAXWELL HOUSE COFFEE CO,1125 HUDSON ST,HOBOKEN,NJ,7030,"MAXWELL HOUSE COFFEE CO.1125 HUDSON ST, HOBOKEN NEW JERSEY 07030 (HUDSON)",0,C,,
07030SMPLX50HAR,-74.043,40.736999999999995,False,34,017,019200,34,34017,34017019200,1400000US34017019200,SIMPLEX CEILING CORP,50 HARRISON ST,HOBOKEN,NJ,7030,"SIMPLEX CEILING CORP.50 HARRISON ST, HOBOKEN NEW JERSEY 07030 (HUDSON)",1,C,,
07032FRNKL113PA,-74.163,40.754,False,34,017,013300,34,34017,34017013300,1400000US34017013300,FRANKLIN BURLINGTON PLASTICS INC.,113 PASSAIC AVE,KEARNY,NJ,7032,"FRANKLIN BURLINGTON PLASTICS INC..113 PASSAIC AVE, KEARNY NEW JERSEY 07032 (HUDSON)",0,C,,110000318335
07032HWRDC29POR,-74.128,40.775999999999996,False,34,003,038100,34,34003,34003038100,1400000US34003038100,HAWARD CORP,29 PORETE AVE,NORTH ARLINGTON,NJ,7031,"HAWARD CORP.29 PORETE AVE, NORTH ARLINGTON NEW JERSEY 07031 (BERGEN)",0,C,,
0703WCLYTN2PRET,-74.128,40.774,False,34,003,038100,34,34003,34003038100,1400000US34003038100,RALPH CLAYTON & SONS,2 PORETE AVE,NORTH ARLINGTON,NJ,7031,"RALPH CLAYTON & SONS.2 PORETE AVE, NORTH ARLINGTON NEW JERSEY 07031 (BERGEN)",0,C,,110014661794
07033BLBLD123N8,-74.303,40.678000000000004,False,34,039,033600,34,34039,34039033600,1400000US34039033600,BLUE BLADE STEEL,123 N 8TH ST,KENILWORTH,NJ,7033,"BLUE BLADE STEEL.123 N 8TH ST, KENILWORTH NEW JERSEY 07033 (UNION)",0,C,,110000318399
07033BMFNS201SO,-74.279,40.674,False,34,039,033600,34,34039,34039033600,1400000US34039033600,B & M FINISHERS INC,201 S 31ST ST,KENILWORTH,NJ,7033,"B & M FINISHERS INC.201 S 31ST ST, KENILWORTH NEW JERSEY 07033 (UNION)",0,C,,
07033CRWNM38BOR,-74.30199999999999,40.683,False,34,039,033600,34,34039,34039033600,1400000US34039033600,CROWN METAL FINISHING CO INC,38 BORIGHT AVE,KENILWORTH,NJ,7033,"CROWN METAL FINISHING CO INC.38 BORIGHT AVE, KENILWORTH NEW JERSEY 07033 (UNION)",0,C,,
07033HRTLC141MA,-74.28,40.672,False,34,039,033600,34,34039,34039033600,1400000US34039033600,HERTEL CUTTING TECHNOLOGIES INC,141 MARKET ST,KENILWORTH,NJ,7033,"HERTEL CUTTING TECHNOLOGIES INC.141 MARKET ST, KENILWORTH NEW JERSEY 07033 (UNION)",0,C,,
07033SCHRN2000G,-74.27600000000001,40.673,False,34,039,033600,34,34039,34039033600,1400000US34039033600,SCHERING CORP,2000 GALLOPING HILL RD,KENILWORTH,NJ,7033,"SCHERING CORP.2000 GALLOPING HILL RD, KENILWORTH NEW JERSEY 07033 (UNION)",0,C,,110000318406
07033SYNRY209NM,-74.288,40.681,False,34,039,033600,34,34039,34039033600,1400000US34039033600,SYNRAY CORP,209 N MICHIGAN AVE,KENILWORTH,NJ,7033,"SYNRAY CORP.209 N MICHIGAN AVE, KENILWORTH NEW JERSEY 07033 (UNION)",0,C,,110007393766
07033WHTTL40BOR,-74.30199999999999,40.683,False,34,039,033600,34,34039,34039033600,1400000US34039033600,WHITE TOOL CORP,40 BORIGHT AVE,KENILWORTH,NJ,7033,"WHITE TOOL CORP.40 BORIGHT AVE, KENILWORTH NEW JERSEY 07033 (UNION)",0,C,,
07033SPNDL188MA,-74.279,40.671,False,34,039,033600,34,34039,34039033600,1400000US34039033600,SPINDLER BROTHERS CO INC,188 MARKET ST,KENILWORTH,NJ,7033,"SPINDLER BROTHERS CO INC.188 MARKET ST, KENILWORTH NEW JERSEY 07033 (UNION)",0,C,,
07033BLTNG20BOR,-74.30199999999999,40.683,False,34,039,033600,34,34039,34039033600,1400000US34039033600,BELTING INDUSTRIES CO INC,20 BORIGHT AVE,KENILWORTH,NJ,7033,"BELTING INDUSTRIES CO INC.20 BORIGHT AVE, KENILWORTH NEW JERSEY 07033 (UNION)",0,C,,
07033LLRCH2MARK,-74.294,40.687,False,34,039,033600,34,34039,34039033600,1400000US34039033600,ULLRICH COPPER L P,22 COLUMBUS RD,KENILWORTH,NJ,7033,"ULLRICH COPPER L P.22 COLUMBUS RD, KENILWORTH NEW JERSEY 07033 (UNION)",0,C,,
0703WDLTCH3BRIG,-74.303,40.683,False,34,039,033600,34,34039,34039033600,1400000US34039033600,IDL TECHNIEDGE,30 BORIGHT AVE,KENILWORTH,NJ,7033,"IDL TECHNIEDGE.30 BORIGHT AVE, KENILWORTH NEW JERSEY 07033 (UNION)",0,C,,110070217286
07036CNVRT1301S,-74.22,40.641,False,34,039,035200,34,34039,34039035200,1400000US34039035200,SUN CHEMICAL SPECIALTY INKS,1301 S PARK AVE,LINDEN,NJ,7036,"SUN CHEMICAL SPECIALTY INKS.1301 S PARK AVE, LINDEN NEW JERSEY 07036 (UNION)",0,C,,
07036PCHBL2025E,-74.229,40.649,False,34,039,035200,34,34039,34039035200,1400000US34039035200,EAGLE POLY ISO,2025 E LINDEN AVE,LINDEN,NJ,7036,"EAGLE POLY ISO.2025 E LINDEN AVE, LINDEN NEW JERSEY 07036 (UNION)",0,C,,
07036PCRNC1375E,-74.237,40.641999999999996,False,34,039,035200,34,34039,34039035200,1400000US34039035200,EPICOR INC,1375 E LINDEN AVE,LINDEN,NJ,7036,"EPICOR INC.1375 E LINDEN AVE, LINDEN NEW JERSEY 07036 (UNION)",0,C,,
07036LNDNT1900E,-74.232,40.646,False,34,039,035200,34,34039,34039035200,1400000US34039035200,LINDEN TECHNOLOGY CENTER,1900 E LINDEN AVE,LINDEN,NJ,7036,"LINDEN TECHNOLOGY CENTER.1900 E LINDEN AVE, LINDEN NEW JERSEY 07036 (UNION)",0,C,,
07036RTBXT1401P,-74.22,40.641,False,34,039,035200,34,34039,34039035200,1400000US34039035200,ROTUBA EXTRUDERS INC,1401 PARK AVE S,LINDEN,NJ,7036,"ROTUBA EXTRUDERS INC.1401 PARK AVE S, LINDEN NEW JERSEY 07036 (UNION)",0,C,,
07036TSTRL2500B,-74.215,40.641,False,34,039,035200,34,34039,34039035200,1400000US34039035200,ETO STERILIZATION,2500 BRUNSWICK AVE,LINDEN,NJ,7036,"ETO STERILIZATION.2500 BRUNSWICK AVE, LINDEN NEW JERSEY 07036 (UNION)",0,C,,110000318567
07036CGNTCRAILR,-74.221,40.641999999999996,False,34,039,035200,34,34039,34039035200,1400000US34039035200,COGEN TECHNOLOGIES LINDEN VENTURE LP,RAILROAD AVE BAYWAY REFINER,LINDEN,NJ,7036,"COGEN TECHNOLOGIES LINDEN VENTURE LP.RAILROAD AVE BAYWAY REFINER, LINDEN NEW JERSEY 07036 (UNION)",0,C,,110002047286
0703WDPNTD14PAR,-74.219,40.641,False,34,039,035200,34,34039,34039035200,1400000US34039035200,VEOLIA - MORSES MILL,1400 PARK AVE,LINDEN,NJ,7036,"VEOLIA - MORSES MILL.1400 PARK AVE, LINDEN NEW JERSEY 07036 (UNION)",0,C,,110024163126
07036DCKRS1512W,-74.264,40.62,False,34,039,035000,34,34039,34039035000,1400000US34039035000,LUBRIZOL CO,1512 W ELIZABETH AVE,LINDEN,NJ,7036,"LUBRIZOL CO.1512 W ELIZABETH AVE, LINDEN NEW JERSEY 07036 (UNION)",0,C,,110000318433
07036DNGLM360DA,-74.267,40.624,False,34,039,035000,34,34039,34039035000,1400000US34039035000,D'ANGELO METAL PRODUCTS CO INC,360 DALZIEL RD,LINDEN,NJ,70366291,"D'ANGELO METAL PRODUCTS CO INC.360 DALZIEL RD, LINDEN NEW JERSEY 07036 (UNION)",0,C,,
07036GMRNT1525W,-74.266,40.622,False,34,039,035000,34,34039,34039035000,1400000US34039035000,HONEYWELL GNI,1525 W BLANCKE ST,LINDEN,NJ,7036,"HONEYWELL GNI.1525 W BLANCKE ST, LINDEN NEW JERSEY 07036 (UNION)",0,C,,
07036PRMNT1515W,-74.264,40.62,False,34,039,035000,34,34039,34039035000,1400000US34039035000,PARAMOUNT METAL FINISHING,1515 W ELIZABETH AVE,LINDEN,NJ,7036,"PARAMOUNT METAL FINISHING.1515 W ELIZABETH AVE, LINDEN NEW JERSEY 07036 (UNION)",0,C,,110000318521
07036SLRCM1201W,-74.264,40.623000000000005,False,34,039,035000,34,34039,34039035000,1400000US34039035000,SOLAR COMPOUNDS CORP,1201 W BLANKE ST,LINDEN,NJ,7036,"SOLAR COMPOUNDS CORP.1201 W BLANKE ST, LINDEN NEW JERSEY 07036 (UNION)",0,C,,110000318558
07036MDTLN1200W,-74.264,40.623000000000005,False,34,039,035000,34,34039,34039035000,1400000US34039035000,MID ATLANTIC CONTAINER CORP,1200 W BLANCKE ST,LINDEN,NJ,7036,"MID ATLANTIC CONTAINER CORP.1200 W BLANCKE ST, LINDEN NEW JERSEY 07036 (UNION)",1,C,,
07036DPNTGENDOF,-74.221,40.61,False,34,039,035400,34,34039,34039035400,1400000US34039035400,DU PONT GRASSELLI PLANT,END OF S WOOD AVE,LINDEN,NJ,7036,"DU PONT GRASSELLI PLANT.END OF S WOOD AVE, LINDEN NEW JERSEY 07036 (UNION)",0,C,,
07036GNRLM1016W,-74.255,40.619,False,34,039,035400,34,34039,34039035400,1400000US34039035400,GM TRUCK GROUP LINDEN ASSEMBLY,1016 W EDGAR RD,LINDEN,NJ,7036,"GM TRUCK GROUP LINDEN ASSEMBLY.1016 W EDGAR RD, LINDEN NEW JERSEY 07036 (UNION)",1,C,,110000318460
07036LPHMT3401B,-74.225,40.616,False,34,039,035400,34,34039,34039035400,1400000US34039035400,ALPHA METALS INC,3401-B TREMLEY POINT RD,LINDEN,NJ,7036,"ALPHA METALS INC.3401-B TREMLEY POINT RD, LINDEN NEW JERSEY 07036 (UNION)",1,C,,
07036MRCNC4900T,-74.206,40.598,False,34,039,035400,34,34039,34039035400,1400000US34039035400,CYTEC INDUSTRIES INC,4900 TREMLEY POINT RD,LINDEN,NJ,7036,"CYTEC INDUSTRIES INC.4900 TREMLEY POINT RD, LINDEN NEW JERSEY 07036 (UNION)",0,C,,
07036MTCHL801EA,-74.243,40.637,False,34,039,035400,34,34039,34039035400,1400000US34039035400,MATCHLESS UNITED COS INC,801 E LINDEN AVE,LINDEN,NJ,7036,"MATCHLESS UNITED COS INC.801 E LINDEN AVE, LINDEN NEW JERSEY 07036 (UNION)",0,C,,
07036PLTRN301CO,-74.242,40.63,False,34,039,035400,34,34039,34039035400,1400000US34039035400,PLATRONICS INC,301 COMMERCE RD,LINDEN,NJ,7036,"PLATRONICS INC.301 COMMERCE RD, LINDEN NEW JERSEY 07036 (UNION)",0,C,,
07036TTLYN601WE,-74.25399999999999,40.625,False,34,039,035400,34,34039,34039035400,1400000US34039035400,TETLEY INC,601 WEST LINDEN AVE,LINDEN,NJ,7036,"TETLEY INC.601 WEST LINDEN AVE, LINDEN NEW JERSEY 07036 (UNION)",0,C,,
07036XXNCH1400P,-74.22,40.635999999999996,False,34,039,035400,34,34039,34039035400,1400000US34039035400,INFINEUM USA LP-BAYWAY CHEMICAL PLANT,CORNER OF PARK & BRUNSWICK AVENUES,LINDEN,NJ,7036,"INFINEUM USA LP-BAYWAY CHEMICAL PLANT.CORNER OF PARK & BRUNSWICK AVENUES, LINDEN NEW JERSEY 07036 (UNION)",0,C,,110067001871
07036XXNST1400P,-74.22,40.635999999999996,False,34,039,035400,34,34039,34039035400,1400000US34039035400,EXXON CO EASTSIDE CHEMICAL PLANT,1400 PARK AVE,LINDEN,NJ,7036,"EXXON CO EASTSIDE CHEMICAL PLANT.1400 PARK AVE, LINDEN NEW JERSEY 07036 (UNION)",0,C,,
07036XXNXX1400P,-74.22,40.637,False,34,039,035400,34,34039,34039035400,1400000US34039035400,PHILLIPS 66 CO-BAYWAY REFINERY,1400 PARK AVE,LINDEN,NJ,7036,"PHILLIPS 66 CO-BAYWAY REFINERY.1400 PARK AVE, LINDEN NEW JERSEY 07036 (UNION)",0,C,,110041133163
07065MRCKC126EL,-74.26100000000001,40.613,False,34,039,035400,34,34039,34039035400,1400000US34039035400,MERCK SHARP & DOHME CORP,126 E LINCOLN AVE,RAHWAY,NJ,7065,"MERCK SHARP & DOHME CORP.126 E LINCOLN AVE, RAHWAY NEW JERSEY 07065 (UNION)",0,C,,110000492020
07036CTGPT4801S,-74.21,40.601,False,34,039,035400,34,34039,34039035400,1400000US34039035400,CITGO PETROLEUM CORP,4801 S WOOD AVE,LINDEN,NJ,7036,"CITGO PETROLEUM CORP.4801 S WOOD AVE, LINDEN NEW JERSEY 07036 (UNION)",0,C,,110000318424
07036GLFLL2600M,-74.237,40.603,False,34,039,035400,34,34039,34039035400,1400000US34039035400,GULF OIL LP LINDEN TERMINAL,2600 MARSHES DOCK RD,LINDEN,NJ,7036,"GULF OIL LP LINDEN TERMINAL.2600 MARSHES DOCK RD, LINDEN NEW JERSEY 07036 (UNION)",0,C,,110000318442
07036MBLLL3700S,-74.222,40.611,False,34,039,035400,34,34039,34039035400,1400000US34039035400,EXXONMOBIL OIL CORP LINDEN TERMINAL,3700 S WOOD AVE,LINDEN,NJ,7036,"EXXONMOBIL OIL CORP LINDEN TERMINAL.3700 S WOOD AVE, LINDEN NEW JERSEY 07036 (UNION)",0,C,,
07036NRTHV4501T,-74.207,40.606,False,34,039,035400,34,34039,34039035400,1400000US34039035400,NORTHVILLE INDUSTRIES CORP,4501 TREMLEY POINT RD,LINDEN,NJ,7036,"NORTHVILLE INDUSTRIES CORP.4501 TREMLEY POINT RD, LINDEN NEW JERSEY 07036 (UNION)",1,C,,
07036SFTYK1200S,-74.253,40.614000000000004,False,34,039,035400,34,34039,34039035400,1400000US34039035400,SAFETY-KLEEN SYSTEMS INC,1200 SYLVAN ST,LINDEN,NJ,7036,"SAFETY-KLEEN SYSTEMS INC.1200 SYLVAN ST, LINDEN NEW JERSEY 07036 (UNION)",0,C,,110000318549
07036LNDNGWOODA,-74.21,40.623000000000005,False,34,039,035400,34,34039,34039035400,1400000US34039035400,LINDEN GENERATING STATION,WOOD AVE S,LINDEN,NJ,7036,"LINDEN GENERATING STATION.WOOD AVE S, LINDEN NEW JERSEY 07036 (UNION)",0,C,,110000869105
07036PXPLT725CO,-74.23899999999999,40.633,False,34,039,035400,34,34039,34039035400,1400000US34039035400,APEX PLATING & POLISHING CO. INC.,725 COMMERCE RD,LINDEN,NJ,7036,"APEX PLATING & POLISHING CO. INC..725 COMMERCE RD, LINDEN NEW JERSEY 07036 (UNION)",0,C,,110001537604
07036CNCPHFTFSW,-74.234,40.621,False,34,039,035400,34,34039,34039035400,1400000US34039035400,PHILLIPS 66 CO TREMLEY POINT TERMINAL,FOOT OF S WOOD AVE,LINDEN,NJ,7036,"PHILLIPS 66 CO TREMLEY POINT TERMINAL.FOOT OF S WOOD AVE, LINDEN NEW JERSEY 07036 (UNION)",0,C,,110029898190
0703WWLDNS2MARS,-74.235,40.604,False,34,039,035400,34,34039,34039035400,1400000US34039035400,WELDON ASPHALT CO,2000 MARSHES DOCK ROAD,LINDEN,NJ,7036,"WELDON ASPHALT CO.2000 MARSHES DOCK ROAD, LINDEN NEW JERSEY 07036 (UNION)",0,C,,110004151989
07036TRNSC609WE,-74.257,40.626999999999995,False,34,039,035100,34,34039,34039035100,1400000US34039035100,TRANSCO PRODUCTS CORP,609 W ELIZABETH AVE,LINDEN,NJ,7036,"TRANSCO PRODUCTS CORP.609 W ELIZABETH AVE, LINDEN NEW JERSEY 07036 (UNION)",0,C,,
07036LFLBR5NSTI,-74.257,40.626,False,34,039,035100,34,34039,34039035100,1400000US34039035100,TOTAL SPECIALTIES USA INC,5 N STILES ST,LINDEN,NJ,7036,"TOTAL SPECIALTIES USA INC.5 N STILES ST, LINDEN NEW JERSEY 07036 (UNION)",0,C,,110000318479
07039BRLSS644WM,-74.358,40.801,False,34,013,020400,34,34013,34013020400,1400000US34013020400,BERLISS BEARING CO,644 W MT PLEASANT AVE,LIVINGSTON,NJ,7039,"BERLISS BEARING CO.644 W MT PLEASANT AVE, LIVINGSTON NEW JERSEY 07039 (ESSEX)",0,C,,110000318585
07040MCRST71NEW,-74.26100000000001,40.717,False,34,013,019700,34,34013,34013019700,1400000US34013019700,MICRO STAMPING CORP,71 NEWARK WAY,MAPLEWOOD,NJ,7040,"MICRO STAMPING CORP.71 NEWARK WAY, MAPLEWOOD NEW JERSEY 07040 (ESSEX)",1,C,,
07042LCRLC112PI,-74.207,40.812,False,34,013,016700,34,34013,34013016700,1400000US34013016700,ALCARO & ALCARO PLATING CO INC,112 PINE ST,MONTCLAIR,NJ,7042,"ALCARO & ALCARO PLATING CO INC.112 PINE ST, MONTCLAIR NEW JERSEY 07042 (ESSEX)",0,C,,
07045MRTTS78BOO,-74.39399999999999,40.939,False,34,027,040801,34,34027,34027040801,1400000US34027040801,"MAROTTA SCIENTIFIC CONTROLS, INC",78 BOONTON AVE,MONTVILLE,NJ,70459998,"MAROTTA SCIENTIFIC CONTROLS, INC.78 BOONTON AVE, MONTVILLE NEW JERSEY 07045 (MORRIS)",0,C,,
07045CPLNR3MARS,-74.387,40.948,True,34,027,040801,34,34027,34027040801,1400000US34027040801,CO PLANAR INC,3 MARS CT,MONTVILLE,NJ,7045,"CO PLANAR INC 3 MARS CT, MONTVILLE, NJ, 7045",0,C,,
07045NSRLL1CHAP,-74.34100000000001,40.858000000000004,False,34,027,040803,34,34027,34027040803,1400000US34027040803,PHELPS DODGE HIGH PERFORMANCE CONDUCTORS OF NJ INC,1 CHAPIN RD,MONTVILLE,NJ,7045,"PHELPS DODGE HIGH PERFORMANCE CONDUCTORS OF NJ INC.1 CHAPIN RD, MONTVILLE NEW JERSEY 07045 (MORRIS)",0,C,,
07058DCRNC5BADE,-74.361,40.869,False,34,027,040803,34,34027,34027040803,1400000US34027040803,DICAR INC,5 BADER RD,PINE BROOK,NJ,7058,"DICAR INC.5 BADER RD, PINE BROOK NEW JERSEY 07058 (MORRIS)",0,C,,110000318736
07058PPLCN65CHA,-74.336,40.855,False,34,027,040803,34,34027,34027040803,1400000US34027040803,APPLE CONTAINER,60 CHAPIN RD,PINE BROOK,NJ,7058,"APPLE CONTAINER.60 CHAPIN RD, PINE BROOK NEW JERSEY 07058 (MORRIS)",0,C,,
07058TFLCR25RIV,-74.34100000000001,40.854,False,34,027,040803,34,34027,34027040803,1400000US34027040803,T-FAL CORP,25 RIVERSIDE DR,PINE BROOK,NJ,7058,"T-FAL CORP.25 RIVERSIDE DR, PINE BROOK NEW JERSEY 07058 (MORRIS)",0,C,,
07047CMPCN1717P,-74.044,40.766,False,34,017,014800,34,34017,34017014800,1400000US34017014800,COMPAC INDUSTRIES INC,1717 PATERSON PLANK RD,NORTH BERGEN,NJ,7047,"COMPAC INDUSTRIES INC.1717 PATERSON PLANK RD, NORTH BERGEN NEW JERSEY 07047 (HUDSON)",1,C,,
07302DVNTP1511T,-74.046,40.766999999999996,False,34,017,014800,34,34017,34017014800,1400000US34017014800,DEVON TAPE CORP,1511 TONNELLE AVE,NORTH BERGEN,NJ,7047,"DEVON TAPE CORP.1511 TONNELLE AVE, NORTH BERGEN NEW JERSEY 07047 (HUDSON)",0,C,,
07047CRWNC7101T,-74.021,40.802,False,34,017,014600,34,34017,34017014600,1400000US34017014600,CROWN CORK & SEAL CO INC,7101 TONNELLE AVE,NORTH BERGEN,NJ,7047,"CROWN CORK & SEAL CO INC.7101 TONNELLE AVE, NORTH BERGEN NEW JERSEY 07047 (HUDSON)",0,C,,
07047WRGRC21338,-74.017,40.811,False,34,017,014600,34,34017,34017014600,1400000US34017014600,GCP APPLIED TECHNOLOGIES INC,2133 85TH ST,NORTH BERGEN,NJ,7047,"GCP APPLIED TECHNOLOGIES INC.2133 85TH ST, NORTH BERGEN NEW JERSEY 07047 (HUDSON)",0,C,,110000318601
07047MRCRP9500R,-74.013,40.819,False,34,017,014600,34,34017,34017014600,1400000US34017014600,MEER CORP,9500 RAILROAD AVE,NORTH BERGEN,NJ,7047,"MEER CORP.9500 RAILROAD AVE, NORTH BERGEN NEW JERSEY 07047 (HUDSON)",0,C,,
0704WCLNLC931RA,-74.015,40.82,False,34,017,014600,34,34017,34017014600,1400000US34017014600,COLONIAL CONCRETE CO - NORTH BERGEN,9301 RAILROAD AVE,NORTH BERGEN,NJ,7047,"COLONIAL CONCRETE CO - NORTH BERGEN.9301 RAILROAD AVE, NORTH BERGEN NEW JERSEY 07047 (HUDSON)",0,C,,110029881108
07047SRBTH9252K,-74.002,40.81,False,34,017,014000,34,34017,34017014000,1400000US34017014000,SIER BATH DECK GEAR CORP,9252 KENNEDY BLVD,NORTH BERGEN,NJ,70475311,"SIER BATH DECK GEAR CORP.9252 KENNEDY BLVD, NORTH BERGEN NEW JERSEY 07047 (HUDSON)",1,C,,
07050TRYCT363SO,-74.245,40.766999999999996,False,34,013,018600,34,34013,34013018600,1400000US34013018600,TRYCO TOOL & MANUFACTURING CO INC,363 S JEFFERSON ST,ORANGE,NJ,7050,"TRYCO TOOL & MANUFACTURING CO INC.363 S JEFFERSON ST, ORANGE NEW JERSEY 07050 (ESSEX)",0,C,,
07051HRSMN377CR,-74.234,40.771,False,34,013,018600,34,34013,34013018600,1400000US34013018600,H REISMAN CORP,377 CRANE ST,ORANGE,NJ,7051,"H REISMAN CORP.377 CRANE ST, ORANGE NEW JERSEY 07051 (ESSEX)",0,C,,
07052RGNNN375MO,-74.26,40.791,False,34,013,017400,34,34013,34013017400,1400000US34013017400,ORGANON INC,375 MT PLEASANT AVE,WEST ORANGE,NJ,7052,"ORGANON INC.375 MT PLEASANT AVE, WEST ORANGE NEW JERSEY 07052 (ESSEX)",0,C,,
07054HWMTC91WAL,-74.452,40.873000000000005,False,34,027,041602,34,34027,34027041602,1400000US34027041602,HOWMET CORP OPF,91 WALSH DR,PARSIPPANY,NJ,7054,"HOWMET CORP OPF.91 WALSH DR, PARSIPPANY NEW JERSEY 07054 (MORRIS)",0,C,,
07054VDLCR50LAC,-74.449,40.878,False,34,027,041602,34,34027,34027041602,1400000US34027041602,AVDEL CORP SYSTEMS DIV,50 LACKAWANNA AVE,PARSIPPANY,NJ,70541093,"AVDEL CORP SYSTEMS DIV.50 LACKAWANNA AVE, PARSIPPANY NEW JERSEY 07054 (MORRIS)",0,C,,
07054MCNLP1JEFF,-74.419,40.853,False,34,027,041803,34,34027,34027041803,1400000US34027041803,MCNEIL PPC INC,100 JEFFERSON RD,PARSIPPANY,NJ,7054,"MCNEIL PPC INC.100 JEFFERSON RD, PARSIPPANY NEW JERSEY 07054 (MORRIS)",1,C,,110000318647
07054MTMCR700PA,-74.42399999999999,40.846,False,34,027,041803,34,34027,34027041803,1400000US34027041803,METEM - A GE POWER BUSINESS,700 PARSIPPANY RD,PARSIPPANY,NJ,7054,"METEM - A GE POWER BUSINESS.700 PARSIPPANY RD, PARSIPPANY NEW JERSEY 07054 (MORRIS)",0,C,,110000318656
07054SCLCT7EAST,-74.428,40.845,False,34,027,041803,34,34027,34027041803,1400000US34027041803,ASCO POWER TECHS LP,7 EASTMANS RD,PARSIPPANY,NJ,7054,"ASCO POWER TECHS LP.7 EASTMANS RD, PARSIPPANY NEW JERSEY 07054 (MORRIS)",0,C,,
07054LLDSG6EAST,-74.428,40.845,False,34,027,041803,34,34027,34027041803,1400000US34027041803,ALLIED-SIGNAL INC AMORPHOUS METALS,6 EASTMANS RD,PARSIPPANY,NJ,7054,"ALLIED-SIGNAL INC AMORPHOUS METALS.6 EASTMANS RD, PARSIPPANY NEW JERSEY 07054 (MORRIS)",0,C,,
07054LLSTT1WOOD,-74.418,40.858000000000004,False,34,027,041803,34,34027,34027041803,1400000US34027041803,ALLSTATE CAN CORP,1 WOOD HOLLOW RD,PARSIPPANY,NJ,7054,"ALLSTATE CAN CORP.1 WOOD HOLLOW RD, PARSIPPANY NEW JERSEY 07054 (MORRIS)",0,C,,
07054PNYTC299WE,-74.417,40.855,False,34,027,041803,34,34027,34027041803,1400000US34027041803,PNY TECHNOLOGIES INC.,299 WEBRO RD,PARSIPPANY,NJ,7054,"PNY TECHNOLOGIES INC..299 WEBRO RD, PARSIPPANY NEW JERSEY 07054 (MORRIS)",0,C,,110012708392
07054WMSTN29EHA,-74.423,40.849000000000004,False,34,027,041803,34,34027,34027041803,1400000US34027041803,WM STEINEN MANUFACTURING CO,29 E HALSEY RD,PARSIPPANY,NJ,7054,"WM STEINEN MANUFACTURING CO.29 E HALSEY RD, PARSIPPANY NEW JERSEY 07054 (MORRIS)",0,C,,110004137880
07054ZMMRT1PMER,-74.42399999999999,40.852,False,34,027,041803,34,34027,34027041803,1400000US34027041803,ZIMMER BIOMET,10 POMEROY RD,PARSIPPANY,NJ,7054,"ZIMMER BIOMET.10 POMEROY RD, PARSIPPANY NEW JERSEY 07054 (MORRIS)",0,C,,110000801678
07054RTSNL5EAST,-74.41,40.858,True,34,027,041803,34,34027,34027041803,1400000US34027041803,ARTISAN ELECTRONICS CORP,5 EASTMANS RD,PARSIPPANY,NJ,7054,"ARTISAN ELECTRONICS CORP 5 EASTMANS RD, PARSIPPANY, NJ, 7054",0,C,,
07054TTHYR42INT,-74.419,40.891999999999996,False,34,027,041603,34,34027,34027041603,1400000US34027041603,KOCH-OTTO YORK,42 INTERVALE RD,PARSIPPANY,NJ,7054,"KOCH-OTTO YORK.42 INTERVALE RD, PARSIPPANY NEW JERSEY 07054 (MORRIS)",0,C,,
07005DRNNC94FAN,-74.418,40.895,False,34,027,041603,34,34027,34027041603,1400000US34027041603,ADRON INC,94 FANNY RD,BOONTON,NJ,7005,"ADRON INC.94 FANNY RD, BOONTON NEW JERSEY 07005 (MORRIS)",0,C,,110000317951
07055BLTCD358TH,-74.11,40.857,False,34,031,175900,34,34031,34031175900,1400000US34031175900,BALTIC DYE & FINISHING CO INC,35 EIGHTH ST,PASSAIC,NJ,7055,"BALTIC DYE & FINISHING CO INC.35 EIGHTH ST, PASSAIC NEW JERSEY 07055 (PASSAIC)",0,C,,
07055HRCLS111SO,-74.113,40.86,False,34,031,175900,34,34031,34031175900,1400000US34031175900,HERCULES CHEMICAL CO INC .,111 S ST,PASSAIC,NJ,7055,"HERCULES CHEMICAL CO INC ..111 S ST, PASSAIC NEW JERSEY 07055 (PASSAIC)",0,C,,110000318692
07055NTRST35EIG,-74.11,40.856,False,34,031,175900,34,34031,34031175900,1400000US34031175900,"INTER-STATE DYEING & FINISHING, CO",35 8TH ST,PASSAIC,NJ,7055,"INTER-STATE DYEING & FINISHING, CO.35 8TH ST, PASSAIC NEW JERSEY 07055 (PASSAIC)",0,C,,
07055PRSCT27EIG,-74.11,40.856,False,34,031,175900,34,34031,34031175900,1400000US34031175900,PRESCOTT CO,27 EIGHTH ST,PASSAIC,NJ,7055,"PRESCOTT CO.27 EIGHTH ST, PASSAIC NEW JERSEY 07055 (PASSAIC)",1,C,,
07055SNBRT35EIG,-74.11,40.856,False,34,031,175900,34,34031,34031175900,1400000US34031175900,SUNBRITE DYE CO INC,35 EIGHTH ST,PASSAIC,NJ,7055,"SUNBRITE DYE CO INC.35 EIGHTH ST, PASSAIC NEW JERSEY 07055 (PASSAIC)",0,C,,
07055THKNT1940P,-74.108,40.863,False,34,031,175900,34,34031,34031175900,1400000US34031175900,OKONITE CO,1940 PASSAIC ST,PASSAIC,NJ,7055,"OKONITE CO.1940 PASSAIC ST, PASSAIC NEW JERSEY 07055 (PASSAIC)",0,C,,
07055THNLL1MARK,-74.118,40.861,False,34,031,175900,34,34031,34031175900,1400000US34031175900,ETHAN ALLEN MANUFACTURING CO,1 MARKET ST,PASSAIC,NJ,70557311,"ETHAN ALLEN MANUFACTURING CO.1 MARKET ST, PASSAIC NEW JERSEY 07055 (PASSAIC)",0,C,,
07055CLRML2PAUL,-74.12100000000001,40.853,False,34,031,175801,34,34031,34031175801,1400000US34031175801,COLORAMA LAMINATING & PRINTING INC,2 PAULISON AVE,PASSAIC,NJ,7055,"COLORAMA LAMINATING & PRINTING INC.2 PAULISON AVE, PASSAIC NEW JERSEY 07055 (PASSAIC)",0,C,,
07055CSTLN225PA,-74.119,40.861999999999995,False,34,031,175402,34,34031,34031175402,1400000US34031175402,COASTAL INDUSTRIES INC,225 PASSAIC ST,PASSAIC,NJ,7055,"COASTAL INDUSTRIES INC.225 PASSAIC ST, PASSAIC NEW JERSEY 07055 (PASSAIC)",0,C,,
07055HWTTR270PA,-74.134,40.852,False,34,031,175703,34,34031,34031175703,1400000US34031175703,HEWITT-ROBINS CORP,270 PASSAIC AVE,PASSAIC,NJ,7055,"HEWITT-ROBINS CORP.270 PASSAIC AVE, PASSAIC NEW JERSEY 07055 (PASSAIC)",0,C,,
07055LNDRS90DAY,-74.119,40.871,False,34,031,175302,34,34031,34031175302,1400000US34031175302,LANDERS-SEGAL COLOR CO INC,84 DAYTON AVE,PASSAIC,NJ,70557090,"LANDERS-SEGAL COLOR CO INC.84 DAYTON AVE, PASSAIC NEW JERSEY 07055 (PASSAIC)",0,C,,
07055SCRNP90DAY,-74.118,40.873000000000005,False,34,031,175302,34,34031,34031175302,1400000US34031175302,SCREEN PLACE,90 DAYTON AVE,PASSAIC,NJ,7055,"SCREEN PLACE.90 DAYTON AVE, PASSAIC NEW JERSEY 07055 (PASSAIC)",1,C,,
07055NFLCR217BR,-74.134,40.842,False,34,031,175601,34,34031,34031175601,1400000US34031175601,UNIFOIL CORP,217 BROOK AVE,PASSAIC,NJ,70553300,"UNIFOIL CORP.217 BROOK AVE, PASSAIC NEW JERSEY 07055 (PASSAIC)",0,C,,
07055SHPRD25BRI,-74.143,40.856,False,34,031,175602,34,34031,34031175602,1400000US34031175602,SHEPARD AIRTRONICS INC,25 BRIGHTON AVE,PASSAIC,NJ,7055,"SHEPARD AIRTRONICS INC.25 BRIGHTON AVE, PASSAIC NEW JERSEY 07055 (PASSAIC)",0,C,,
07055BRTLP61WIL,-74.142,40.855,False,34,031,175602,34,34031,34031175602,1400000US34031175602,BARTLO PACKAGING INC,61 WILLETT ST,PASSAIC,NJ,7055,"BARTLO PACKAGING INC.61 WILLETT ST, PASSAIC NEW JERSEY 07055 (PASSAIC)",0,C,,110000318683
07055CMNGR1937D,-74.139,40.855,False,34,031,175602,34,34031,34031175602,1400000US34031175602,ACME ENGRAVING CO INC,19-37 DELAWARE AVE,PASSAIC,NJ,7055,"ACME ENGRAVING CO INC.19-37 DELAWARE AVE, PASSAIC NEW JERSEY 07055 (PASSAIC)",0,C,,110022904838
07057HMPLCFOOTO,-74.102,40.844,False,34,003,057102,34,34003,34003057102,1400000US34003057102,HEMPEL COATINGS USA INC,FOOT OF CURIE AVE,WALLINGTON,NJ,70572299,"HEMPEL COATINGS USA INC.FOOT OF CURIE AVE, WALLINGTON NEW JERSEY 07057 (BERGEN)",0,C,,
07057HSCHM5264V,-74.102,40.845,False,34,003,057102,34,34003,34003057102,1400000US34003057102,H S CHEMICAL CO. INC.,52-64 VAN DYKE ST,WALLINGTON,NJ,7057,"H S CHEMICAL CO. INC..52-64 VAN DYKE ST, WALLINGTON NEW JERSEY 07057 (BERGEN)",0,C,,110040955464
07057TRNGL5357V,-74.102,40.845,False,34,003,057102,34,34003,34003057102,1400000US34003057102,TRIANGLE INK CO INC,53-57 VAN DYKE ST,WALLINGTON,NJ,70572296,"TRIANGLE INK CO INC.53-57 VAN DYKE ST, WALLINGTON NEW JERSEY 07057 (BERGEN)",0,C,,
07060SCHRD150MT,-74.509,40.635,False,34,035,052201,34,34035,34035052201,1400000US34035052201,SCHROEDER BROS CO,150 MT BETHEL RD,WARREN,NJ,7060,"SCHROEDER BROS CO.150 MT BETHEL RD, WARREN NEW JERSEY 07060 (SOMERSET)",0,C,,
07980GLSFLSTIRL,-74.483,40.665,False,34,035,052201,34,34035,34035052201,1400000US34035052201,GLASFLEX,219-223 STIRLING RD,STIRLING,NJ,7980,"GLASFLEX.219-223 STIRLING RD, STIRLING NEW JERSEY 07980 (SOMERSET)",1,C,,
07059NDGCS141MT,-74.50399999999999,40.634,False,34,035,052201,34,34035,34035052201,1400000US34035052201,II-VI OPTOELECTRONIC DEVICES INC,141 MOUNT BETHEL RD,WARREN,NJ,7059,"II-VI OPTOELECTRONIC DEVICES INC.141 MOUNT BETHEL RD, WARREN NEW JERSEY 07059 (SOMERSET)",0,C,,110006170838
07061LCKHD1501U,-74.423,40.638000000000005,False,34,035,052300,34,34039,34035052300,1400000US34035052300,LOCKHEED ELECTRONICS CO INC,1501 US HWY 22  CS 1,PLAINFIELD,NJ,7061,"LOCKHEED ELECTRONICS CO INC.1501 US HWY 22  CS 1, PLAINFIELD NEW JERSEY 07061 (UNION)",0,C,,
07069FNWDSNEWPR,-74.404,40.657,False,34,035,052300,34,34039,34035052300,1400000US34035052300,FANWOOD CRUSHED STONE,NEW PROVIDENCE RD,WATCHUNG,NJ,7069,"FANWOOD CRUSHED STONE.NEW PROVIDENCE RD, WATCHUNG NEW JERSEY 07069 (UNION)",0,C,,110004184230
07063NTNLS1735W,-74.457,40.596,False,34,039,039400,34,34039,34039039400,1400000US34039039400,NATIONAL STARCH & CHEMICAL CO,1700 W FRONT ST,PLAINFIELD,NJ,7063,"NATIONAL STARCH & CHEMICAL CO.1700 W FRONT ST, PLAINFIELD NEW JERSEY 07063 (UNION)",1,C,,
07064MRDHS750CL,-74.251,40.564,False,34,023,003401,34,34023,34023003401,1400000US34023003401,BUCKEYE PORT READING TERMINAL LLC,750 CLIFF RD,PORT READING,NJ,7064,"BUCKEYE PORT READING TERMINAL LLC.750 CLIFF RD, PORT READING NEW JERSEY 07064 (MIDDLESEX)",0,C,,110056963745
07077CPCHMARBOR,-74.263,40.545,False,34,023,003401,34,34023,34023003401,1400000US34023003401,CP CHEMICALS INC,ARBOR ST,SEWAREN,NJ,7077,"CP CHEMICALS INC.ARBOR ST, SEWAREN NEW JERSEY 07077 (MIDDLESEX)",0,C,,
07077SHLLL111ST,-74.255,40.542,False,34,023,003401,34,34023,34023003401,1400000US34023003401,SEWAREN TERMINAL,111 STATE ST,SEWAREN,NJ,7077,"SEWAREN TERMINAL.111 STATE ST, SEWAREN NEW JERSEY 07077 (MIDDLESEX)",0,C,,110000319012
07095HGNDZ1AMBO,-74.275,40.542,False,34,023,003401,34,34023,34023003401,1400000US34023003401,HAAGEN-DAZS CO INC,1 AMBOY AVE,WOODBRIDGE,NJ,7095,"HAAGEN-DAZS CO INC.1 AMBOY AVE, WOODBRIDGE NEW JERSEY 07095 (MIDDLESEX)",0,C,,
07095LPHSS2AMBO,-74.275,40.542,False,34,023,003401,34,34023,34023003401,1400000US34023003401,ALPHA ASSOCIATES INC.,2 AMBOY AVE,WOODBRIDGE,NJ,7095,"ALPHA ASSOCIATES INC..2 AMBOY AVE, WOODBRIDGE NEW JERSEY 07095 (MIDDLESEX)",0,C,,110000319245
07095MRCNCCUTTE,-74.27,40.544000000000004,False,34,023,003401,34,34023,34023003401,1400000US34023003401,CYTEC INDUSTRIES INC,35 CUTTERS DOCK RD,WOODBRIDGE,NJ,70952703,"CYTEC INDUSTRIES INC.35 CUTTERS DOCK RD, WOODBRIDGE NEW JERSEY 07095 (MIDDLESEX)",0,C,,
07095RSSLL14CON,-74.277,40.541,False,34,023,003401,34,34023,34023003401,1400000US34023003401,MAUSER CORP,14 CONVERY BLVD,WOODBRIDGE,NJ,7095,"MAUSER CORP.14 CONVERY BLVD, WOODBRIDGE NEW JERSEY 07095 (MIDDLESEX)",0,C,,110000500930
07095FBRNT2CUTT,-74.26899999999999,40.545,False,34,023,003401,34,34023,34023003401,1400000US34023003401,FIBRENETICS INC.,2 CUTTERS DOCK RD,WOODBRIDGE,NJ,7095,"FIBRENETICS INC..2 CUTTERS DOCK RD, WOODBRIDGE NEW JERSEY 07095 (MIDDLESEX)",0,C,,110040905429
07077PBLCS751CL,-74.248,40.559,False,34,023,003401,34,34023,34023003401,1400000US34023003401,SEWAREN GENERATING STATION,751 CLIFF RD,SEWAREN,NJ,7077,"SEWAREN GENERATING STATION.751 CLIFF RD, SEWAREN NEW JERSEY 07077 (MIDDLESEX)",0,C,,110000801614
07064NTDST300MA,-74.264,40.569,False,34,023,002901,34,34023,34023002901,1400000US34023002901,US GYPSUM CO,300 MARKLEY ST,PORT READING,NJ,7064,"US GYPSUM CO.300 MARKLEY ST, PORT READING NEW JERSEY 07064 (MIDDLESEX)",0,C,,110002090433
07065DRPRN329NE,-74.286,40.594,False,34,039,035800,34,34039,34039035800,1400000US34039035800,API FOILS INC,329 NEW BRUNSWICK AVE,RAHWAY,NJ,7065,"API FOILS INC.329 NEW BRUNSWICK AVE, RAHWAY NEW JERSEY 07065 (UNION)",0,C,,110000318763
07065LCTRM827MA,-74.27600000000001,40.596,False,34,039,035800,34,34039,34039035800,1400000US34039035800,ELECTRUM RECOVERY WORKS INC,827 MARTIN ST,RAHWAY,NJ,7065,"ELECTRUM RECOVERY WORKS INC.827 MARTIN ST, RAHWAY NEW JERSEY 07065 (UNION)",0,C,,110000318772
07065NTDCT245WE,-74.28399999999999,40.595,False,34,039,035800,34,34039,34039035800,1400000US34039035800,UNITED COATED FABRICS CORP,245 WESCOTT DR,RAHWAY,NJ,7065,"UNITED COATED FABRICS CORP.245 WESCOTT DR, RAHWAY NEW JERSEY 07065 (UNION)",0,C,,
07065WRWCK391EA,-74.281,40.594,False,34,039,035800,34,34023,34039035800,1400000US34039035800,WARWICK LABS CO INC,391 E INMAN AVE,RAHWAY,NJ,7065,"WARWICK LABS CO INC.391 E INMAN AVE, RAHWAY NEW JERSEY 07065 (MIDDLESEX)",0,C,,
07065MRCNL2195E,-74.268,40.616,False,34,039,035500,34,34039,34039035500,1400000US34039035500,ELMO AMERICAN PRODCO,2195 ELIZABETH AVE,RAHWAY,NJ,7065,"ELMO AMERICAN PRODCO.2195 ELIZABETH AVE, RAHWAY NEW JERSEY 07065 (UNION)",1,C,,
07066CSMRN20022,-74.319,40.628,False,34,039,036301,34,34039,34039036301,1400000US34039036301,LOREAL,200-222 TERMINAL AVE,CLARK,NJ,7066,"LOREAL.200-222 TERMINAL AVE, CLARK NEW JERSEY 07066 (UNION)",1,C,,110004268827
07066KRNKC330CE,-74.313,40.633,False,34,039,036301,34,34039,34039036301,1400000US34039036301,KARNAK CORP,330 CENTRAL AVE,CLARK,NJ,7066,"KARNAK CORP.330 CENTRAL AVE, CLARK NEW JERSEY 07066 (UNION)",0,C,,110000318790
07066NTDST1255R,-74.307,40.632,False,34,039,036301,34,34039,34039036301,1400000US34039036301,UNITED STATES GYPSUM CO,1255 RARITAN RD,CLARK,NJ,7066,"UNITED STATES GYPSUM CO.1255 RARITAN RD, CLARK NEW JERSEY 07066 (UNION)",1,C,,110001537926
07066PLYCH160TE,-74.319,40.628,False,34,039,036301,34,34039,34039036301,1400000US34039036301,KERRY INC,160 TERMINAL AVE,CLARK,NJ,7066,"KERRY INC.160 TERMINAL AVE, CLARK NEW JERSEY 07066 (UNION)",0,C,,110000868856
07066RCHRD175TE,-74.32,40.628,False,34,039,036301,34,34039,34039036301,1400000US34039036301,RICHARDSON BATTERY PARTS DIV,175 TERMINAL AVE,CLARK,NJ,7066,"RICHARDSON BATTERY PARTS DIV.175 TERMINAL AVE, CLARK NEW JERSEY 07066 (UNION)",1,C,,
07066TTCLR100TE,-74.316,40.631,False,34,039,036301,34,34039,34039036301,1400000US34039036301,TYCOM TELECOMMUNICATIONS (US) INC,100 TERMINAL AVE,CLARK,NJ,70661319,"TYCOM TELECOMMUNICATIONS (US) INC.100 TERMINAL AVE, CLARK NEW JERSEY 07066 (UNION)",0,C,,
07066HYTTC1300R,-74.31,40.634,True,34,039,036301,34,34039,34039036301,1400000US34039036301,HYATT CLARK IND INC,1300 RARITAN RD,CLARK,NJ,7066,"HYATT CLARK IND INC 1300 RARITAN RD, CLARK, NJ, 7066",1,C,,
07070RCHTC359VE,-74.1,40.813,False,34,003,051400,34,34003,34003051400,1400000US34003051400,ARCHITECTURAL WINDOW MANUFACTURING CORP,359 VETERANS BLVD,RUTHERFORD,NJ,7070,"ARCHITECTURAL WINDOW MANUFACTURING CORP.359 VETERANS BLVD, RUTHERFORD NEW JERSEY 07070 (BERGEN)",0,C,,110023918509
07071BNDCTMARIN,-74.116,40.803000000000004,False,34,003,031100,34,34003,34003031100,1400000US34003031100,BENEDICT-MILLER INC,MARIN AVE & ORIENT WAY,LYNDHURST,NJ,70710912,"BENEDICT-MILLER INC.MARIN AVE & ORIENT WAY, LYNDHURST NEW JERSEY 07071 (BERGEN)",1,C,,
07071PLYRT624SC,-74.116,40.799,False,34,003,031100,34,34003,34003031100,1400000US34003031100,POLYURETHANE SPECIALTIES COIN C,624 SCHUYLER AVE,LYNDHURST,NJ,7071,"POLYURETHANE SPECIALTIES COIN C.624 SCHUYLER AVE, LYNDHURST NEW JERSEY 07071 (BERGEN)",0,C,,110000318834
07071PNCFL540NE,-74.119,40.812,False,34,003,031100,34,34003,34003031100,1400000US34003031100,PENCO OF LYNDHURST INC,540 NEW YORK AVE,LYNDHURST,NJ,70711599,"PENCO OF LYNDHURST INC.540 NEW YORK AVE, LYNDHURST NEW JERSEY 07071 (BERGEN)",1,C,,
07071SKCRP201PO,-74.109,40.805,False,34,003,031100,34,34003,34003031100,1400000US34003031100,SIKA CORP,201 POLITO AVE,LYNDHURST,NJ,7071,"SIKA CORP.201 POLITO AVE, LYNDHURST NEW JERSEY 07071 (BERGEN)",0,C,,110018919660
07071GDHSV757PA,-74.117,40.802,False,34,003,031100,34,34003,34003031100,1400000US34003031100,IGI ADHESIVES INC,757 PAGE AVE,LYNDHURST,NJ,7071,"IGI ADHESIVES INC.757 PAGE AVE, LYNDHURST NEW JERSEY 07071 (BERGEN)",0,C,,
07071SLGRV1170V,-74.105,40.801,False,34,003,031100,34,34003,34003031100,1400000US34003031100,SOLGAR VITAMIN & HERB,1170 VALLEYBROOK AVE,LYNDHURST,NJ,7071,"SOLGAR VITAMIN & HERB.1170 VALLEYBROOK AVE, LYNDHURST NEW JERSEY 07071 (BERGEN)",0,C,,
07071NCHRC6JERO,-74.115,40.798,False,34,003,031100,34,34003,34003031100,1400000US34003031100,ANCHOR CONCRETE PRODS,6 JEROME AVE,LYNDHURST,NJ,7071,"ANCHOR CONCRETE PRODS.6 JEROME AVE, LYNDHURST NEW JERSEY 07071 (BERGEN)",0,C,,
07071FRMPR52PAR,-74.123,40.82,False,34,003,031200,34,34003,34003031200,1400000US34003031200,IMPERIAL PLATING CORP,52 PARK AVE,LYNDHURST,NJ,7071,"IMPERIAL PLATING CORP.52 PARK AVE, LYNDHURST NEW JERSEY 07071 (BERGEN)",0,C,,
07072CKDNN700GO,-74.065,40.832,False,34,003,005000,34,34003,34003005000,1400000US34003005000,PENETONE CORP,700 GOTHAM PKWY,CARLSTADT,NJ,7072,"PENETONE CORP.700 GOTHAM PKWY, CARLSTADT NEW JERSEY 07072 (BERGEN)",0,C,,110002090479
07072CRLTN456WA,-74.062,40.821999999999996,False,34,003,005000,34,34003,34003005000,1400000US34003005000,CARLTON-COOKE PLATING CORP,456 WASHINGTON AVE,CARLSTADT,NJ,7072,"CARLTON-COOKE PLATING CORP.456 WASHINGTON AVE, CARLSTADT NEW JERSEY 07072 (BERGEN)",0,C,,
07072CRNTP484WA,-74.061,40.823,False,34,003,005000,34,34003,34003005000,1400000US34003005000,CORONET PAPER CORP,484 WASHINGTON AVE,CARLSTADT,NJ,70720098,"CORONET PAPER CORP.484 WASHINGTON AVE, CARLSTADT NEW JERSEY 07072 (BERGEN)",0,C,,
07072CSNCH400FO,-74.085,40.835,False,34,003,005000,34,34003,34003005000,1400000US34003005000,COSAN CHEMICAL CORP,400 14TH ST,CARLSTADT,NJ,7072,"COSAN CHEMICAL CORP.400 14TH ST, CARLSTADT NEW JERSEY 07072 (BERGEN)",0,C,,
07072FNTND746GO,-74.064,40.833,False,34,003,005000,34,34003,34003005000,1400000US34003005000,FINITE INDUSTRIES INC SUBSIDIARY OF SCAPA  N A,746 GOTHAM PKWY,CARLSTADT,NJ,7072,"FINITE INDUSTRIES INC SUBSIDIARY OF SCAPA  N A.746 GOTHAM PKWY, CARLSTADT NEW JERSEY 07072 (BERGEN)",1,C,,110017383534
07072GNRLF109KE,-74.06,40.829,False,34,003,005000,34,34003,34003005000,1400000US34003005000,GENERAL VY COAT LLC,109 KERO RD,CARLSTADT,NJ,7072,"GENERAL VY COAT LLC.109 KERO RD, CARLSTADT NEW JERSEY 07072 (BERGEN)",0,C,,
07072GNSCH611BR,-74.09899999999999,40.842,False,34,003,005000,34,34003,34003005000,1400000US34003005000,NOVUS FINE CHEMICALS,611BROAD ST,CARLSTADT,NJ,7072,"NOVUS FINE CHEMICALS.611BROAD ST, CARLSTADT NEW JERSEY 07072 (BERGEN)",0,C,,110000318870
07072HNKLCBERRY,-74.09,40.84,False,34,003,005000,34,34003,34003005000,1400000US34003005000,HENKEL CORP,BERRY AVE & RTE 17 N,CARLSTADT,NJ,7072,"HENKEL CORP.BERRY AVE & RTE 17 N, CARLSTADT NEW JERSEY 07072 (BERGEN)",1,C,,
07072HRTNPBROAD,-74.085,40.834,False,34,003,005000,34,34003,34003005000,1400000US34003005000,HARTIN PAINT & FILLER CORP.,14TH & BROAD ST,CARLSTADT,NJ,70720116,"HARTIN PAINT & FILLER CORP..14TH & BROAD ST, CARLSTADT NEW JERSEY 07072 (BERGEN)",0,C,,110000581781
07072JLNDC665WA,-74.056,40.827,False,34,003,005000,34,34003,34003005000,1400000US34003005000,J LANDAU & CO INC,665 WASHINGTON AVE,CARLSTADT,NJ,70720135,"J LANDAU & CO INC.665 WASHINGTON AVE, CARLSTADT NEW JERSEY 07072 (BERGEN)",0,C,,
07072LKTRM20THB,-74.082,40.830999999999996,False,34,003,005000,34,34003,34003005000,1400000US34003005000,ELEKTROMEK INC,20TH & BROAD ST,CARLSTADT,NJ,7072,"ELEKTROMEK INC.20TH & BROAD ST, CARLSTADT NEW JERSEY 07072 (BERGEN)",0,C,,110000581790
07072LMNMN50013,-74.084,40.835,False,34,003,005000,34,34003,34003005000,1400000US34003005000,ALUMINUM ANODIZING INC,500 - 13TH ST,CARLSTADT,NJ,7072,"ALUMINUM ANODIZING INC.500 - 13TH ST, CARLSTADT NEW JERSEY 07072 (BERGEN)",0,C,,
07072MNHTT333ST,-74.075,40.836,False,34,003,005000,34,34003,34003005000,1400000US34003005000,KIK NEW JERSEY LLC,333 STARKE RD,CARLSTADT,NJ,70722109,"KIK NEW JERSEY LLC.333 STARKE RD, CARLSTADT NEW JERSEY 07072 (BERGEN)",1,C,,110000318898
07072MTLMP472BA,-74.055,40.823,False,34,003,005000,34,34003,34003005000,1400000US34003005000,METAL IMPROVEMENT CO INC,474 BARELL AVE,CARLSTADT,NJ,7072,"METAL IMPROVEMENT CO INC.474 BARELL AVE, CARLSTADT NEW JERSEY 07072 (BERGEN)",0,C,,
07072PNRND401WA,-74.063,40.82,False,34,003,005000,34,34003,34003005000,1400000US34003005000,PIONEER INDUSTRIES INC,401 WASHINGTON AVE,CARLSTADT,NJ,7072,"PIONEER INDUSTRIES INC.401 WASHINGTON AVE, CARLSTADT NEW JERSEY 07072 (BERGEN)",0,C,,
07072RSYNCFOOTO,-74.086,40.834,False,34,003,005000,34,34003,34003005000,1400000US34003005000,ARSYNCO INC,FOOT OF 13TH ST,CARLSTADT,NJ,70720008,"ARSYNCO INC.FOOT OF 13TH ST, CARLSTADT NEW JERSEY 07072 (BERGEN)",0,C,,
07072SCHWR400GO,-74.071,40.826,False,34,003,005000,34,34003,34003005000,1400000US34003005000,SCHWARZ LEATHER CO,400 GOTHAM PKY,CARLSTADT,NJ,7072,"SCHWARZ LEATHER CO.400 GOTHAM PKY, CARLSTADT NEW JERSEY 07072 (BERGEN)",0,C,,
07072TCCST440ME,-74.054,40.827,False,34,003,005000,34,34003,34003005000,1400000US34003005000,TEC-CAST INC,440 MEADOW LN,CARLSTADT,NJ,7072,"TEC-CAST INC.440 MEADOW LN, CARLSTADT NEW JERSEY 07072 (BERGEN)",0,C,,
07072TCHNC150GR,-74.075,40.836,False,34,003,005000,34,34003,34003005000,1400000US34003005000,TECHNICAL OIL PRODS INC,150 GRAND ST,CARLSTADT,NJ,7072,"TECHNICAL OIL PRODS INC.150 GRAND ST, CARLSTADT NEW JERSEY 07072 (BERGEN)",1,C,,
07073MTHSN932PA,-74.086,40.832,False,34,003,005000,34,34003,34003005000,1400000US34003005000,MATHESON TRI-GAS INC,932 PATERSON PLANK RD,EAST RUTHERFORD,NJ,7073,"MATHESON TRI-GAS INC.932 PATERSON PLANK RD, EAST RUTHERFORD NEW JERSEY 07073 (BERGEN)",0,C,,
07072RNDLP701TW,-74.08,40.83,False,34,003,005000,34,34003,34003005000,1400000US34003005000,RANDOLPH PRODUCTS CO,701 12TH ST,CARLSTADT,NJ,7072,"RANDOLPH PRODUCTS CO.701 12TH ST, CARLSTADT NEW JERSEY 07072 (BERGEN)",0,C,,
07072KRHNN3VETE,-74.066,40.825,False,34,003,005000,34,34003,34003005000,1400000US34003005000,KROHN INDUSTRIES INC,303 VETERANS BLVD,CARLSTADT,NJ,70722708,"KROHN INDUSTRIES INC.303 VETERANS BLVD, CARLSTADT NEW JERSEY 07072 (BERGEN)",0,C,,
07072PTTRS6INDU,-74.09899999999999,40.847,False,34,003,005000,34,34003,34003005000,1400000US34003005000,POTTERS INDUSTRIES LLC,600 IND US TRIAL RD,CARLSTADT,NJ,7072,"POTTERS INDUSTRIES LLC.600 IND US TRIAL RD, CARLSTADT NEW JERSEY 07072 (BERGEN)",0,C,,110001529819
07072HGHTN3AMRA,-74.067,40.832,False,34,003,005000,34,34003,34003005000,1400000US34003005000,HOUGHTON CHEMICAL CORP,30 AMOR AVE,CARLSTADT,NJ,7072,"HOUGHTON CHEMICAL CORP.30 AMOR AVE, CARLSTADT NEW JERSEY 07072 (BERGEN)",0,C,,110022904856
07072CSTLN190JO,-74.06,40.825,True,34,003,005000,34,34003,34003005000,1400000US34003005000,COASTAL IND INC,190 JONY DR,CARLSTADT,NJ,7072,"COASTAL IND INC 190 JONY DR, CARLSTADT, NJ, 7072",1,C,,
07072SGRVC320PA,-74.08,40.828,False,34,003,012001,34,34003,34003012001,1400000US34003012001,SEAGRAVE COATINGS CORP,320 PATERSON PLANK RD,CARLSTADT,NJ,7072,"SEAGRAVE COATINGS CORP.320 PATERSON PLANK RD, CARLSTADT NEW JERSEY 07072 (BERGEN)",0,C,,110000318923
07073BCTND1STAN,-74.094,40.829,False,34,003,012001,34,34003,34003012001,1400000US34003012001,BECTON DICKINSON & CO RUTHERFORD PLANT,1 STANLEY ST,EAST RUTHERFORD,NJ,7073,"BECTON DICKINSON & CO RUTHERFORD PLANT.1 STANLEY ST, EAST RUTHERFORD NEW JERSEY 07073 (BERGEN)",0,C,,
07073CLNLP180EA,-74.087,40.821,False,34,003,012001,34,34003,34003012001,1400000US34003012001,COATES SCREEN INC,180 E UNION AVE,EAST RUTHERFORD,NJ,7073,"COATES SCREEN INC.180 E UNION AVE, EAST RUTHERFORD NEW JERSEY 07073 (BERGEN)",0,C,,
07073DBSCHUNION,-74.094,40.825,False,34,003,012001,34,34003,34003012001,1400000US34003012001,DIAMOND CHEMICAL CO INC,UNION AVE & DUBOIS ST,EAST RUTHERFORD,NJ,7073,"DIAMOND CHEMICAL CO INC.UNION AVE & DUBOIS ST, EAST RUTHERFORD NEW JERSEY 07073 (BERGEN)",0,C,,110000603115
07073GNRLF13MAN,-74.089,40.826,False,34,003,012001,34,34003,34003012001,1400000US34003012001,FXI INC,13 MANOR RD,EAST RUTHERFORD,NJ,7073,"FXI INC.13 MANOR RD, EAST RUTHERFORD NEW JERSEY 07073 (BERGEN)",0,C,,110000318941
07073GNRLP390CE,-74.10300000000001,40.839,False,34,003,012001,34,34003,34003012001,1400000US34003012001,SUN CHEMICAL CORP U.S. INK DIV,390 CENTRAL AVE,EAST RUTHERFORD,NJ,7073,"SUN CHEMICAL CORP U.S. INK DIV.390 CENTRAL AVE, EAST RUTHERFORD NEW JERSEY 07073 (BERGEN)",0,C,,110002090521
07073KLTTN160EA,-74.08800000000001,40.821,False,34,003,012001,34,34003,34003012001,1400000US34003012001,H.C. STARCK INC,160 E UNION AVE,EAST RUTHERFORD,NJ,7073,"H.C. STARCK INC.160 E UNION AVE, EAST RUTHERFORD NEW JERSEY 07073 (BERGEN)",0,C,,110000318950
07073MRJND219MU,-74.08800000000001,40.823,False,34,003,012001,34,34003,34003012001,1400000US34003012001,MARIJON DYEING & FINISHING CO INC,219 MURRAY HILL PKY,EAST RUTHERFORD,NJ,7073,"MARIJON DYEING & FINISHING CO INC.219 MURRAY HILL PKY, EAST RUTHERFORD NEW JERSEY 07073 (BERGEN)",0,C,,
07073NTDST343MU,-74.092,40.82,False,34,003,012001,34,34003,34003012001,1400000US34003012001,SUN CHEMICAL CORP US INK DIV,343 MURRAY HILL PKY,EAST RUTHERFORD,NJ,70732110,"SUN CHEMICAL CORP US INK DIV.343 MURRAY HILL PKY, EAST RUTHERFORD NEW JERSEY 07073 (BERGEN)",0,C,,
07073TPNTC890PA,-74.085,40.830999999999996,False,34,003,012001,34,34003,34003012001,1400000US34003012001,"TOP NOTCH METAL FINISHING CO, INC",890 PATERSON PLANK RD,EAST RUTHERFORD,NJ,7073,"TOP NOTCH METAL FINISHING CO, INC.890 PATERSON PLANK RD, EAST RUTHERFORD NEW JERSEY 07073 (BERGEN)",0,C,,
07073TRNSW360MU,-74.092,40.82,False,34,003,012001,34,34003,34003012001,1400000US34003012001,TRANS WORLD MARKETING,360 MURRAY HILL PKY,EAST RUTHERFORD,NJ,7073,"TRANS WORLD MARKETING.360 MURRAY HILL PKY, EAST RUTHERFORD NEW JERSEY 07073 (BERGEN)",0,C,,
07073TRNSW235MU,-74.08800000000001,40.823,False,34,003,012001,34,34003,34003012001,1400000US34003012001,TRANS WORLD MARKETING,235 MURRAY HILL PKY,EAST RUTHERFORD,NJ,7073,"TRANS WORLD MARKETING.235 MURRAY HILL PKY, EAST RUTHERFORD NEW JERSEY 07073 (BERGEN)",0,C,,
07073JBMTP55MAD,-74.092,40.819,True,34,003,012001,34,34003,34003012001,1400000US34003012001,JBMT PRINTING CORP,55 MADISON CIRCLE DR,EAST RUTHERFORD,NJ,7073,"JBMT PRINTING CORP 55 MADISON CIRCLE DR, EAST RUTHERFORD, NJ, 7073",0,C,,
07072VRFLX11511,-74.058,40.835,False,34,003,036200,34,34003,34003036200,1400000US34003036200,VERFLEX CO INC,115-117 MOONACHIE AVE,CARLSTADT,NJ,7072,"VERFLEX CO INC.115-117 MOONACHIE AVE, CARLSTADT NEW JERSEY 07072 (BERGEN)",1,C,,
07074CRSTF100CA,-74.04899999999999,40.836999999999996,False,34,003,036200,34,34003,34003036200,1400000US34003036200,WOODBRIDGE INOAC TECHNICAL PRODUCTS,100 CAROL PL,MOONACHIE,NJ,7074,"WOODBRIDGE INOAC TECHNICAL PRODUCTS.100 CAROL PL, MOONACHIE NEW JERSEY 07074 (BERGEN)",0,C,,110000318987
07074SMFGC8EMPI,-74.047,40.832,False,34,003,036200,34,34003,34003036200,1400000US34003036200,CFC INTL INC,8 EMPIRE BLVD,MOONACHIE,NJ,7074,"CFC INTL INC.8 EMPIRE BLVD, MOONACHIE NEW JERSEY 07074 (BERGEN)",1,C,,
07606JJSPH35EMP,-74.043,40.829,False,34,003,036200,34,34003,34003036200,1400000US34003036200,J. JOSEPHSON INC.,35 EMPIRE BLVD,SOUTH HACKENSACK,NJ,7606,"J. JOSEPHSON INC..35 EMPIRE BLVD, SOUTH HACKENSACK NEW JERSEY 07606 (BERGEN)",0,C,,110000320377
07606WNDSR17EMP,-74.046,40.832,False,34,003,036200,34,34003,34003036200,1400000US34003036200,WINDSOR PRODUCTS INC,17 EMPIRE BLVD,SOUTH HACKENSACK,NJ,7606,"WINDSOR PRODUCTS INC.17 EMPIRE BLVD, SOUTH HACKENSACK NEW JERSEY 07606 (BERGEN)",0,C,,
07074CRSNN20EMP,-74.043,40.830999999999996,False,34,003,036200,34,34003,34003036200,1400000US34003036200,ACRISON INC,20 EMPIRE BLVD,MOONACHIE,NJ,7074,"ACRISON INC.20 EMPIRE BLVD, MOONACHIE NEW JERSEY 07074 (BERGEN)",0,C,,
07072PNTCH117MO,-74.058,40.835,False,34,003,036200,34,34003,34003036200,1400000US34003036200,PAN TECHNOLOGY,117 MOONACHIE AVE,CARLSTADT,NJ,7072,"PAN TECHNOLOGY.117 MOONACHIE AVE, CARLSTADT NEW JERSEY 07072 (BERGEN)",0,C,,110014840690
07606TRNSW14CEN,-74.044,40.830999999999996,False,34,003,036200,34,34003,34003036200,1400000US34003036200,TRANS WORLD MARKETING,14 CENTRAL BLVD,SOUTH HACKENSACK,NJ,7606,"TRANS WORLD MARKETING.14 CENTRAL BLVD, SOUTH HACKENSACK NEW JERSEY 07606 (BERGEN)",0,C,,
07074PPLDP77MOO,-74.074,40.841,False,34,003,036200,34,34003,34003036200,1400000US34003036200,APPLIED PRINTING TECHNOLOGIES,77 MOONACHIE AVE,MOONACHIE,NJ,7074,"APPLIED PRINTING TECHNOLOGIES.77 MOONACHIE AVE, MOONACHIE NEW JERSEY 07074 (BERGEN)",0,C,,
07074PRSDN200WE,-74.06,40.841,True,34,003,036200,34,34003,34003036200,1400000US34003036200,PRESIDENT CONTAINER INC,200 WCOMMERCIAL AVE,MOONACHIE,NJ,7074,"PRESIDENT CONTAINER INC 200 WCOMMERCIAL AVE, MOONACHIE, NJ, 7074",0,C,,
07073STRGL2CARL,-74.115,40.844,False,34,003,012002,34,34003,34003012002,1400000US34003012002,STAR-GLO INDUSTRIES LLC,2 CARLTON AVENUE,EAST RUTHERFORD,NJ,7073,"STAR-GLO INDUSTRIES LLC.2 CARLTON AVENUE, EAST RUTHERFORD NEW JERSEY 07073 (BERGEN)",0,C,,
07080FRRCR115SK,-74.42699999999999,40.566,False,34,023,001002,34,34023,34023001002,1400000US34023001002,FERRO CORP,115 SKYLINE DR,SOUTH PLAINFIELD,NJ,7080,"FERRO CORP.115 SKYLINE DR, SOUTH PLAINFIELD NEW JERSEY 07080 (MIDDLESEX)",0,C,,
07080HMMLC10HAR,-74.399,40.57,False,34,023,001002,34,34023,34023001002,1400000US34023001002,HUMMEL CROTON INC,10 HARMICH RD,SOUTH PLAINFIELD,NJ,7080,"HUMMEL CROTON INC.10 HARMICH RD, SOUTH PLAINFIELD NEW JERSEY 07080 (MIDDLESEX)",0,C,,110000319049
07080KNTLFKENTI,-74.405,40.574,False,34,023,001002,34,34023,34023001002,1400000US34023001002,KENTILE INC,KENTILE RD,SOUTH PLAINFIELD,NJ,70804805,"KENTILE INC.KENTILE RD, SOUTH PLAINFIELD NEW JERSEY 07080 (MIDDLESEX)",1,C,,
07080KRNFM1253N,-74.428,40.58,False,34,023,001002,34,34023,34023001002,1400000US34023001002,PERRY TECHNOLOGY CO INC,1253 NEW MARKET AVE,SOUTH PLAINFIELD,NJ,7080,"PERRY TECHNOLOGY CO INC.1253 NEW MARKET AVE, SOUTH PLAINFIELD NEW JERSEY 07080 (MIDDLESEX)",0,C,,
07080MGNCR26145,-74.431,40.575,False,34,023,001002,34,34023,34023001002,1400000US34023001002,MAGNO CERAM CORP,2614 S CLINTON AVE,SOUTH PLAINFIELD,NJ,7080,"MAGNO CERAM CORP.2614 S CLINTON AVE, SOUTH PLAINFIELD NEW JERSEY 07080 (MIDDLESEX)",1,C,,
07080MTZMT3900S,-74.43,40.565,False,34,023,001002,34,34023,34023001002,1400000US34023001002,AMES ADVANCED MATERIALS CORP,3900 S CLINTON AVE,SOUTH PLAINFIELD,NJ,7080,"AMES ADVANCED MATERIALS CORP.3900 S CLINTON AVE, SOUTH PLAINFIELD NEW JERSEY 07080 (MIDDLESEX)",0,C,,110000739791
07080NRTHS3500S,-74.43,40.568000000000005,False,34,023,001002,34,34023,34023001002,1400000US34023001002,NORTHEASTERN PRODUCTS CO,3500 S CLINTON AVE,SOUTH PLAINFIELD,NJ,7080,"NORTHEASTERN PRODUCTS CO.3500 S CLINTON AVE, SOUTH PLAINFIELD NEW JERSEY 07080 (MIDDLESEX)",0,C,,
07080NTRLB650SO,-74.417,40.55,False,34,023,001002,34,34023,34023001002,1400000US34023001002,NBTY NJ (NUTRO LABORATORIES),650 HADLEY RD,SOUTH PLAINFIELD,NJ,70800707,"NBTY NJ (NUTRO LABORATORIES).650 HADLEY RD, SOUTH PLAINFIELD NEW JERSEY 07080 (MIDDLESEX)",0,C,,110000319067
07080PLTNL4301S,-74.429,40.562,False,34,023,001002,34,34023,34023001002,1400000US34023001002,PLATINA LABORATORIES INC,4301 S CLINTON AVE,SOUTH PLAINFIELD,NJ,7080,"PLATINA LABORATORIES INC.4301 S CLINTON AVE, SOUTH PLAINFIELD NEW JERSEY 07080 (MIDDLESEX)",1,C,,
07080PRSCN111SN,-74.423,40.569,False,34,023,001002,34,34023,34023001002,1400000US34023001002,PROSOCO INC,111 SNYDER RD,SOUTH PLAINFIELD,NJ,7080,"PROSOCO INC.111 SNYDER RD, SOUTH PLAINFIELD NEW JERSEY 07080 (MIDDLESEX)",0,C,,
07080THRMN3651S,-74.43,40.565,False,34,023,001002,34,34023,34023001002,1400000US34023001002,LR METAL TREATING DIV THERMO NATIONAL INDUSTRIES,3651 S CLINTON AVE,SOUTH PLAINFIELD,NJ,7080,"LR METAL TREATING DIV THERMO NATIONAL INDUSTRIES.3651 S CLINTON AVE, SOUTH PLAINFIELD NEW JERSEY 07080 (MIDDLESEX)",0,C,,
07080TNGLY200SO,-74.408,40.554,False,34,023,001002,34,34023,34023001002,1400000US34023001002,TINGLEY RUBBER CORP,200 S AVE,SOUTH PLAINFIELD,NJ,7080,"TINGLEY RUBBER CORP.200 S AVE, SOUTH PLAINFIELD NEW JERSEY 07080 (MIDDLESEX)",1,C,,
07080TRNCR375ME,-74.408,40.575,False,34,023,001002,34,34023,34023001002,1400000US34023001002,ITRAN CORP,375 METUCHEN RD,SOUTH PLAINFIELD,NJ,7080,"ITRAN CORP.375 METUCHEN RD, SOUTH PLAINFIELD NEW JERSEY 07080 (MIDDLESEX)",0,C,,
07080TYCNC690MO,-74.42399999999999,40.567,False,34,023,001002,34,34023,34023001002,1400000US34023001002,KOBO PRODUCTS INC,690 MONTROSE AVE,SOUTH PLAINFIELD,NJ,7080,"KOBO PRODUCTS INC.690 MONTROSE AVE, SOUTH PLAINFIELD NEW JERSEY 07080 (MIDDLESEX)",0,C,,110002090610
07080VLSPR3474R,-74.432,40.569,False,34,023,001002,34,34023,34023001002,1400000US34023001002,VALSPAR CORP,3474 RAND AVE,SOUTH PLAINFIELD,NJ,7080,"VALSPAR CORP.3474 RAND AVE, SOUTH PLAINFIELD NEW JERSEY 07080 (MIDDLESEX)",0,C,,
07080VNGRD239ST,-74.422,40.563,False,34,023,001002,34,34023,34023001002,1400000US34023001002,VANGUARD RESEARCH INDUSTRIES INC,239 SAINT NICHOLAS AVE,SOUTH PLAINFIELD,NJ,7080,"VANGUARD RESEARCH INDUSTRIES INC.239 SAINT NICHOLAS AVE, SOUTH PLAINFIELD NEW JERSEY 07080 (MIDDLESEX)",0,C,,110000319101
07080DGSSC104NE,-74.429,40.577,False,34,023,001002,34,34023,34023001002,1400000US34023001002,DEGUSSA CORP,104 NEW ERA DR,SOUTH PLAINFIELD,NJ,70800737,"DEGUSSA CORP.104 NEW ERA DR, SOUTH PLAINFIELD NEW JERSEY 07080 (MIDDLESEX)",0,C,,
07080PLTNL3601S,-74.43,40.566,False,34,023,001002,34,34023,34023001002,1400000US34023001002,PLATINA LABORATORIES INC,3601 S CLINTON AVE,SOUTH PLAINFIELD,NJ,7080,"PLATINA LABORATORIES INC.3601 S CLINTON AVE, SOUTH PLAINFIELD NEW JERSEY 07080 (MIDDLESEX)",0,C,,
07080SLRPT669MO,-74.42399999999999,40.567,False,34,023,001002,34,34023,34023001002,1400000US34023001002,SILOR OPTICAL INC,669 MONTROSE AVE,SOUTH PLAINFIELD,NJ,7080,"SILOR OPTICAL INC.669 MONTROSE AVE, SOUTH PLAINFIELD NEW JERSEY 07080 (MIDDLESEX)",0,C,,
07080CLRKC3615K,-74.425,40.568000000000005,False,34,023,001002,34,34023,34023001002,1400000US34023001002,WARNER JENKINSON CO INC (DBA WARNER JENKINSON COSMETICS),3615 KENNEDY RD,SOUTH PLAINFIELD,NJ,7080,"WARNER JENKINSON CO INC (DBA WARNER JENKINSON COSMETICS).3615 KENNEDY RD, SOUTH PLAINFIELD NEW JERSEY 07080 (MIDDLESEX)",0,C,,
07080NFRMT4315N,-74.438,40.56,False,34,023,001002,34,34023,34023001002,1400000US34023001002,UNIFORM TUBES INC KLEINER METAL DIV,4315 NEW BRUNSWICK AVE,SOUTH PLAINFIELD,NJ,7080,"UNIFORM TUBES INC KLEINER METAL DIV.4315 NEW BRUNSWICK AVE, SOUTH PLAINFIELD NEW JERSEY 07080 (MIDDLESEX)",0,C,,
07080TVCNC110PM,-74.426,40.569,False,34,023,001002,34,34023,34023001002,1400000US34023001002,TEVCO ENTERPRISES INC,110 POMPONIO AVE,SOUTH PLAINFIELD,NJ,7080,"TEVCO ENTERPRISES INC.110 POMPONIO AVE, SOUTH PLAINFIELD NEW JERSEY 07080 (MIDDLESEX)",0,C,,110000319094
08070CLRKC3CENT,-74.431,40.569,False,34,023,001002,34,34023,34023001002,1400000US34023001002,WARNER JENKINSON COSMETIC COLORS,3 CENTURY RD,SOUTH PLAINFIELD,NJ,70801301,"WARNER JENKINSON COSMETIC COLORS.3 CENTURY RD, SOUTH PLAINFIELD NEW JERSEY 07080 (MIDDLESEX)",0,C,,
07080CSMDF3459S,-74.43,40.568000000000005,False,34,023,001002,34,34023,34023001002,1400000US34023001002,STERIS ISOMEDIX SERVICES,3459 S CLINTON AVE,SOUTH PLAINFIELD,NJ,7080,"STERIS ISOMEDIX SERVICES.3459 S CLINTON AVE, SOUTH PLAINFIELD NEW JERSEY 07080 (MIDDLESEX)",0,C,,110013694494
07080WRNRJ107WA,-74.432,40.566,False,34,023,001002,34,34023,34023001002,1400000US34023001002,SENSIENT COLORS INC (FORMERLY WARNER JENKINSON ),107 WADE AVE,SOUTH PLAINFIELD,NJ,70801131,"SENSIENT COLORS INC (FORMERLY WARNER JENKINSON ).107 WADE AVE, SOUTH PLAINFIELD NEW JERSEY 07080 (MIDDLESEX)",0,C,,
07080NTDST14HAR,-74.399,40.57,False,34,023,001002,34,34023,34023001002,1400000US34023001002,UNITED STEEL DECK,14 HARMICH RD,SOUTH PLAINFIELD,NJ,7080,"UNITED STEEL DECK.14 HARMICH RD, SOUTH PLAINFIELD NEW JERSEY 07080 (MIDDLESEX)",0,C,,
07080DGSSC2495S,-74.431,40.576,False,34,023,001002,34,34023,34023001002,1400000US34023001002,FERRO CORP,2495 S CLINTON AVE,SOUTH PLAINFIELD,NJ,7080,"FERRO CORP.2495 S CLINTON AVE, SOUTH PLAINFIELD NEW JERSEY 07080 (MIDDLESEX)",0,C,,
07080TMPLN291HA,-74.42399999999999,40.56,False,34,023,001002,34,34023,34023001002,1400000US34023001002,TEMPIL INC,2901 HAMILTON BLVD,SOUTH PLAINFIELD,NJ,7080,"TEMPIL INC.2901 HAMILTON BLVD, SOUTH PLAINFIELD NEW JERSEY 07080 (MIDDLESEX)",1,C,,110000870380
07080BLLBR6HLLY,-74.414,40.563,False,34,023,001002,34,34023,34023001002,1400000US34023001002,ABLE LABORATORIES,6 HOLLYWOOD CT,SOUTH PLAINFIELD,NJ,7080,"ABLE LABORATORIES.6 HOLLYWOOD CT, SOUTH PLAINFIELD NEW JERSEY 07080 (MIDDLESEX)",0,C,,110005498256
07080MNRLP1CLID,-74.404,40.552,False,34,023,001002,34,34023,34023001002,1400000US34023001002,BRENNTAG SPECIALTIES INC,1000 COOLIDGE ST,SOUTH PLAINFIELD,NJ,7080,"BRENNTAG SPECIALTIES INC.1000 COOLIDGE ST, SOUTH PLAINFIELD NEW JERSEY 07080 (MIDDLESEX)",0,C,,110004190134
0708WKYSTN3451S,-74.43,40.57,False,34,023,001002,34,34023,34023001002,1400000US34023001002,KEYSTONE PLASTICS INC,3451 SOUTH CLINTON AVENUE,SOUTH PLAINFIELD,NJ,7080,"KEYSTONE PLASTICS INC.3451 SOUTH CLINTON AVENUE, SOUTH PLAINFIELD NEW JERSEY 07080 (MIDDLESEX)",0,C,,110030725133
0708WVLDSX8MNTR,-74.426,40.567,False,34,023,001002,34,34023,34023001002,1400000US34023001002,VALID USA,800 MONTROSE AVE CN1037,SOUTH PLAINFIELD,NJ,7080,"VALID USA.800 MONTROSE AVE CN1037, SOUTH PLAINFIELD NEW JERSEY 07080 (MIDDLESEX)",0,C,,110006849170
0708WTCHNC238ST,-74.422,40.563,False,34,023,001002,34,34023,34023001002,1400000US34023001002,TECHNICK PRODUCTS INC,238 ST NICHOLAS AVE,SOUTH PLAINFIELD,NJ,7080,"TECHNICK PRODUCTS INC.238 ST NICHOLAS AVE, SOUTH PLAINFIELD NEW JERSEY 07080 (MIDDLESEX)",0,C,,110069319464
0708WBNKRS164NE,-74.437,40.58,False,34,023,001002,34,34023,34023001002,1400000US34023001002,BANKER STEEL NEW JERSEY,1640 NEW MARKET AVE,SOUTH PLAINFIELD,NJ,7080,"BANKER STEEL NEW JERSEY.1640 NEW MARKET AVE, SOUTH PLAINFIELD NEW JERSEY 07080 (MIDDLESEX)",0,C,,110070071386
0708WBRNNT1CRAG,-74.421,40.552,False,34,023,001002,34,34023,34023001002,1400000US34023001002,BRENNTAG SPECIALTIES INC,1 CRAGWOOD RD,SOUTH PLAINFIELD,NJ,7080,"BRENNTAG SPECIALTIES INC.1 CRAGWOOD RD, SOUTH PLAINFIELD NEW JERSEY 07080 (MIDDLESEX)",0,C,,110070252591
0708WKBPRD234ST,-74.422,40.563,False,34,023,001002,34,34023,34023001002,1400000US34023001002,KOBO PRODUCTS INC,234 ST NICHOLAS AVE,SOUTH PLAINFIELD,NJ,7080,"KOBO PRODUCTS INC.234 ST NICHOLAS AVE, SOUTH PLAINFIELD NEW JERSEY 07080 (MIDDLESEX)",0,C,,110070516612
0708WKBPRD3474S,-74.43,40.57,False,34,023,001002,34,34023,34023001002,1400000US34023001002,KOBO PRODUCTS INC,3474 S CLINTON AVE,SOUTH PLAINFIELD,NJ,7080,"KOBO PRODUCTS INC.3474 S CLINTON AVE, SOUTH PLAINFIELD NEW JERSEY 07080 (MIDDLESEX)",0,C,,110023743369
07080SMLBN100SO,-74.404,40.57,True,34,023,001002,34,34023,34023001002,1400000US34023001002,SAMUEL BINGHAM CO,100 SOMGYI CT,SOUTH PLAINFIELD,NJ,7080,"SAMUEL BINGHAM CO 100 SOMGYI CT, SOUTH PLAINFIELD, NJ, 7080",1,C,,
07083DRXNC5STAH,-74.281,40.708,False,34,039,032700,34,34039,34039032700,1400000US34039032700,DUREX INC,5 STAHUBER AVE,UNION,NJ,7083,"DUREX INC.5 STAHUBER AVE, UNION NEW JERSEY 07083 (UNION)",0,C,,
07083HRVRD2330V,-74.27600000000001,40.707,False,34,039,032700,34,34039,34039032700,1400000US34039032700,HARVARD INDUSTRIES INC ESNA DIV,2330 VAUXHALL RD,UNION,NJ,7083,"HARVARD INDUSTRIES INC ESNA DIV.2330 VAUXHALL RD, UNION NEW JERSEY 07083 (UNION)",0,C,,
07083MLBRR2199S,-74.267,40.713,False,34,039,032700,34,34039,34039032700,1400000US34039032700,MULBERRY METAL PRODUCTS INC,2199 STANLEY TERRACE,UNION,NJ,7083,"MULBERRY METAL PRODUCTS INC.2199 STANLEY TERRACE, UNION NEW JERSEY 07083 (UNION)",0,C,,
07083RDDVL2400V,-74.278,40.709,False,34,039,032700,34,34039,34039032700,1400000US34039032700,RED DEVIL INC,2400 VAUXHALL RD,UNION,NJ,70835035,"RED DEVIL INC.2400 VAUXHALL RD, UNION NEW JERSEY 07083 (UNION)",0,C,,
07083TSSLR2389V,-74.277,40.708,False,34,039,032700,34,34039,34039032700,1400000US34039032700,TESSLER & WEISS/PREMESCO INC,2389 VAUXHALL RD,UNION,NJ,7083,"TESSLER & WEISS/PREMESCO INC.2389 VAUXHALL RD, UNION NEW JERSEY 07083 (UNION)",1,C,,110024887416
0708WMNSTL161LU,-74.283,40.702,False,34,039,032700,34,34039,34039032700,1400000US34039032700,"MAIN STEEL POLISHING CO., INC.",1061 LOUSONS ROAD,UNION,NJ,7083,"MAIN STEEL POLISHING CO., INC..1061 LOUSONS ROAD, UNION NEW JERSEY 07083 (UNION)",1,C,,110004160504
